[{"web": "", "fax": "1 814 863 8457", "bibCode": "", "end": "1999-01-06", "title": "Radar Observations of Meteors: Issues and Results at 1999 URSI National Meeting", "meetingNumber": "382", "modified": "Oct 05, 1999 12:00:00 AM", "start": "1999-01-06", "GoogleMapsResponse": {"status": "OK", "results": [{"geometry": {"location_type": "APPROXIMATE", "bounds": {"northeast": {"lat": 40.0945509, "lng": -105.178197}, "southwest": {"lat": 39.9640689, "lng": -105.3017579}}, "viewport": {"northeast": {"lat": 40.0945509, "lng": -105.178197}, "southwest": {"lat": 39.9640689, "lng": -105.3017579}}, "location": {"lat": 40.0149856, "lng": -105.2705456}}, "address_components": [{"long_name": "Boulder", "types": ["locality", "political"], "short_name": "Boulder"}, {"long_name": "Boulder County", "types": ["administrative_area_level_2", "political"], "short_name": "Boulder County"}, {"long_name": "Colorado", "types": ["administrative_area_level_1", "political"], "short_name": "CO"}, {"long_name": "United States", "types": ["country", "political"], "short_name": "US"}], "formatted_address": "Boulder, CO, USA", "types": ["locality", "political"]}]}, "phone": "1 814 865 2354", "contact": "Communications and Space Sciences Laboratory (CSSL)", "location": "Boulder, CO. USA", "address": "The Pennsylvania State Univ., 316 EE East, University Park, PA 16802-2707, USA", "keywords": "radar", "ingested": "Dec 29, 1998 12:00:00 AM", "email": "JDMathews@psu.edu"}, {"web": "", "fax": "520-621-1532", "bibCode": "2000ASSL..256..203W", "end": "1999-01-14", "title": "The Inspiration of Astronomical Phenomena II", "meetingNumber": "364", "modified": "Jul 06, 2009 12:00:00 AM", "start": "1999-01-07", "GoogleMapsResponse": {"status": "OK", "results": [{"geometry": {"location_type": "APPROXIMATE", "bounds": {"northeast": {"lat": 35.99776600000001, "lng": 14.5755}, "southwest": {"lat": 35.805811, "lng": 14.32002}}, "viewport": {"northeast": {"lat": 35.99776600000001, "lng": 14.5755}, "southwest": {"lat": 35.805811, "lng": 14.32002}}, "location": {"lat": 35.8816023, "lng": 14.4490398}}, "address_components": [{"long_name": "Malta Island", "types": ["natural_feature", "establishment"], "short_name": "Malta Island"}], "partial_match": true, "formatted_address": "Malta Island", "types": ["natural_feature", "establishment"]}, {"geometry": {"location_type": "APPROXIMATE", "bounds": {"northeast": {"lat": 36.082227, "lng": 14.3364453}, "southwest": {"lat": 36.0114655, "lng": 14.1835484}}, "viewport": {"northeast": {"lat": 36.082227, "lng": 14.3364453}, "southwest": {"lat": 36.0114655, "lng": 14.1835484}}, "location": {"lat": 36.0442999, "lng": 14.2512221}}, "address_components": [{"long_name": "Gozo", "types": ["natural_feature", "establishment"], "short_name": "Gozo"}, {"long_name": "Malta", "types": ["country", "political"], "short_name": "MT"}], "partial_match": true, "formatted_address": "Gozo, Malta", "types": ["natural_feature", "establishment"]}, {"geometry": {"location_type": "APPROXIMATE", "bounds": {"northeast": {"lat": 35.9044226, "lng": 14.5021409}, "southwest": {"lat": 35.9002359, "lng": 14.4956098}}, "viewport": {"northeast": {"lat": 35.9044226, "lng": 14.5021409}, "southwest": {"lat": 35.9002359, "lng": 14.4956098}}, "location": {"lat": 35.9014543, "lng": 14.4992639}}, "address_components": [{"long_name": "Manoel Island Yacht Marina", "types": ["natural_feature", "establishment"], "short_name": "Manoel Island Yacht Marina"}, {"long_name": "Malta", "types": ["country", "political"], "short_name": "MT"}], "partial_match": true, "formatted_address": "Manoel Island Yacht Marina, Malta", "types": ["natural_feature", "establishment"]}, {"geometry": {"location_type": "APPROXIMATE", "bounds": {"northeast": {"lat": 35.9055132, "lng": 14.5083421}, "southwest": {"lat": 35.9011984, "lng": 14.4962294}}, "viewport": {"northeast": {"lat": 35.9055132, "lng": 14.5083421}, "southwest": {"lat": 35.9011984, "lng": 14.4962294}}, "location": {"lat": 35.9037636, "lng": 14.502176}}, "address_components": [{"long_name": "Manoel Island", "types": ["natural_feature", "establishment"], "short_name": "Manoel Island"}, {"long_name": "Malta", "types": ["country", "political"], "short_name": "MT"}], "partial_match": true, "formatted_address": "Manoel Island, Malta", "types": ["natural_feature", "establishment"]}, {"geometry": {"location_type": "APPROXIMATE", "bounds": {"northeast": {"lat": 35.96739580000001, "lng": 14.4074751}, "southwest": {"lat": 35.9638876, "lng": 14.3984628}}, "viewport": {"northeast": {"lat": 35.96739580000001, "lng": 14.4074751}, "southwest": {"lat": 35.9638876, "lng": 14.3984628}}, "location": {"lat": 35.9656795, "lng": 14.4021067}}, "address_components": [{"long_name": "St Paul's Islands", "types": ["natural_feature", "establishment"], "short_name": "St Paul's Islands"}, {"long_name": "Malta", "types": ["country", "political"], "short_name": "MT"}], "partial_match": true, "formatted_address": "St Paul's Islands, Malta", "types": ["natural_feature", "establishment"]}]}, "phone": "520-621-6528", "contact": "Prof. R.E. White", "location": "Island Republic of Malta", "address": "The University of Arizona, Steward Observatory, 933 N. Cherry Ave., Tucson, AZ.  85721-1532", "keywords": "astronomy", "ingested": "Nov 25, 1998 12:00:00 AM", "email": "rwhite@as.arizona.edu"}, {"web": "http://www.astro.puc.cl/~workshop/", "fax": "56-2-686-4948", "bibCode": "", "end": "1999-01-14", "title": "The Cosmological Parameters Omega", "meetingNumber": "320", "modified": "Aug 14, 1998 12:00:00 AM", "start": "1999-01-11", "GoogleMapsResponse": {"status": "OK", "results": [{"geometry": {"location_type": "APPROXIMATE", "bounds": {"northeast": {"lat": -38.9974138, "lng": -71.5032299}, "southwest": {"lat": -39.50026920000001, "lng": -72.074259}}, "viewport": {"northeast": {"lat": -38.9974138, "lng": -71.5032299}, "southwest": {"lat": -39.50026920000001, "lng": -72.074259}}, "location": {"lat": -39.272254, "lng": -71.977629}}, "address_components": [{"long_name": "Puc\u00f3n", "types": ["locality", "political"], "short_name": "Puc\u00f3n"}, {"long_name": "Puc\u00f3n", "types": ["administrative_area_level_3", "political"], "short_name": "Puc\u00f3n"}, {"long_name": "Caut\u00edn Province", "types": ["administrative_area_level_2", "political"], "short_name": "Caut\u00edn Province"}, {"long_name": "Araucania", "types": ["administrative_area_level_1", "political"], "short_name": "Araucania"}, {"long_name": "Chile", "types": ["country", "political"], "short_name": "CL"}], "formatted_address": "Puc\u00f3n, Araucan\u00eda Region, Chile", "types": ["locality", "political"]}]}, "phone": "56-2-686-4936", "contact": "Alejandro Clocchiatti", "location": "Pucon, Chile", "address": "The Department of Astronomy and Astrophysics of P. Universidad Catolica, Observatorio Manuel Foster, Casilla 306, Santiago 22, Chile", "keywords": "", "ingested": "Aug 14, 1998 12:00:00 AM", "email": "workshop@astro.puc.cl"}, {"web": "", "fax": "", "bibCode": " 1998AAS...193......", "end": "1999-01-17", "title": "193nd Meeting of the American Astronomical Society", "meetingNumber": "496", "modified": "Apr 15, 1999 12:00:00 AM", "start": "1999-01-12", "GoogleMapsResponse": {"status": "OK", "results": [{"geometry": {"location_type": "APPROXIMATE", "bounds": {"northeast": {"lat": 30.5168629, "lng": -97.5684199}, "southwest": {"lat": 30.0986589, "lng": -97.9383829}}, "viewport": {"northeast": {"lat": 30.5168629, "lng": -97.5684199}, "southwest": {"lat": 30.0986589, "lng": -97.9383829}}, "location": {"lat": 30.267153, "lng": -97.7430608}}, "address_components": [{"long_name": "Austin", "types": ["locality", "political"], "short_name": "Austin"}, {"long_name": "Travis County", "types": ["administrative_area_level_2", "political"], "short_name": "Travis County"}, {"long_name": "Texas", "types": ["administrative_area_level_1", "political"], "short_name": "TX"}, {"long_name": "United States", "types": ["country", "political"], "short_name": "US"}], "formatted_address": "Austin, TX, USA", "types": ["locality", "political"]}]}, "phone": "", "contact": "", "location": "Austin, TX.", "address": "", "keywords": "American Astronomical Society, AAS", "ingested": "Apr 15, 1999 12:00:00 AM", "email": ""}, {"web": "", "fax": "+98 - 21 - 228 04 15", "bibCode": " 1999astro.ph..2207N", "end": "1999-02-04", "title": "IPM SCHOOL ON COSMOLOGY 1999: LARGE SCALE STRUCTURE FORMATION", "meetingNumber": "298", "modified": "Jul 06, 2009 12:00:00 AM", "start": "1999-01-23", "GoogleMapsResponse": {"status": "OK", "results": [{"geometry": {"location_type": "APPROXIMATE", "bounds": {"northeast": {"lat": 35.8345498, "lng": 51.6062163}, "southwest": {"lat": 35.5683295, "lng": 51.0934209}}, "viewport": {"northeast": {"lat": 35.8345498, "lng": 51.6062163}, "southwest": {"lat": 35.5683295, "lng": 51.0934209}}, "location": {"lat": 35.696216, "lng": 51.422945}}, "address_components": [{"long_name": "Tehran", "types": ["locality", "political"], "short_name": "Tehran"}, {"long_name": "Tehran", "types": ["administrative_area_level_1", "political"], "short_name": "Tehran"}, {"long_name": "Iran", "types": ["country", "political"], "short_name": "IR"}], "formatted_address": "Tehran, Iran", "types": ["locality", "political"]}]}, "phone": "+98 - 21 - 229 09 34, 228 06 92", "contact": "Mrs. Davarpanah", "location": "Tehran, Iran", "address": "", "keywords": "", "ingested": "Jun 01, 1998 12:00:00 AM", "email": "ipmssf@netware2.ipm.ac.ir"}, {"web": "", "fax": "303-492-7178", "bibCode": "", "end": "1999-01-29", "title": "Workshop on X-ray Interferometry", "meetingNumber": "356", "modified": "Jun 28, 2001 12:00:00 AM", "start": "1999-01-28", "GoogleMapsResponse": {"status": "OK", "results": [{"geometry": {"location_type": "APPROXIMATE", "bounds": {"northeast": {"lat": 40.0945509, "lng": -105.178197}, "southwest": {"lat": 39.9640689, "lng": -105.3017579}}, "viewport": {"northeast": {"lat": 40.0945509, "lng": -105.178197}, "southwest": {"lat": 39.9640689, "lng": -105.3017579}}, "location": {"lat": 40.0149856, "lng": -105.2705456}}, "address_components": [{"long_name": "Boulder", "types": ["locality", "political"], "short_name": "Boulder"}, {"long_name": "Boulder County", "types": ["administrative_area_level_2", "political"], "short_name": "Boulder County"}, {"long_name": "Colorado", "types": ["administrative_area_level_1", "political"], "short_name": "CO"}, {"long_name": "United States", "types": ["country", "political"], "short_name": "US"}], "formatted_address": "Boulder, CO, USA", "types": ["locality", "political"]}]}, "phone": "303-492-4056", "contact": "Webster Cash", "location": "Boulder, Colorado", "address": "University of Colorado, Campus Box 389, Boulder, Colorado 80309", "keywords": "interferometry", "ingested": "Nov 10, 1998 12:00:00 AM", "email": "cash@casa.colorado.edu"}, {"web": "", "fax": "(773) 702-8212", "bibCode": "", "end": "1999-02-03", "title": "The Status of Inflationary Cosmology, Pritzker Symposium & Workshop", "meetingNumber": "340", "modified": "Jun 09, 2009 12:00:00 AM", "start": "1999-01-29", "GoogleMapsResponse": {"status": "OK", "results": [{"geometry": {"location": {"lat": 41.879185, "lng": -87.6311769}, "viewport": {"northeast": {"lat": 41.8805339802915, "lng": -87.6298279197085}, "southwest": {"lat": 41.8778360197085, "lng": -87.63252588029151}}, "location_type": "APPROXIMATE"}, "address_components": [{"long_name": "University of Chicago", "types": ["point_of_interest", "establishment"], "short_name": "University of Chicago"}, {"long_name": "105", "types": ["street_number"], "short_name": "105"}, {"long_name": "West Adams Street", "types": ["route"], "short_name": "W Adams St"}, {"long_name": "Loop", "types": ["neighborhood", "political"], "short_name": "Loop"}, {"long_name": "Chicago", "types": ["locality", "political"], "short_name": "Chicago"}, {"long_name": "Cook County", "types": ["administrative_area_level_2", "political"], "short_name": "Cook County"}, {"long_name": "Illinois", "types": ["administrative_area_level_1", "political"], "short_name": "IL"}, {"long_name": "United States", "types": ["country", "political"], "short_name": "US"}, {"long_name": "60603", "types": ["postal_code"], "short_name": "60603"}, {"long_name": "6215", "types": [], "short_name": "6215"}], "partial_match": true, "formatted_address": "University of Chicago, 105 West Adams Street, Chicago, IL 60603, USA", "types": ["university", "point_of_interest", "establishment"]}]}, "phone": "(773) 702-8203", "contact": "Carrie Eder", "location": "Max Palevsky Center, the University of Chicago", "address": "Astronomy & Astrophysics, The University of Chicago, 5640 South Ellis Avenue, Chicago, Illinois 60637", "keywords": "cosmology", "ingested": "Oct 07, 1998 12:00:00 AM", "email": "eder@oddjob.uchicago.edu"}, {"web": "", "fax": "+ 44 1705 843 106", "bibCode": "", "end": "1999-02-05", "title": "Southern African Relativistic Cosmology Conference\r\n(celebrating the 60th birthday of George Ellis)", "meetingNumber": "300", "modified": "Aug 09, 2001 12:00:00 AM", "start": "1999-02-01", "GoogleMapsResponse": {"status": "OK", "results": [{"geometry": {"location_type": "APPROXIMATE", "bounds": {"northeast": {"lat": -33.47127, "lng": 19.00467}, "southwest": {"lat": -34.3587022, "lng": 18.3074488}}, "viewport": {"northeast": {"lat": -33.47127, "lng": 19.00467}, "southwest": {"lat": -34.3587022, "lng": 18.3074488}}, "location": {"lat": -33.9248685, "lng": 18.4240553}}, "address_components": [{"long_name": "Cape Town", "types": ["locality", "political"], "short_name": "Cape Town"}, {"long_name": "Cape Town", "types": ["administrative_area_level_3", "political"], "short_name": "Cape Town"}, {"long_name": "Cape Town", "types": ["administrative_area_level_2", "political"], "short_name": "Cape Town"}, {"long_name": "Western Cape", "types": ["administrative_area_level_1", "political"], "short_name": "WC"}, {"long_name": "South Africa", "types": ["country", "political"], "short_name": "ZA"}], "formatted_address": "Cape Town, South Africa", "types": ["locality", "political"]}, {"geometry": {"location_type": "APPROXIMATE", "bounds": {"northeast": {"lat": -33.8899498, "lng": 18.5413949}, "southwest": {"lat": -33.969091, "lng": 18.3690399}}, "viewport": {"northeast": {"lat": -33.8899498, "lng": 18.5413949}, "southwest": {"lat": -33.969091, "lng": 18.3690399}}, "location": {"lat": -33.924741, "lng": 18.4241074}}, "address_components": [{"long_name": "Cape Town", "types": ["sublocality", "political"], "short_name": "Cape Town"}, {"long_name": "Cape Town", "types": ["locality", "political"], "short_name": "Cape Town"}, {"long_name": "Cape Town", "types": ["administrative_area_level_3", "political"], "short_name": "Cape Town"}, {"long_name": "Cape Town", "types": ["administrative_area_level_2", "political"], "short_name": "Cape Town"}, {"long_name": "Western Cape", "types": ["administrative_area_level_1", "political"], "short_name": "WC"}, {"long_name": "South Africa", "types": ["country", "political"], "short_name": "ZA"}], "formatted_address": "Cape Town, South Africa", "types": ["sublocality", "political"]}]}, "phone": "+ 44 1705 843 112 / 009", "contact": "Dr. R. Maartens", "location": "Cape Town, South Africa", "address": "Portsmouth University,, School of Computer Science and Mathematics,, Hampshire Terrace, Portsmouth, Britain, PO1 2EG", "keywords": "", "ingested": "Jun 01, 1998 12:00:00 AM", "email": "maartens@sms.port.ac.uk"}, {"web": "", "fax": "+ 39 6 4454992", "bibCode": " 2000chun.proc.....G", "end": "1999-02-05", "title": "2ND ICRA NETWORK WORKSHOP: THE CHAOTIC UNIVERSE: THEORY, OBSERVATIONS,\r\nCOMPUTER EXPERIMENTS", "meetingNumber": "299", "modified": "Jul 17, 2001 12:00:00 AM", "start": "1999-02-01", "GoogleMapsResponse": {"status": "OK", "results": [{"geometry": {"location_type": "APPROXIMATE", "bounds": {"northeast": {"lat": 42.0505462, "lng": 12.7302888}, "southwest": {"lat": 41.769596, "lng": 12.341707}}, "viewport": {"northeast": {"lat": 42.0505462, "lng": 12.7302888}, "southwest": {"lat": 41.769596, "lng": 12.341707}}, "location": {"lat": 41.8929163, "lng": 12.4825199}}, "address_components": [{"long_name": "Rome", "types": ["locality", "political"], "short_name": "Rome"}, {"long_name": "Rome", "types": ["administrative_area_level_3", "political"], "short_name": "Rome"}, {"long_name": "Rome", "types": ["administrative_area_level_2", "political"], "short_name": "RM"}, {"long_name": "Lazio", "types": ["administrative_area_level_1", "political"], "short_name": "Lazio"}, {"long_name": "Italy", "types": ["country", "political"], "short_name": "IT"}], "formatted_address": "Rome, Italy", "types": ["locality", "political"]}]}, "phone": "+ 39 6 49914397", "contact": "", "location": "Rome, Italy", "address": "International Ctr. for Relativistic Astrophysics: P. le Sturzo: Rome,, Italy Chaotic Universe Workshop,, ICRA, Dipartimento di Fisica,, University degli Studi de Roma, La Sapienza,, Piazzale Aldo Moro 5, I--00185, Roma, Italy", "keywords": "", "ingested": "Jun 01, 1998 12:00:00 AM", "email": "gurzadya@icra.it; chaos@.icra.it"}, {"web": "", "fax": "33 1 44 33 54 70", "bibCode": " 2000P&SS...48.1143S", "end": "1999-02-05", "title": "Mars Exploration Programme & Sample Return Missions", "meetingNumber": "383", "modified": "Jul 17, 2001 12:00:00 AM", "start": "1999-02-01", "GoogleMapsResponse": {"status": "OK", "results": [{"geometry": {"location_type": "APPROXIMATE", "bounds": {"northeast": {"lat": 48.9021449, "lng": 2.4699208}, "southwest": {"lat": 48.815573, "lng": 2.224199}}, "viewport": {"northeast": {"lat": 48.9021449, "lng": 2.4699208}, "southwest": {"lat": 48.815573, "lng": 2.224199}}, "location": {"lat": 48.856614, "lng": 2.3522219}}, "address_components": [{"long_name": "Paris", "types": ["locality", "political"], "short_name": "Paris"}, {"long_name": "Paris", "types": ["administrative_area_level_2", "political"], "short_name": "75"}, {"long_name": "\u00cele-de-France", "types": ["administrative_area_level_1", "political"], "short_name": "IDF"}, {"long_name": "France", "types": ["country", "political"], "short_name": "FR"}], "formatted_address": "Paris, France", "types": ["locality", "political"]}]}, "phone": "33 1 44 88 25 25", "contact": "SOCFI/MARS", "location": "Paris, France", "address": "14 rue Mandar, F-75002, Paris, France", "keywords": "mars", "ingested": "Dec 29, 1998 12:00:00 AM", "email": "i.burger@socfi.fr"}, {"web": "", "fax": "86-871-3358437", "bibCode": " 1999eama.conf.....C", "end": "1999-02-10", "title": "The 4th East Asia Meeting in Astronomy, Observational Astrophysics in Asia and its Future", "meetingNumber": "407", "modified": "Oct 05, 1999 12:00:00 AM", "start": "1999-02-03", "GoogleMapsResponse": {"status": "OK", "results": [{"geometry": {"location_type": "APPROXIMATE", "bounds": {"northeast": {"lat": 26.5418462, "lng": 103.6702502}, "southwest": {"lat": 24.3852007, "lng": 102.171088}}, "viewport": {"northeast": {"lat": 25.1775727, "lng": 102.9178619}, "southwest": {"lat": 24.8652018, "lng": 102.5642395}}, "location": {"lat": 24.880095, "lng": 102.832892}}, "address_components": [{"long_name": "Kunming", "types": ["locality", "political"], "short_name": "Kunming"}, {"long_name": "Yunnan", "types": ["administrative_area_level_1", "political"], "short_name": "Yunnan"}, {"long_name": "China", "types": ["country", "political"], "short_name": "CN"}], "formatted_address": "Kunming, Yunnan, China", "types": ["locality", "political"]}]}, "phone": "86-871-3840560", "contact": "P.S. Chen or M.X. Bao", "location": "Kunming, China", "address": "Yunnan Observatory, CAS,, Kunming, 650011, Yunnan Province, P.R. China", "keywords": "astrophysics", "ingested": "Jan 29, 1999 12:00:00 AM", "email": "eama@163.net"}, {"web": "", "fax": "352-392-8743", "bibCode": " 2000NYASA.898.....B", "end": "1999-02-20", "title": "Astrophysical Convection and Turbulence", "meetingNumber": "408", "modified": "Jul 06, 2009 12:00:00 AM", "start": "1999-02-18", "GoogleMapsResponse": {"status": "OK", "results": [{"geometry": {"location_type": "APPROXIMATE", "bounds": {"northeast": {"lat": 29.6738121, "lng": -82.2977543}, "southwest": {"lat": 29.6136304, "lng": -82.3776244}}, "viewport": {"northeast": {"lat": 29.6530763, "lng": -82.3296963}, "southwest": {"lat": 29.6136304, "lng": -82.3776244}}, "location": {"lat": 29.64526399999999, "lng": -82.34639399999999}}, "address_components": [{"long_name": "University of Florida", "types": ["establishment"], "short_name": "University of Florida"}, {"long_name": "Gainesville", "types": ["locality", "political"], "short_name": "Gainesville"}, {"long_name": "Alachua", "types": ["administrative_area_level_2", "political"], "short_name": "Alachua"}, {"long_name": "FL", "types": ["administrative_area_level_1", "political"], "short_name": "FL"}, {"long_name": "United States", "types": ["country", "political"], "short_name": "US"}, {"long_name": "32611", "types": ["postal_code"], "short_name": "32611"}], "formatted_address": "University of Florida, Gainesville, FL 32611, United States", "types": ["university", "establishment"]}]}, "phone": "352-392-0507", "contact": "J.R. Buchler", "location": "University of Florida", "address": "Physics Dept., University of Florida, Gainesville, Fl.  32611", "keywords": "astrophysics", "ingested": "Feb 01, 1999 12:00:00 AM", "email": "buchler@phys.ufl.edu"}, {"web": "", "fax": "505-665-4414", "bibCode": " 1999smea.conf.....B", "end": "1999-02-26", "title": "Small Missions for Energetic Astrophysics:\r\nUltraviolet through Gamma-Ray", "meetingNumber": "355", "modified": "Jun 09, 2009 12:00:00 AM", "start": "1999-02-22", "GoogleMapsResponse": {"status": "OK", "results": [{"geometry": {"location_type": "APPROXIMATE", "bounds": {"northeast": {"lat": 35.913289, "lng": -106.2453951}, "southwest": {"lat": 35.8705559, "lng": -106.334687}}, "viewport": {"northeast": {"lat": 35.913289, "lng": -106.2453951}, "southwest": {"lat": 35.8705559, "lng": -106.334687}}, "location": {"lat": 35.8880796, "lng": -106.3069722}}, "address_components": [{"long_name": "Los Alamos", "types": ["locality", "political"], "short_name": "Los Alamos"}, {"long_name": "Los Alamos County", "types": ["administrative_area_level_2", "political"], "short_name": "Los Alamos County"}, {"long_name": "New Mexico", "types": ["administrative_area_level_1", "political"], "short_name": "NM"}, {"long_name": "United States", "types": ["country", "political"], "short_name": "US"}, {"long_name": "87544", "types": ["postal_code"], "short_name": "87544"}], "formatted_address": "Los Alamos, NM 87544, USA", "types": ["locality", "political"]}]}, "phone": "505-667-3768", "contact": "Steven P. Brumbly,Chair, LOC", "location": "Los Alamos, New Mexico, USA", "address": "Los Alamos National Laboratory , NIS-2 Mailstop D436, Los Alamos, New Mexico, 87545", "keywords": "astrophysics, gamma-ray", "ingested": "Nov 09, 1998 12:00:00 AM", "email": "brumby@lanl.gov"}, {"web": "", "fax": "(+49 89) 320 06 480", "bibCode": " 2000fepc.conf.....B", "end": "1999-03-04", "title": "VLT Opening Symposium", "meetingNumber": "362", "modified": "Jun 09, 2009 12:00:00 AM", "start": "1999-03-01", "GoogleMapsResponse": {"status": "OK", "results": [{"geometry": {"location_type": "APPROXIMATE", "bounds": {"northeast": {"lat": -23.0591235, "lng": -68.1182127}, "southwest": {"lat": -25.40112, "lng": -70.62911609999999}}, "viewport": {"northeast": {"lat": -23.0591235, "lng": -68.1182127}, "southwest": {"lat": -25.40112, "lng": -70.62911609999999}}, "location": {"lat": -23.65, "lng": -70.39999999999999}}, "address_components": [{"long_name": "Antofagasta", "types": ["locality", "political"], "short_name": "Antofagasta"}, {"long_name": "Antofagasta", "types": ["administrative_area_level_3", "political"], "short_name": "Antofagasta"}, {"long_name": "Antofagasta Province", "types": ["administrative_area_level_2", "political"], "short_name": "Antofagasta Province"}, {"long_name": "Antofagasta Region", "types": ["administrative_area_level_1", "political"], "short_name": "Antofagasta Region"}, {"long_name": "Chile", "types": ["country", "political"], "short_name": "CL"}], "formatted_address": "Antofagasta, Antofagasta Region, Chile", "types": ["locality", "political"]}]}, "phone": "(+49 89) 320 060", "contact": "Christina Stoffer", "location": "Antofagasta, Chile", "address": "European Southern Observatory, Karl-Schwarzschild-Strasse 2, D-85748 Garching bei Muenchen, Germany", "keywords": "vlt", "ingested": "Nov 20, 1998 12:00:00 AM", "email": "vltos99@eso.org"}, {"web": "", "fax": "+49-3675-81218", "bibCode": " 1999AcHA....6.....K", "end": "1999-03-06", "title": "Treasure-Hunting in Astronomical Plate Archives [THAPA]", "meetingNumber": "339", "modified": "Jul 17, 2001 12:00:00 AM", "start": "1999-03-04", "GoogleMapsResponse": {"status": "OK", "results": [{"geometry": {"location_type": "APPROXIMATE", "bounds": {"northeast": {"lat": 50.414092, "lng": 11.2311336}, "southwest": {"lat": 50.3209733, "lng": 11.1141331}}, "viewport": {"northeast": {"lat": 50.414092, "lng": 11.2311336}, "southwest": {"lat": 50.3209733, "lng": 11.1141331}}, "location": {"lat": 50.3601821, "lng": 11.1709899}}, "address_components": [{"long_name": "Sonneberg", "types": ["locality", "political"], "short_name": "Sonneberg"}, {"long_name": "Sonneberg", "types": ["administrative_area_level_3", "political"], "short_name": "SON"}, {"long_name": "Thuringia", "types": ["administrative_area_level_1", "political"], "short_name": "TH"}, {"long_name": "Germany", "types": ["country", "political"], "short_name": "DE"}], "formatted_address": "Sonneberg, Germany", "types": ["locality", "political"]}]}, "phone": "+49-3675-81210", "contact": "Mrs. Angelika Wicklein", "location": "Sonneberg, Germany", "address": "Sonneberg Observatory, Sternwartestr., 32, D-96515 Sonneberg,, Germany", "keywords": "archives", "ingested": "Oct 07, 1998 12:00:00 AM", "email": "office@stw.tu-ilmenau.de"}, {"web": "http://www.tls-tautenburg.de/", "fax": "+49 3647-863-29", "bibCode": " 1999oisc.conf.....G", "end": "1999-03-12", "title": "Optical and Infrared Spectroscopy of Circumstellar Matter-A Workshop in honour of Josef Solf on the occasion of his 65th. birthday", "meetingNumber": "369", "modified": "Mar 07, 2001 12:00:00 AM", "start": "1999-03-10", "GoogleMapsResponse": {"status": "OK", "results": [{"geometry": {"location_type": "APPROXIMATE", "bounds": {"northeast": {"lat": 51.0029445, "lng": 11.75463}, "southwest": {"lat": 50.9658005, "lng": 11.67675}}, "viewport": {"northeast": {"lat": 51.0029445, "lng": 11.75463}, "southwest": {"lat": 50.9658005, "lng": 11.67675}}, "location": {"lat": 50.9910636, "lng": 11.7158451}}, "address_components": [{"long_name": "Tautenburg", "types": ["locality", "political"], "short_name": "Tautenburg"}, {"long_name": "Saale-Holzland-Kreis", "types": ["administrative_area_level_3", "political"], "short_name": "Saale-Holzland-Kreis"}, {"long_name": "Thuringia", "types": ["administrative_area_level_1", "political"], "short_name": "TH"}, {"long_name": "Germany", "types": ["country", "political"], "short_name": "DE"}], "formatted_address": "Tautenburg, Germany", "types": ["locality", "political"]}]}, "phone": "", "contact": "Eike Guenther", "location": "Tautenburg, Germany", "address": "Thueringer Landessternwarte Tautenburg, Sternwarte 5, Tautenburg, Germany D-07778", "keywords": "optical, infrared, circumstellar matter, josef solf", "ingested": "Dec 01, 1998 12:00:00 AM", "email": "workshop@tls-tautenburg.de"}, {"web": "http://www.seas.columbia.edu/~ah297/un-esa/", "fax": "43-1-26060-5830", "bibCode": " 2000Ap&SS.273..331H", "end": "1999-03-17", "title": "Eighth UN/ESA Workshop on Basic Space Science: Science Exploration", "meetingNumber": "341", "modified": "Jul 17, 2001 12:00:00 AM", "start": "1999-03-13", "phone": "43-1-26060-4949", "contact": "Prof. Hans J. Haubold", "location": "Al al-Bayt University, Mafraq, Jordan", "address": "United Nations, P.O. Box 500, Vienna, Austria, A-1400", "keywords": "space science", "ingested": "Oct 15, 1998 12:00:00 AM", "email": "haubold@kph.tuwien.ac.at"}, {"web": "http://aa.usno.navy.mil/waa/", "fax": "202-762-1612", "bibCode": "", "end": "1999-03-15", "title": "Washington Area Astronomers Meeting", "meetingNumber": "372", "modified": "Dec 09, 1998 12:00:00 AM", "start": "1999-03-15", "phone": "202-762-1562", "contact": "George Kaplan", "location": "Johns Hopkins University, Baltimore, MD.", "address": "U.S. Naval Observatory, 3450 Massachusetts Ave. NW, Washington DC, 20392-5420", "keywords": "washington", "ingested": "Dec 09, 1998 12:00:00 AM", "email": "gkaplan@usno.navy.mil"}, {"web": "", "fax": "1-520-318-8400", "bibCode": "", "end": "1999-03-24", "title": "GONG '99-A Workshop on Helioseismology at Moderate & High Spherical Harmonic Degree", "meetingNumber": "368", "modified": "Jun 28, 2001 12:00:00 AM", "start": "1999-03-22", "phone": "1-520-318-8280", "contact": "Ann Barringer", "location": "Tucson, Arizona", "address": "GONG/NSO/NOAO, PO Box 26732, Tucson, AZ.  85726-6730", "keywords": "gong, helioseismology", "ingested": "Dec 01, 1998 12:00:00 AM", "email": "gong99@noao.edu"}, {"web": "", "fax": "41 22 755 3983", "bibCode": "", "end": "1999-03-27", "title": "Physics of Star Formation: 29th Saas-Fee Advanced Course", "meetingNumber": "384", "modified": "Dec 29, 1998 12:00:00 AM", "start": "1999-03-22", "phone": "", "contact": "SSAA Advanced Course 1999", "location": "Les Diablerets, Switzerland", "address": "Geneva Observatory, CH 1200, Sauverny, Switzerland", "keywords": "stars", "ingested": "Dec 29, 1998 12:00:00 AM", "email": "saa99@obs.unige.ch"}, {"web": "", "fax": "925-423-0238", "bibCode": " 2000iutd.conf.....V", "end": "1999-04-01", "title": "Imaging the Universe in Three Dimensions:\r\nAstrophysics with Advanced Multi-Wavelength Imaging Devices", "meetingNumber": "357", "modified": "Mar 06, 2001 12:00:00 AM", "start": "1999-03-29", "phone": "925-423-0621", "contact": "Wil van Breugel", "location": "Walnut Creek, California", "address": "Lawrence Livermore National Laboratory, P.O. Box 808, Livermore, California 94551, USA", "keywords": "universe, astrophysics", "ingested": "Nov 13, 1998 12:00:00 AM", "email": "3Dconf@llnl.gov"}, {"web": "", "fax": "+39-31-573395", "bibCode": "", "end": "1999-04-24", "title": "Graduate School in Contemporary Relativity and Gravitational Physics: Gravitational Waves in Astrophysics, Cosmology and String Theory", "meetingNumber": "430", "modified": "Jun 09, 2009 12:00:00 AM", "start": "1999-04-04", "phone": "+39-31-572213", "contact": "A. Volta", "location": "Como, Villa Olmo", "address": "", "keywords": "astrophysics, cosmology", "ingested": "Feb 16, 1999 12:00:00 AM", "email": "grschool@fis.unico.it"}, {"web": "", "fax": "+34 922 425401", "bibCode": "", "end": "1999-04-09", "title": "Instrumentation at the Isaac Newton Group-The Next Decade", "meetingNumber": "413", "modified": "Jun 28, 2001 12:00:00 AM", "start": "1999-04-06", "GoogleMapsResponse": {"status": "OK", "results": [{"geometry": {"location_type": "APPROXIMATE", "bounds": {"northeast": {"lat": 53.4868828, "lng": -1.334953}, "southwest": {"lat": 53.3045505, "lng": -1.6639593}}, "viewport": {"northeast": {"lat": 53.4868828, "lng": -1.334953}, "southwest": {"lat": 53.3045505, "lng": -1.6639593}}, "location": {"lat": 53.38112899999999, "lng": -1.470085}}, "address_components": [{"long_name": "Sheffield", "types": ["locality", "political"], "short_name": "Sheffield"}, {"long_name": "South Yorkshire", "types": ["administrative_area_level_2", "political"], "short_name": "South York"}, {"long_name": "England", "types": ["administrative_area_level_1", "political"], "short_name": "England"}, {"long_name": "United Kingdom", "types": ["country", "political"], "short_name": "GB"}], "formatted_address": "Sheffield, South Yorkshire, UK", "types": ["locality", "political"]}]}, "phone": "+34 922 425440", "contact": "Dr. Nic Walton", "location": "Sheffield, UK", "address": "Isaac Newton Group, Apartado 321, S/C de La Palma, Spain", "keywords": "instrumentation", "ingested": "Feb 02, 1999 12:00:00 AM", "email": "naw@ing.iac.es"}, {"web": "", "fax": "+31 521 597 332", "bibCode": " 2000pras.conf.....V", "end": "1999-04-09", "title": "Perspectives on Radio Astronomy: Scientific Imperatives \r\n at cm and m Wavelengths", "meetingNumber": "351", "modified": "Jun 09, 2009 12:00:00 AM", "start": "1999-04-07", "GoogleMapsResponse": {"status": "OK", "results": [{"geometry": {"location_type": "APPROXIMATE", "bounds": {"northeast": {"lat": 52.4311573, "lng": 5.0683775}, "southwest": {"lat": 52.3182742, "lng": 4.7288558}}, "viewport": {"northeast": {"lat": 52.4311573, "lng": 5.0683775}, "southwest": {"lat": 52.3182742, "lng": 4.7288558}}, "location": {"lat": 52.3702157, "lng": 4.895167900000001}}, "address_components": [{"long_name": "Amsterdam", "types": ["locality", "political"], "short_name": "Amsterdam"}, {"long_name": "Government of Amsterdam", "types": ["administrative_area_level_2", "political"], "short_name": "Government of Amsterdam"}, {"long_name": "North Holland", "types": ["administrative_area_level_1", "political"], "short_name": "NH"}, {"long_name": "The Netherlands", "types": ["country", "political"], "short_name": "NL"}], "formatted_address": "Amsterdam, The Netherlands", "types": ["locality", "political"]}]}, "phone": "+31 521 595 100", "contact": "Michiel van Haarlem", "location": "Amsterdam, The Netherlands", "address": "NFRA, P.O. Box 2, Dwingeloo, The Netherlands, 7990 AA", "keywords": "radio astronomy", "ingested": "Nov 04, 1998 12:00:00 AM", "email": "conf@nfra.nl"}, {"web": "http://www.eurekasci.com", "fax": "510-530-2416", "bibCode": "1999HEAD...31......", "end": "1999-04-15", "title": "1999 High Energy Astrophysics Division (HEAD)", "meetingNumber": "278", "modified": "Apr 15, 1999 12:00:00 AM", "start": "1999-04-12", "GoogleMapsResponse": {"status": "OK", "results": [{"geometry": {"location_type": "APPROXIMATE", "bounds": {"northeast": {"lat": 32.973586, "lng": -79.7971659}, "southwest": {"lat": 32.6685048, "lng": -80.14379}}, "viewport": {"northeast": {"lat": 32.973586, "lng": -79.7971659}, "southwest": {"lat": 32.6685048, "lng": -80.14379}}, "location": {"lat": 32.7765656, "lng": -79.93092159999999}}, "address_components": [{"long_name": "Charleston", "types": ["locality", "political"], "short_name": "Charleston"}, {"long_name": "Charleston County", "types": ["administrative_area_level_2", "political"], "short_name": "Charleston County"}, {"long_name": "South Carolina", "types": ["administrative_area_level_1", "political"], "short_name": "SC"}, {"long_name": "United States", "types": ["country", "political"], "short_name": "US"}], "formatted_address": "Charleston, SC, USA", "types": ["locality", "political"]}]}, "phone": "510-530-1688", "contact": "John Vallerga", "location": "Charleston, South Carolina", "address": "Suite 100, 2452 Delmer St. Oakland CA  94602", "keywords": "", "ingested": "Mar 23, 1998 12:00:00 AM", "email": "eureka@netcom.com"}, {"web": "", "fax": "650-6041088", "bibCode": " 1999lmac.work.....J", "end": "1999-04-15", "title": "Leonid MAC Workshop", "meetingNumber": "435", "modified": "Oct 05, 1999 12:00:00 AM", "start": "1999-04-12", "GoogleMapsResponse": {"status": "OK", "results": [{"geometry": {"location_type": "GEOMETRIC_CENTER", "bounds": {"northeast": {"lat": 37.4280593, "lng": -122.0575685}, "southwest": {"lat": 37.4188622, "lng": -122.0681259}}, "viewport": {"northeast": {"lat": 37.4280593, "lng": -122.0575685}, "southwest": {"lat": 37.4188622, "lng": -122.0681259}}, "location": {"lat": 37.42718130000001, "lng": -122.0619054}}, "address_components": [{"long_name": "NASA Ames Research Center Boundary", "types": ["route"], "short_name": "NASA Ames Research Center Boundary"}, {"long_name": "Mountain View", "types": ["locality", "political"], "short_name": "Mountain View"}, {"long_name": "Santa Clara County", "types": ["administrative_area_level_2", "political"], "short_name": "Santa Clara County"}, {"long_name": "California", "types": ["administrative_area_level_1", "political"], "short_name": "CA"}, {"long_name": "United States", "types": ["country", "political"], "short_name": "US"}, {"long_name": "94043", "types": ["postal_code"], "short_name": "94043"}], "partial_match": true, "formatted_address": "NASA Ames Research Center Boundary, Mountain View, CA 94043, USA", "types": ["route"]}]}, "phone": "650-6043086", "contact": "Dr. Peter Jenniskens", "location": "NASA/Ames Research Center, CA.", "address": "The SETI Institute, NASA/ARC, Mail Stop 239-4, Moffett Field, Ca.  94035-1000", "keywords": "leonid", "ingested": "Feb 19, 1999 12:00:00 AM", "email": "peter@max.arc.nasa.gov"}, {"web": "http://www-astro.physics.ox.ac.uk/~warner/", "fax": "44-1865-273390", "bibCode": "2000NewAR..44.....C", "end": "1999-04-16", "title": "Cataclysmic Variables: a 60th birthday symposium in honour of Brian \r\nWarner", "meetingNumber": "307", "modified": "Jul 06, 2009 12:00:00 AM", "start": "1999-04-12", "GoogleMapsResponse": {"status": "OK", "results": [{"geometry": {"location_type": "APPROXIMATE", "bounds": {"northeast": {"lat": 51.7773253, "lng": -1.213425}, "southwest": {"lat": 51.74616080000001, "lng": -1.2720446}}, "viewport": {"northeast": {"lat": 51.7721459, "lng": -1.2357408}, "southwest": {"lat": 51.74616080000001, "lng": -1.2720446}}, "location": {"lat": 51.7566341, "lng": -1.2547037}}, "address_components": [{"long_name": "University of Oxford", "types": ["establishment"], "short_name": "University of Oxford"}, {"long_name": "University Offices", "types": ["premise"], "short_name": "University Offices"}, {"long_name": "Wellington Square", "types": ["route"], "short_name": "Wellington Square"}, {"long_name": "Oxford", "types": ["locality", "political"], "short_name": "Oxford"}, {"long_name": "Oxfordshire", "types": ["administrative_area_level_2", "political"], "short_name": "Oxfordshire"}, {"long_name": "United Kingdom", "types": ["country", "political"], "short_name": "GB"}, {"long_name": "OX1 2JD", "types": ["postal_code"], "short_name": "OX1 2JD"}, {"long_name": "Oxford", "types": ["postal_town"], "short_name": "Oxford"}], "formatted_address": "University of Oxford, University Offices, Wellington Square, Oxford OX1 2JD", "types": ["university", "establishment"]}]}, "phone": "44-1865-273302", "contact": "Phil Charles", "location": "Oxford University, UK", "address": "Dept of Astrophysics, Oxford University,, Keble Road, Oxford, UK, OX1 3RH", "keywords": "", "ingested": "Jul 02, 1998 12:00:00 AM", "email": "warner@astro.ox.ac.uk"}, {"web": "", "fax": "351-66-22306", "bibCode": "", "end": "1999-04-16", "title": "Astrophysical Dynamics: Conference to Commemorate the Work of Franz D.Kahn, FRS (1925 - 1998)\r\n", "meetingNumber": "396", "modified": "Jun 09, 2009 12:00:00 AM", "start": "1999-04-14", "GoogleMapsResponse": {"status": "OK", "results": [{"geometry": {"location_type": "APPROXIMATE", "bounds": {"northeast": {"lat": 38.6169193, "lng": -7.843514600000001}, "southwest": {"lat": 38.5227211, "lng": -7.9785036}}, "viewport": {"northeast": {"lat": 38.6169193, "lng": -7.843514600000001}, "southwest": {"lat": 38.5227211, "lng": -7.9785036}}, "location": {"lat": 38.571431, "lng": -7.913501999999999}}, "address_components": [{"long_name": "Evora", "types": ["locality", "political"], "short_name": "Evora"}, {"long_name": "\u00c9vora District", "types": ["administrative_area_level_1", "political"], "short_name": "\u00c9vora District"}, {"long_name": "Portugal", "types": ["country", "political"], "short_name": "PT"}], "formatted_address": "Evora, Portugal", "types": ["locality", "political"]}]}, "phone": "351-66-744616/7/8", "contact": "David Berry, Conference Coordinator", "location": "Evora, Portugal", "address": "Department of Physics, University of Evora, Rua Romao Ramalho, 59, Evora, Portugal", "keywords": "astrophysics,kahn", "ingested": "Jan 15, 1999 12:00:00 AM", "email": "astrodyn@uevora.pt"}, {"web": "", "fax": "+44-1235-446667", "bibCode": "", "end": "1999-04-23", "title": "Extrasolar Planets Session at the European Geophysical Society General Assembly", "meetingNumber": "326", "modified": "Jun 09, 2009 12:00:00 AM", "start": "1999-04-19", "GoogleMapsResponse": {"status": "OK", "results": [{"geometry": {"location": {"lat": 52.0838125, "lng": 4.3071382}, "viewport": {"northeast": {"lat": 52.0851614802915, "lng": 4.308487180291502}, "southwest": {"lat": 52.0824635197085, "lng": 4.305789219708497}}, "location_type": "APPROXIMATE"}, "address_components": [{"long_name": "NVAO - Accreditation Organisation of the Netherlands and Flanders", "types": ["point_of_interest", "establishment"], "short_name": "NVAO - Accreditation Organisation of the Netherlands and Flanders"}, {"long_name": "28", "types": ["street_number"], "short_name": "28"}, {"long_name": "Parkstraat", "types": ["route"], "short_name": "Parkstraat"}, {"long_name": "Voorhout", "types": ["sublocality", "political"], "short_name": "Voorhout"}, {"long_name": "The Hague Center", "types": ["sublocality", "political"], "short_name": "The Hague Center"}, {"long_name": "The Hague", "types": ["locality", "political"], "short_name": "The Hague"}, {"long_name": "The Hague", "types": ["administrative_area_level_2", "political"], "short_name": "The Hague"}, {"long_name": "South Holland", "types": ["administrative_area_level_1", "political"], "short_name": "ZH"}, {"long_name": "The Netherlands", "types": ["country", "political"], "short_name": "NL"}, {"long_name": "2514 JK", "types": ["postal_code"], "short_name": "2514 JK"}], "partial_match": true, "formatted_address": "NVAO - Accreditation Organisation of the Netherlands and Flanders, Parkstraat 28, 2514 JK The Hague, The Netherlands", "types": ["university", "point_of_interest", "establishment"]}]}, "phone": "+44-1235-445675", "contact": "Dr. Alan J. Penny", "location": "The Hague, Netherland", "address": "Rutherford Appleton Laboratory, Chilton, DIDCOT, Oxon, OX11 0QX, UK", "keywords": "Planets, planetary systems", "ingested": "Sep 04, 1999 12:00:00 AM", "email": "ajp@ast.star.rl.ac.uk"}, {"web": "http:// www.inr.ac.ru/~school/", "fax": " 007 (095) 135 22 68", "bibCode": "", "end": "1999-04-25", "title": "Xth International School Particles and Cosmology", "meetingNumber": "440", "modified": "Feb 22, 1999 12:00:00 AM", "start": "1999-04-19", "GoogleMapsResponse": {"status": "OK", "results": [{"geometry": {"location_type": "APPROXIMATE", "bounds": {"northeast": {"lat": 44.022814, "lng": 44.4705508}, "southwest": {"lat": 42.889616, "lng": 42.3981202}}, "viewport": {"northeast": {"lat": 44.022814, "lng": 44.4705508}, "southwest": {"lat": 42.889616, "lng": 42.3981202}}, "location": {"lat": 43.3932469, "lng": 43.5628498}}, "address_components": [{"long_name": "Kabardino-Balkaria", "types": ["administrative_area_level_1", "political"], "short_name": "Kabardino-Balkaria"}, {"long_name": "Russia", "types": ["country", "political"], "short_name": "RU"}], "partial_match": true, "formatted_address": "Kabardino-Balkaria, Russia", "types": ["administrative_area_level_1", "political"]}]}, "phone": "007 (095) 135 20 51", "contact": "Dr. Khazret S. Nirov", "location": "Baksan Valley, Kabardino-Balkaria, Russian Federation", "address": "Institute for Nuclear Research of , the Russian Academy of Sciences, October Anniversary Prospect 7a, Moscow, 117312, Russian Federation  ,", "keywords": "cosmology", "ingested": "Feb 22, 1999 12:00:00 AM", "email": "school@ms2.inr.ac.ru"}, {"web": "", "fax": "410/338-2519", "bibCode": "", "end": "1999-04-21", "title": "NGST Detector Workshop", "meetingNumber": "431", "modified": "Jun 28, 2001 12:00:00 AM", "start": "1999-04-20", "GoogleMapsResponse": {"status": "OK", "results": [{"geometry": {"location_type": "APPROXIMATE", "bounds": {"northeast": {"lat": 39.3722059, "lng": -76.5294528}, "southwest": {"lat": 39.1972069, "lng": -76.71151909999999}}, "viewport": {"northeast": {"lat": 39.3722059, "lng": -76.5294528}, "southwest": {"lat": 39.1972069, "lng": -76.71151909999999}}, "location": {"lat": 39.2903848, "lng": -76.6121893}}, "address_components": [{"long_name": "Baltimore", "types": ["locality", "political"], "short_name": "Baltimore"}, {"long_name": "Maryland", "types": ["administrative_area_level_1", "political"], "short_name": "MD"}, {"long_name": "United States", "types": ["country", "political"], "short_name": "US"}], "formatted_address": "Baltimore, MD, USA", "types": ["locality", "political"]}]}, "phone": "410/338-4862 or 410/338-4721", "contact": "Knox Long or Mary Hofbauer Brown", "location": "Baltimore, Maryland", "address": "Space Telescope Science Institute, 3700 San Martin Drive, Baltimore, MD.  21219", "keywords": "detector", "ingested": "Feb 16, 1999 12:00:00 AM", "email": "long@stsci.edu or mbrown@stsci.edu"}, {"web": "", "fax": "", "bibCode": " 1999MPBu...26....1K", "end": "1999-04-24", "title": "Minor Planet Amateur-Professional Workshop 1999", "meetingNumber": "455", "modified": "Jul 18, 2001 12:00:00 AM", "start": "1999-04-23", "phone": "", "contact": "Lowell Observatory, Flagstaff Arizona, USA", "location": "Lowell Observatory, Flagstaff Arizona, USA", "address": "Quail Hollow Observatory, 7630 Conrad St, Zephyrhills, Florida, USA, 33544", "keywords": "planets", "ingested": "Mar 15, 1999 12:00:00 AM", "email": "bitnik@bitnik.com"}, {"web": "", "fax": "301-286-1752", "bibCode": "1999sdsg.conf.....H", "end": "1999-04-29", "title": "Workshop on Spectrophotometric Dating of Stars and Galaxies\r\n\r\n", "meetingNumber": "441", "modified": "Jun 09, 2009 12:00:00 AM", "start": "1999-04-25", "phone": "301-286-3623", "contact": "Bob Cornett", "location": "Annapolis, MD.", "address": "GSFC/LASP, Code 681, Greenbelt, MD.  20771", "keywords": "stars", "ingested": "Feb 23, 1999 12:00:00 AM", "email": "galage99@stis.gsfc.nasa.gov"}, {"web": "http://www.inta.es", "fax": "34-91-520945", "bibCode": "", "end": "1999-04-28", "title": "Science with MINISAT 01", "meetingNumber": "442", "modified": "Feb 24, 1999 12:00:00 AM", "start": "1999-04-26", "phone": "34-91-5201980", "contact": "Maria Jesus Sainz de Aja", "location": "Madrid, Spain", "address": "INTA, Carretera de Ajalvir pk. 4, Torrejon de Ardoz, Madrid, Spain, 28850,", "keywords": "minisat", "ingested": "Feb 24, 1999 12:00:00 AM", "email": "sainzdeajamj@inta.es"}, {"web": "", "fax": "+(380) 44-266-45-07", "bibCode": "", "end": "1999-04-30", "title": "6th. Open Young Scientists Conference on Astronomy and Space Physics", "meetingNumber": "443", "modified": "Jun 28, 2001 12:00:00 AM", "start": "1999-04-27", "phone": "+(380) 44-266-44-57", "contact": "Volodymyr Reshetnyk", "location": "Kyiv, Ukaraine", "address": "YSC6, PO Box 7, Kyiv 22, 252022 Ukraine", "keywords": "astronomy", "ingested": "Mar 02, 1999 12:00:00 AM", "email": "ysc@students.ups.kiev.ua"}, {"web": "", "fax": "1-301-286-0264", "bibCode": "", "end": "1999-04-30", "title": "ISTP/IACG Workshop on Global Picture of Solar Eruptive Events", "meetingNumber": "421", "modified": "Jun 09, 2009 12:00:00 AM", "start": "1999-04-27", "phone": "1-301-286-5885", "contact": "Nat Gopalswamy", "location": "NASA Goddard Space Flight Center, Greenbelt, MD 20771", "address": "NASA Goddard Space Flight Center, Code 682.3, Bldg 26, Rm G-1, Greenbelt, MD 20771", "keywords": "solar", "ingested": "Feb 12, 1999 12:00:00 AM", "email": "gopals@fugee.gsfc.nasa.gov"}, {"web": "", "fax": "281-486-2160", "bibCode": " 1999tesa.conf......", "end": "1999-04-30", "title": "Workshop on Thermal Emmission Spectroscopy and Analysis of Dust, Disks and Regoliths", "meetingNumber": "346", "modified": "Jun 09, 2009 12:00:00 AM", "start": "1999-04-28", "phone": "281-486-2158", "contact": "LeBecca Simmons", "location": "Houston, Texas", "address": "Lunar and Planetary Institute, 3600 Bay Area Boulevard, Houston, TX.  77058", "keywords": "spectroscopy", "ingested": "Oct 21, 1998 12:00:00 AM", "email": "simmons@lpi.jsc.nasa.gov"}, {"web": "", "fax": "", "bibCode": "1999DDA....31......", "end": "1999-05-01", "title": "AAS Division on Dynamical Astronomy", "meetingNumber": "524", "modified": "Dec 17, 1999 12:00:00 AM", "start": "1999-04-28", "GoogleMapsResponse": {"status": "OK", "results": [{"geometry": {"location_type": "APPROXIMATE", "bounds": {"northeast": {"lat": 40.4014029, "lng": -105.4868341}, "southwest": {"lat": 40.331362, "lng": -105.579462}}, "viewport": {"northeast": {"lat": 40.4014029, "lng": -105.4868341}, "southwest": {"lat": 40.331362, "lng": -105.579462}}, "location": {"lat": 40.3772059, "lng": -105.5216651}}, "address_components": [{"long_name": "Estes Park", "types": ["locality", "political"], "short_name": "Estes Park"}, {"long_name": "Larimer County", "types": ["administrative_area_level_2", "political"], "short_name": "Larimer County"}, {"long_name": "Colorado", "types": ["administrative_area_level_1", "political"], "short_name": "CO"}, {"long_name": "United States", "types": ["country", "political"], "short_name": "US"}], "formatted_address": "Estes Park, CO, USA", "types": ["locality", "political"]}]}, "phone": "", "contact": "Hal Levison", "location": "Estes Park, CO.", "address": "", "keywords": "dynamical astronomy", "ingested": "May 16, 1999 12:00:00 AM", "email": "hal@govt.boulder.swri.edu"}, {"web": "", "fax": "(410) 338-4596", "bibCode": " 2000gesb.conf.....L", "end": "1999-05-06", "title": "The Largest Explosions Since the Big Bang: Supernova and Gamma Ray Bursts", "meetingNumber": "424", "modified": "Jul 18, 2001 12:00:00 AM", "start": "1999-05-03", "GoogleMapsResponse": {"status": "OK", "results": [{"geometry": {"location_type": "APPROXIMATE", "bounds": {"northeast": {"lat": 39.3331337, "lng": -76.6227219}, "southwest": {"lat": 39.3323192, "lng": -76.6238451}}, "viewport": {"northeast": {"lat": 39.3340754302915, "lng": -76.6219345197085}, "southwest": {"lat": 39.33137746970851, "lng": -76.62463248029151}}, "location": {"lat": 39.3327755, "lng": -76.6233337}}, "address_components": [{"long_name": "Steven Muller Building Space Telescope Science Institute", "types": ["premise"], "short_name": "Steven Muller Bldg Space Telescope Science Institute"}, {"long_name": "Johns-Hopkins - Homewood", "types": ["neighborhood", "political"], "short_name": "Johns-Hopkins - Homewood"}, {"long_name": "Baltimore", "types": ["locality", "political"], "short_name": "Baltimore"}, {"long_name": "Maryland", "types": ["administrative_area_level_1", "political"], "short_name": "MD"}, {"long_name": "United States", "types": ["country", "political"], "short_name": "US"}, {"long_name": "21210", "types": ["postal_code"], "short_name": "21210"}], "partial_match": true, "formatted_address": "Steven Muller Building Space Telescope Science Institute, Baltimore, MD 21210, USA", "types": ["premise"]}]}, "phone": "(410) 338-4402", "contact": "Lorraine Garcia", "location": "STScI, Baltimore, MD.", "address": "Space Telescope Science Institute, 3700 San Martin Drive, Baltimore, MD.  21218", "keywords": "stars", "ingested": "Feb 12, 1999 12:00:00 AM", "email": "garcia@stsci.edu"}, {"web": "", "fax": "+34 96 3983381", "bibCode": " 2000NuPhS..81......", "end": "1999-05-08", "title": "Valencia 99-International Workshop on Particles in Astrophysics and Cosmology", "meetingNumber": "433", "modified": "Jul 06, 2009 12:00:00 AM", "start": "1999-05-03", "GoogleMapsResponse": {"status": "OK", "results": [{"geometry": {"location_type": "APPROXIMATE", "bounds": {"northeast": {"lat": 39.5073225, "lng": -0.2914778}, "southwest": {"lat": 39.308248, "lng": -0.4315448}}, "viewport": {"northeast": {"lat": 39.5073225, "lng": -0.2914778}, "southwest": {"lat": 39.308248, "lng": -0.4315448}}, "location": {"lat": 39.4699075, "lng": -0.3762881}}, "address_components": [{"long_name": "Valencia", "types": ["locality", "political"], "short_name": "Valencia"}, {"long_name": "Valencia", "types": ["political"], "short_name": "Valencia"}, {"long_name": "Valencia", "types": ["administrative_area_level_2", "political"], "short_name": "V"}, {"long_name": "Valencian Community", "types": ["administrative_area_level_1", "political"], "short_name": "Valencian Community"}, {"long_name": "Spain", "types": ["country", "political"], "short_name": "ES"}], "formatted_address": "Valencia, Spain", "types": ["locality", "political"]}, {"geometry": {"location_type": "APPROXIMATE", "bounds": {"northeast": {"lat": 42.3019628, "lng": -5.5073416}, "southwest": {"lat": 42.2847095, "lng": -5.5235751}}, "viewport": {"northeast": {"lat": 42.3019628, "lng": -5.5073416}, "southwest": {"lat": 42.2847095, "lng": -5.5235751}}, "location": {"lat": 42.29253, "lng": -5.519119799999999}}, "address_components": [{"long_name": "Valencia", "types": ["locality", "political"], "short_name": "Valencia"}, {"long_name": "Valencia de Don Juan", "types": ["political"], "short_name": "Valencia de Don Juan"}, {"long_name": "Le\u00f3n", "types": ["administrative_area_level_2", "political"], "short_name": "Le\u00f3n"}, {"long_name": "Castile and Le\u00f3n", "types": ["administrative_area_level_1", "political"], "short_name": "CL"}, {"long_name": "Spain", "types": ["country", "political"], "short_name": "ES"}, {"long_name": "24200", "types": ["postal_code"], "short_name": "24200"}], "formatted_address": "24200 Valencia, Le\u00f3n, Spain", "types": ["locality", "political"]}, {"geometry": {"location_type": "APPROXIMATE", "bounds": {"northeast": {"lat": 38.40825950000001, "lng": -5.9980635}, "southwest": {"lat": 38.39898549999999, "lng": -6.0073861}}, "viewport": {"northeast": {"lat": 38.40825950000001, "lng": -5.9980635}, "southwest": {"lat": 38.39898549999999, "lng": -6.0073861}}, "location": {"lat": 38.40317, "lng": -6.002187999999999}}, "address_components": [{"long_name": "Valencia", "types": ["locality", "political"], "short_name": "Valencia"}, {"long_name": "Valencia de las Torres", "types": ["political"], "short_name": "Valencia de las Torres"}, {"long_name": "Badajoz", "types": ["administrative_area_level_2", "political"], "short_name": "Badajoz"}, {"long_name": "Extremadura", "types": ["administrative_area_level_1", "political"], "short_name": "EX"}, {"long_name": "Spain", "types": ["country", "political"], "short_name": "ES"}, {"long_name": "06444", "types": ["postal_code"], "short_name": "06444"}], "formatted_address": "06444 Valencia, Badajoz, Spain", "types": ["locality", "political"]}, {"geometry": {"location_type": "APPROXIMATE", "bounds": {"northeast": {"lat": 38.2711151, "lng": -6.4674439}, "southwest": {"lat": 38.262296, "lng": -6.480942199999999}}, "viewport": {"northeast": {"lat": 38.2711151, "lng": -6.4674439}, "southwest": {"lat": 38.262296, "lng": -6.480942199999999}}, "location": {"lat": 38.266858, "lng": -6.4728139}}, "address_components": [{"long_name": "Valencia", "types": ["locality", "political"], "short_name": "Valencia"}, {"long_name": "Valencia del Ventoso", "types": ["political"], "short_name": "Valencia del Ventoso"}, {"long_name": "Badajoz", "types": ["administrative_area_level_2", "political"], "short_name": "Badajoz"}, {"long_name": "Extremadura", "types": ["administrative_area_level_1", "political"], "short_name": "EX"}, {"long_name": "Spain", "types": ["country", "political"], "short_name": "ES"}, {"long_name": "06330", "types": ["postal_code"], "short_name": "06330"}], "formatted_address": "06330 Valencia, Badajoz, Spain", "types": ["locality", "political"]}, {"geometry": {"location_type": "APPROXIMATE", "bounds": {"northeast": {"lat": 39.4211747, "lng": -7.2298387}, "southwest": {"lat": 39.4012839, "lng": -7.2564845}}, "viewport": {"northeast": {"lat": 39.4211747, "lng": -7.2298387}, "southwest": {"lat": 39.4012839, "lng": -7.2564845}}, "location": {"lat": 39.41250429999999, "lng": -7.242901400000001}}, "address_components": [{"long_name": "Valencia", "types": ["locality", "political"], "short_name": "Valencia"}, {"long_name": "Valencia de Alc\u00e1ntara", "types": ["political"], "short_name": "Valencia de Alc\u00e1ntara"}, {"long_name": "C\u00e1ceres", "types": ["administrative_area_level_2", "political"], "short_name": "C\u00e1ceres"}, {"long_name": "Extremadura", "types": ["administrative_area_level_1", "political"], "short_name": "EX"}, {"long_name": "Spain", "types": ["country", "political"], "short_name": "ES"}, {"long_name": "10500", "types": ["postal_code"], "short_name": "10500"}], "formatted_address": "10500 Valencia, C\u00e1ceres, Spain", "types": ["locality", "political"]}, {"geometry": {"location_type": "APPROXIMATE", "bounds": {"northeast": {"lat": 38.2460765, "lng": -7.1155298}, "southwest": {"lat": 38.2391334, "lng": -7.1227763}}, "viewport": {"northeast": {"lat": 38.2460765, "lng": -7.1155298}, "southwest": {"lat": 38.2391334, "lng": -7.1227763}}, "location": {"lat": 38.242282, "lng": -7.1191138}}, "address_components": [{"long_name": "Valencia", "types": ["locality", "political"], "short_name": "Valencia"}, {"long_name": "Valencia del Mombuey", "types": ["political"], "short_name": "Valencia del Mombuey"}, {"long_name": "Badajoz", "types": ["administrative_area_level_2", "political"], "short_name": "Badajoz"}, {"long_name": "Extremadura", "types": ["administrative_area_level_1", "political"], "short_name": "EX"}, {"long_name": "Spain", "types": ["country", "political"], "short_name": "ES"}, {"long_name": "06134", "types": ["postal_code"], "short_name": "06134"}], "formatted_address": "06134 Valencia, Badajoz, Spain", "types": ["locality", "political"]}]}, "phone": "+34 96 386 45 55", "contact": "J.W.F. Valle", "location": "Valencia, Spain", "address": "Dept. de Fisica Teorica, Universitat de Valencia-Institut de Fisica Corpuscular, c/Dr. Moliner 50,, E-46100 Burjassot, Spain", "keywords": "cosmology, big bang", "ingested": "Feb 18, 1999 12:00:00 AM", "email": "bsm@neutrino.uv.es"}, {"web": "", "fax": "310-336-1636", "bibCode": "", "end": "1999-05-13", "title": "Leonid Meteoroid Storm and Satellite Threat Conference II", "meetingNumber": "378", "modified": "Jun 28, 2001 12:00:00 AM", "start": "1999-05-11", "GoogleMapsResponse": {"status": "OK", "results": [{"geometry": {"location_type": "APPROXIMATE", "bounds": {"northeast": {"lat": 33.906185, "lng": -118.3785991}, "southwest": {"lat": 33.8728038, "lng": -118.4234639}}, "viewport": {"northeast": {"lat": 33.906185, "lng": -118.3785991}, "southwest": {"lat": 33.8728038, "lng": -118.4234639}}, "location": {"lat": 33.8847361, "lng": -118.4109089}}, "address_components": [{"long_name": "Manhattan Beach", "types": ["locality", "political"], "short_name": "Manhattan Beach"}, {"long_name": "Los Angeles County", "types": ["administrative_area_level_2", "political"], "short_name": "Los Angeles County"}, {"long_name": "California", "types": ["administrative_area_level_1", "political"], "short_name": "CA"}, {"long_name": "United States", "types": ["country", "political"], "short_name": "US"}], "formatted_address": "Manhattan Beach, CA, USA", "types": ["locality", "political"]}]}, "phone": "310-336-6686", "contact": "David K. Lynch", "location": "Manhattan Beach, CA.", "address": "The Aerospace Corporation M2/266, P.O. Box 92957, Los Angeles, CA.  90009", "keywords": "meteoroid", "ingested": "Dec 22, 1998 12:00:00 AM", "email": "david.k.lynch@aero.org"}, {"web": "", "fax": "", "bibCode": "", "end": "1999-05-15", "title": "Middle Atlantic Planetarium Society", "meetingNumber": "389", "modified": "Jun 28, 2001 12:00:00 AM", "start": "1999-05-12", "phone": "717-291-4315", "contact": "Skeeter Eliason", "location": "North Museum Planetarium and Franklin & Marshall College, Lancaster, Penn.", "address": "North Museum Planetarium, 400 College Avenue, P.O. Box 3003, Lancaster, PA  17604", "keywords": "planetarium", "ingested": "Dec 31, 1998 12:00:00 AM", "email": "nmastro@ptd.net"}, {"web": "", "fax": "", "bibCode": "", "end": "1999-05-16", "title": "1999 SIAM annual Meeting", "meetingNumber": "491", "modified": "Apr 15, 1999 12:00:00 AM", "start": "1999-05-12", "GoogleMapsResponse": {"status": "OK", "results": [{"geometry": {"location_type": "APPROXIMATE", "bounds": {"northeast": {"lat": 33.8876179, "lng": -84.289389}, "southwest": {"lat": 33.6478079, "lng": -84.5518189}}, "viewport": {"northeast": {"lat": 33.8876179, "lng": -84.289389}, "southwest": {"lat": 33.6478079, "lng": -84.5518189}}, "location": {"lat": 33.7489954, "lng": -84.3879824}}, "address_components": [{"long_name": "Atlanta", "types": ["locality", "political"], "short_name": "Atlanta"}, {"long_name": "Fulton County", "types": ["administrative_area_level_2", "political"], "short_name": "Fulton County"}, {"long_name": "Georgia", "types": ["administrative_area_level_1", "political"], "short_name": "GA"}, {"long_name": "United States", "types": ["country", "political"], "short_name": "US"}], "formatted_address": "Atlanta, GA, USA", "types": ["locality", "political"]}]}, "phone": "", "contact": "", "location": "Atlanta, Georgia, USA", "address": "", "keywords": "siam", "ingested": "Apr 15, 1999 12:00:00 AM", "email": "meetings@siam.org"}, {"web": "http://www.bo.infn.it/sminiato/sminiato99.html", "fax": "+ 39 051 252774", "bibCode": "", "end": "1999-05-21", "title": "6th San Miniato Topical Seminar on Neutrino and \r\nAstro-Particle Physics", "meetingNumber": "453", "modified": "Mar 09, 1999 12:00:00 AM", "start": "1999-05-17", "GoogleMapsResponse": {"status": "OK", "results": [{"geometry": {"location_type": "APPROXIMATE", "bounds": {"northeast": {"lat": 43.7058943, "lng": 10.8733925}, "southwest": {"lat": 43.6689813, "lng": 10.7762394}}, "viewport": {"northeast": {"lat": 43.7058943, "lng": 10.8733925}, "southwest": {"lat": 43.6689813, "lng": 10.7762394}}, "location": {"lat": 43.6829641, "lng": 10.8551196}}, "address_components": [{"long_name": "San Miniato", "types": ["locality", "political"], "short_name": "San Miniato"}, {"long_name": "San Miniato", "types": ["administrative_area_level_3", "political"], "short_name": "San Miniato"}, {"long_name": "Pisa", "types": ["administrative_area_level_2", "political"], "short_name": "PI"}, {"long_name": "Tuscany", "types": ["administrative_area_level_1", "political"], "short_name": "Tuscany"}, {"long_name": "Italy", "types": ["country", "political"], "short_name": "IT"}], "formatted_address": "San Miniato Pisa, Italy", "types": ["locality", "political"]}]}, "phone": "+ 39 051 6305101 / 5082", "contact": "Francesco-Luigi Navarria", "location": "San Miniato (Pisa, Italy)", "address": "Dipart. di Fisica, Univ. di Bologna, Viale Berti-Pichat 6/2, BOLOGNA, ITALY, I-40127", "keywords": "astrophysics", "ingested": "Mar 09, 1999 12:00:00 AM", "email": "kaos@bo.infn.it"}, {"web": "", "fax": "+44-1223-339910", "bibCode": "2000RSPTA.358..635L", "end": "1999-05-20", "title": "Magnetic Activity in Stars, Discs and Quasars.", "meetingNumber": "201", "modified": "Jul 06, 2009 12:00:00 AM", "start": "1999-05-19", "GoogleMapsResponse": {"status": "OK", "results": [{"geometry": {"location": {"lat": 51.5058629, "lng": -0.132621}, "viewport": {"northeast": {"lat": 51.50721188029151, "lng": -0.131272019708498}, "southwest": {"lat": 51.50451391970851, "lng": -0.133969980291502}}, "location_type": "APPROXIMATE"}, "address_components": [{"long_name": "The Royal Society", "types": ["premise"], "short_name": "The Royal Society"}, {"long_name": "6", "types": ["street_number"], "short_name": "6"}, {"long_name": "Carlton House Terrace", "types": ["route"], "short_name": "Carlton House Terrace"}, {"long_name": "St. James's", "types": ["neighborhood", "political"], "short_name": "St. James's"}, {"long_name": "Greater London", "types": ["administrative_area_level_2", "political"], "short_name": "Gt Lon"}, {"long_name": "United Kingdom", "types": ["country", "political"], "short_name": "GB"}, {"long_name": "SW1Y 5AG", "types": ["postal_code"], "short_name": "SW1Y 5AG"}, {"long_name": "London", "types": ["postal_town"], "short_name": "London"}], "partial_match": true, "formatted_address": "The Royal Society, 6 Carlton House Terrace, St. James's, London SW1Y 5AG, UK", "types": ["premise"]}, {"geometry": {"location": {"lat": 51.5088786, "lng": -0.1388878}, "viewport": {"northeast": {"lat": 51.5102275802915, "lng": -0.137538819708498}, "southwest": {"lat": 51.5075296197085, "lng": -0.140236780291502}}, "location_type": "APPROXIMATE"}, "address_components": [{"long_name": "Royal Society Of Chemistry", "types": ["point_of_interest", "establishment"], "short_name": "Royal Society Of Chemistry"}, {"long_name": "Burlington House", "types": ["premise"], "short_name": "Burlington House"}, {"long_name": "Piccadilly", "types": ["route"], "short_name": "Piccadilly"}, {"long_name": "Mayfair", "types": ["neighborhood", "political"], "short_name": "Mayfair"}, {"long_name": "Greater London", "types": ["administrative_area_level_2", "political"], "short_name": "Gt Lon"}, {"long_name": "United Kingdom", "types": ["country", "political"], "short_name": "GB"}, {"long_name": "W1J 0BA", "types": ["postal_code"], "short_name": "W1J 0BA"}, {"long_name": "London", "types": ["postal_town"], "short_name": "London"}], "partial_match": true, "formatted_address": "Royal Society Of Chemistry, Burlington House, Piccadilly, Mayfair, London W1J 0BA, UK", "types": ["point_of_interest", "establishment"]}]}, "phone": "", "contact": "D. Lynden-Bell", "location": "Royal Society London", "address": "Institute of Astronomy,The Observatories,Madingley Road,Cambridge.  CB3 0HA", "keywords": "", "ingested": "Sep 25, 1997 12:00:00 AM", "email": "dlb@ast.cam.ac.uk"}, {"web": "", "fax": "(818) 393-5239", "bibCode": " 1999oiri.conf.....U", "end": "1999-05-27", "title": "Working on the Fringe: An International Conference on Optical and IR Interferometry from Ground and Space", "meetingNumber": "332", "modified": "Jun 09, 2009 12:00:00 AM", "start": "1999-05-24", "GoogleMapsResponse": {"status": "OK", "results": [{"geometry": {"location_type": "APPROXIMATE", "bounds": {"northeast": {"lat": 33.498278, "lng": -117.644974}, "southwest": {"lat": 33.4406403, "lng": -117.732043}}, "viewport": {"northeast": {"lat": 33.498278, "lng": -117.644974}, "southwest": {"lat": 33.4406403, "lng": -117.732043}}, "location": {"lat": 33.4669721, "lng": -117.6981075}}, "address_components": [{"long_name": "Dana Point", "types": ["locality", "political"], "short_name": "Dana Point"}, {"long_name": "Orange County", "types": ["administrative_area_level_2", "political"], "short_name": "Orange County"}, {"long_name": "California", "types": ["administrative_area_level_1", "political"], "short_name": "CA"}, {"long_name": "United States", "types": ["country", "political"], "short_name": "US"}], "formatted_address": "Dana Point, CA, USA", "types": ["locality", "political"]}]}, "phone": "(818) 354-5066", "contact": "Steve Unwin", "location": "Dana Point, CA., USA", "address": "Jet Propulsion Laboratory, 4800 Oak Grove Dr M.S. 301-486, Pasadena, CA. 91109,", "keywords": "optics, IR, infrared", "ingested": "Sep 14, 1998 12:00:00 AM", "email": "fringes@huey.jpl.nasa.gov"}, {"web": "http://www.astropa.unipa.it/Workshop99/index.html", "fax": "39-091-233-444", "bibCode": " 2000scac.conf.....P", "end": "1999-05-28", "title": "Stellar Clusters and Associations: Convection, Rotation and Dynamos", "meetingNumber": "432", "modified": "Jul 23, 2001 12:00:00 AM", "start": "1999-05-25", "GoogleMapsResponse": {"status": "OK", "results": [{"geometry": {"location": {"lat": 38.2015681, "lng": 13.3266652}, "viewport": {"northeast": {"lat": 38.210336, "lng": 13.3426726}, "southwest": {"lat": 38.1927992, "lng": 13.3106578}}, "location_type": "APPROXIMATE"}, "address_components": [{"long_name": "Mondello", "types": ["locality", "political"], "short_name": "Mondello"}, {"long_name": "Palermo", "types": ["administrative_area_level_3", "political"], "short_name": "Palermo"}, {"long_name": "Palermo", "types": ["administrative_area_level_2", "political"], "short_name": "PA"}, {"long_name": "Sicily", "types": ["administrative_area_level_1", "political"], "short_name": "Sicily"}, {"long_name": "Italy", "types": ["country", "political"], "short_name": "IT"}, {"long_name": "90151", "types": ["postal_code"], "short_name": "90151"}], "formatted_address": "90151 Mondello Palermo, Italy", "types": ["locality", "political"]}, {"geometry": {"location_type": "APPROXIMATE", "bounds": {"northeast": {"lat": 38.0756598, "lng": 13.5179873}, "southwest": {"lat": 38.0731919, "lng": 13.5168425}}, "viewport": {"northeast": {"lat": 38.07577483029149, "lng": 13.5187638802915}, "southwest": {"lat": 38.07307686970849, "lng": 13.5160659197085}}, "location": {"lat": 38.0743676, "lng": 13.5174842}}, "address_components": [{"long_name": "Mondello", "types": ["locality", "political"], "short_name": "Mondello"}, {"long_name": "Santa Flavia", "types": ["administrative_area_level_3", "political"], "short_name": "Santa Flavia"}, {"long_name": "Palermo", "types": ["administrative_area_level_2", "political"], "short_name": "PA"}, {"long_name": "Sicily", "types": ["administrative_area_level_1", "political"], "short_name": "Sicily"}, {"long_name": "Italy", "types": ["country", "political"], "short_name": "IT"}], "formatted_address": "Mondello Palermo, Italy", "types": ["locality", "political"]}]}, "phone": "39-091-233-111", "contact": "Pallavicini", "location": "Mondello (Palermo), Sicily, Italy", "address": "Osservatorio Astronomico di Palermo, Piazza del Parlamento 1, Palermo, Italy I90134", "keywords": "stars", "ingested": "Feb 16, 1999 12:00:00 AM", "email": "workshop@oapa.astropa.unipa.it"}, {"web": "", "fax": "(31) 71 5656040", "bibCode": " 2000eaa..bookE4777.", "end": "1999-05-27", "title": "XEUS-The X-ray Evolving Universe Spectroscopy mission", "meetingNumber": "519", "modified": "Jul 06, 2009 12:00:00 AM", "start": "1999-05-26", "phone": "(31) 71 5656565", "contact": "Marcos Bavdaz", "location": "Estec, Noordwijk, NL", "address": "ESTEC, Postbus 299, NL2200 AG Noordwijk, Keplerlaan, NL 2201 Noordwijk ZH,", "keywords": "xeus, universe, science mission", "ingested": "May 07, 1999 12:00:00 AM", "email": "mbavdaz@astro.estec.esa.nl"}, {"web": "", "fax": "", "bibCode": "", "end": "1998-01-29", "title": "David N. Schramm Memorial Symposium:\r\nInner Space/Outer Space II", "meetingNumber": "477", "modified": "Jun 09, 2009 12:00:00 AM", "start": "1999-05-26", "phone": "", "contact": "Cynthia Sazama", "location": "Fermilab", "address": "Fermilab, 500 Batavia, Illinois 60510", "keywords": "space, David N.Schramm", "ingested": "May 31, 1999 12:00:00 AM", "email": "sazama@fnal.gov"}, {"web": "", "fax": "00 31 71 565 56 58", "bibCode": "", "end": "1999-06-02", "title": "Life Odyssey Symposium, 7th. European Symposium on Life Sciences Research in Space", "meetingNumber": "495", "modified": "Jun 09, 2009 12:00:00 AM", "start": "1999-05-29", "phone": "00 31 71 565 50 05", "contact": "ESTEC Conference Bureau", "location": "Maastricht, The Netherlands", "address": "P.O. Box 299, Keplerlaan 1, NL - 2200 AG Noordwijk, The Netherlands", "keywords": "life sciences", "ingested": "Apr 15, 1999 12:00:00 AM", "email": "confburo@estec.esa.nl"}, {"web": "", "fax": "", "bibCode": "", "end": "1999-06-03", "title": "Solar Physics Division (with AAS)", "meetingNumber": "526", "modified": "May 16, 1999 12:00:00 AM", "start": "1999-05-30", "phone": "", "contact": "Judy Karpen", "location": "Chicago, IL.", "address": "", "keywords": "solar physics", "ingested": "May 16, 1999 12:00:00 AM", "email": "karpen@nrl.navy.mil"}, {"web": "", "fax": "", "bibCode": " 1999AAS...194......", "end": "1999-06-03", "title": "Historical Astronomy Division (with AAS)", "meetingNumber": "527", "modified": "Oct 05, 1999 12:00:00 AM", "start": "1999-05-30", "phone": "", "contact": "Tom Hockey", "location": "Chicago, IL.", "address": "", "keywords": "historical astronomy", "ingested": "May 16, 1999 12:00:00 AM", "email": "hockey@uni.edu"}, {"web": "http://www.aas.org", "fax": "", "bibCode": " 1999AAS...194......", "end": "1999-06-03", "title": "194th. Meeting of the AAS: Centennial Meeting", "meetingNumber": "525", "modified": "Jun 22, 2000 12:00:00 AM", "start": "1999-05-30", "GoogleMapsResponse": {"status": "OK", "results": [{"geometry": {"location_type": "APPROXIMATE", "bounds": {"northeast": {"lat": 42.023131, "lng": -87.52404399999999}, "southwest": {"lat": 41.6443349, "lng": -87.9402669}}, "viewport": {"northeast": {"lat": 42.023131, "lng": -87.52404399999999}, "southwest": {"lat": 41.6443349, "lng": -87.9402669}}, "location": {"lat": 41.8781136, "lng": -87.6297982}}, "address_components": [{"long_name": "Chicago", "types": ["locality", "political"], "short_name": "Chicago"}, {"long_name": "Cook County", "types": ["administrative_area_level_2", "political"], "short_name": "Cook County"}, {"long_name": "Illinois", "types": ["administrative_area_level_1", "political"], "short_name": "IL"}, {"long_name": "United States", "types": ["country", "political"], "short_name": "US"}], "formatted_address": "Chicago, IL, USA", "types": ["locality", "political"]}]}, "phone": "", "contact": "Richard Kron", "location": "Chicago, IL.", "address": "", "keywords": "AAS", "ingested": "May 16, 1999 12:00:00 AM", "email": "rich@oddjob.uchicago.edu"}, {"web": "", "fax": "+49-5556-4709", "bibCode": " 1999eser.book.....K", "end": "1999-06-03", "title": "14th ESA Symposium on European and Balloon Programmes and Related Research", "meetingNumber": "463", "modified": "Jul 06, 2009 12:00:00 AM", "start": "1999-05-31", "GoogleMapsResponse": {"status": "OK", "results": [{"geometry": {"location_type": "APPROXIMATE", "bounds": {"northeast": {"lat": 52.5146915, "lng": 13.1679979}, "southwest": {"lat": 52.3420316, "lng": 12.8868267}}, "viewport": {"northeast": {"lat": 52.5146915, "lng": 13.1679979}, "southwest": {"lat": 52.3420316, "lng": 12.8868267}}, "location": {"lat": 52.3941887, "lng": 13.072691}}, "address_components": [{"long_name": "Potsdam", "types": ["locality", "political"], "short_name": "P"}, {"long_name": "Brandenburg", "types": ["administrative_area_level_1", "political"], "short_name": "BB"}, {"long_name": "Germany", "types": ["country", "political"], "short_name": "DE"}], "formatted_address": "Potsdam, Germany", "types": ["locality", "political"]}]}, "phone": "+49-5556-91099", "contact": "", "location": " Potsdam, Germany", "address": "Copernicus Gesellschaft e.V c/o ESA/PAC99, Max-Planck-Str. 13, 37191 Katlenburg-Lindau, Germany", "keywords": "rockets", "ingested": "Mar 16, 1999 12:00:00 AM", "email": "cop@copernicus.org"}, {"web": "", "fax": "+46 46 2224614", "bibCode": " 2000elt..conf.....A", "end": "1999-06-02", "title": "Workshop on Extremely Large Telescopes", "meetingNumber": "371", "modified": "Jun 09, 2009 12:00:00 AM", "start": "1999-06-01", "GoogleMapsResponse": {"status": "OK", "results": [{"geometry": {"location": {"lat": 56.05, "lng": 14.333333}, "viewport": {"northeast": {"lat": 56.0562309, "lng": 14.3493404}, "southwest": {"lat": 56.04376809999999, "lng": 14.3173256}}, "location_type": "APPROXIMATE"}, "address_components": [{"long_name": "B\u00e4ckaskog", "types": ["locality", "political"], "short_name": "B\u00e4ckaskog"}, {"long_name": "Sk\u00e5ne County", "types": ["administrative_area_level_1", "political"], "short_name": "Sk\u00e5ne County"}, {"long_name": "Sweden", "types": ["country", "political"], "short_name": "SE"}, {"long_name": "29034", "types": ["postal_code"], "short_name": "29034"}, {"long_name": "Fj\u00e4lkinge", "types": ["postal_town"], "short_name": "Fj\u00e4lkinge"}], "formatted_address": "290 34 B\u00e4ckaskog, Sweden", "types": ["locality", "political"]}]}, "phone": "+46 46 2224703", "contact": "Torben Andersen", "location": "Backaskog, Sweden", "address": "Lund Observatory, Box 43, S-221 00 Lund, Sweden", "keywords": "telescope", "ingested": "Dec 09, 1998 12:00:00 AM", "email": "torben.andersen@astro.lu.se"}, {"web": "", "fax": "39 11 461 9030", "bibCode": "", "end": "1999-06-04", "title": "International Meeting Programs for Asteroid and Comet Threat (IMPACT Workshop)", "meetingNumber": "426", "modified": "Jun 28, 2001 12:00:00 AM", "start": "1999-06-01", "GoogleMapsResponse": {"status": "OK", "results": [{"geometry": {"location_type": "APPROXIMATE", "bounds": {"northeast": {"lat": 45.1335014, "lng": 7.7623282}, "southwest": {"lat": 45.00677659999999, "lng": 7.5778502}}, "viewport": {"northeast": {"lat": 45.1335014, "lng": 7.7623282}, "southwest": {"lat": 45.00677659999999, "lng": 7.5778502}}, "location": {"lat": 45.07098200000001, "lng": 7.685676}}, "address_components": [{"long_name": "Turin", "types": ["locality", "political"], "short_name": "Turin"}, {"long_name": "Turin", "types": ["administrative_area_level_3", "political"], "short_name": "Turin"}, {"long_name": "Turin", "types": ["administrative_area_level_2", "political"], "short_name": "TO"}, {"long_name": "Piedmont", "types": ["administrative_area_level_1", "political"], "short_name": "Piedmont"}, {"long_name": "Italy", "types": ["country", "political"], "short_name": "IT"}], "formatted_address": "Turin, Italy", "types": ["locality", "political"]}]}, "phone": "39 11 461 9035", "contact": "H. Rickman or V. Zappala", "location": "Torino, Italy", "address": "Oss. Astronomico di Torino, , St. Osservatorio 220, I 10025 , Torino, Italy", "keywords": "asteroid, comet", "ingested": "Feb 12, 1999 12:00:00 AM", "email": "zappala@to.astro.it"}, {"web": "", "fax": "520-882-7955", "bibCode": " 1999irts.conf.....M", "end": "1999-06-09", "title": "Imaging at Radio through Submillimeter Wavelengths", "meetingNumber": "414", "modified": "Jun 09, 2009 12:00:00 AM", "start": "1999-06-06", "phone": "520-882-8250 x113", "contact": "Jeff Mangum", "location": "Loews Ventana Canyon Resort", "address": "NRAO, 949 North Cherry Avenue, Tucson, AZ.  85718", "keywords": "radio astronomy", "ingested": "Feb 02, 1999 12:00:00 AM", "email": "jmanum@nrao.edu"}, {"web": "http://www.CRM.UMontreal.CA/act/theme/1999/at_1999_06_06_an.html", "fax": "519-836-9967", "bibCode": "", "end": "1999-06-09", "title": "Black Holes II: Theory and Mathematical Aspects", "meetingNumber": "427", "modified": "Feb 15, 1999 12:00:00 AM", "start": "1999-06-06", "GoogleMapsResponse": {"status": "OK", "results": [{"geometry": {"location_type": "GEOMETRIC_CENTER", "bounds": {"northeast": {"lat": 46.024187, "lng": -74.156469}, "southwest": {"lat": 46.0234078, "lng": -74.158699}}, "viewport": {"northeast": {"lat": 46.0251463802915, "lng": -74.1562350197085}, "southwest": {"lat": 46.0224484197085, "lng": -74.15893298029151}}, "location": {"lat": 46.0239262, "lng": -74.1569865}}, "address_components": [{"long_name": "Rue Far Hills", "types": ["route"], "short_name": "Rue Far Hills"}, {"long_name": "Val-Morin", "types": ["locality", "political"], "short_name": "Val-Morin"}, {"long_name": "Val-Morin", "types": ["administrative_area_level_3", "political"], "short_name": "Val-Morin"}, {"long_name": "Les Laurentides Regional County Municipality", "types": ["administrative_area_level_2", "political"], "short_name": "Les Laurentides Regional County Municipality"}, {"long_name": "Quebec", "types": ["administrative_area_level_1", "political"], "short_name": "QC"}, {"long_name": "Canada", "types": ["country", "political"], "short_name": "CA"}, {"long_name": "J0T 2R0", "types": ["postal_code"], "short_name": "J0T 2R0"}], "partial_match": true, "formatted_address": "Rue Far Hills, Val-Morin, QC J0T 2R0, Canada", "types": ["route"]}]}, "phone": "519-824-4120 x3949", "contact": "Eric Poisson", "location": "Far Hills Inn, Val Morin, Quebec, Canada", "address": "Department of Physics, University of Guelph, Guelph, Ontario, N1G 2W1, Canada", "keywords": "black holes", "ingested": "Feb 15, 1999 12:00:00 AM", "email": "poisson@physics.uoguelph.ca"}, {"web": "", "fax": "0030-81-394201", "bibCode": "", "end": "1999-06-18", "title": "The Neutron Star-Black Hole Connection, NATO ASI", "meetingNumber": "352", "modified": "Jun 09, 2009 12:00:00 AM", "start": "1999-06-07", "GoogleMapsResponse": {"status": "OK", "results": [{"geometry": {"location_type": "APPROXIMATE", "bounds": {"northeast": {"lat": 35.2664558, "lng": 25.7299779}, "southwest": {"lat": 35.2554476, "lng": 25.7181903}}, "viewport": {"northeast": {"lat": 35.2664558, "lng": 25.7299779}, "southwest": {"lat": 35.2554476, "lng": 25.7181903}}, "location": {"lat": 35.2613505, "lng": 25.7234164}}, "address_components": [{"long_name": "Elounda", "types": ["locality", "political"], "short_name": "Elounda"}, {"long_name": "Agios Nikolaos", "types": ["political"], "short_name": "Ag. Nikolaos"}, {"long_name": "Agios Nikolaos", "types": ["political"], "short_name": "Ag. Nikolaos"}, {"long_name": "Lasithi", "types": ["administrative_area_level_3", "political"], "short_name": "Lasithi"}, {"long_name": "Crete", "types": ["administrative_area_level_2", "political"], "short_name": "Crete"}, {"long_name": "Crete", "types": ["administrative_area_level_1", "political"], "short_name": "Crete"}, {"long_name": "Greece", "types": ["country", "political"], "short_name": "GR"}], "formatted_address": "Elounda, Greece", "types": ["locality", "political"]}, {"geometry": {"location": {"lat": 35.265, "lng": 25.7608333}, "viewport": {"northeast": {"lat": 35.2663489802915, "lng": 25.7621822802915}, "southwest": {"lat": 35.2636510197085, "lng": 25.7594843197085}}, "location_type": "APPROXIMATE"}, "address_components": [{"long_name": "Nisida Kolokythia", "types": ["natural_feature", "establishment"], "short_name": "Nisida Kolokythia"}, {"long_name": "Agios Nikolaos", "types": ["political"], "short_name": "Ag. Nikolaos"}, {"long_name": "Agios Nikolaos", "types": ["political"], "short_name": "Ag. Nikolaos"}, {"long_name": "Lasithi", "types": ["administrative_area_level_3", "political"], "short_name": "Lasithi"}, {"long_name": "Greece", "types": ["country", "political"], "short_name": "GR"}], "formatted_address": "Nisida Kolokythia, Agios Nikolaos, Greece", "types": ["natural_feature", "establishment"]}]}, "phone": "0030-81-394251", "contact": "Dr. Fotis Mavromatakis", "location": "Elounda, Crete, Greece", "address": "University Of Crete , Voutes, Heraklion, 71003", "keywords": "neutron star, black holes", "ingested": "Nov 04, 1998 12:00:00 AM", "email": "fotis@physics.uch.gr"}, {"web": "", "fax": "33-1-40 51 20 02", "bibCode": "", "end": "1999-06-14", "title": "Paris cosmology colloquium and international euroconference-fundamental problems in classical, quantum and string cosmology-black holes and string gravity", "meetingNumber": "488", "modified": "Apr 15, 1999 12:00:00 AM", "start": "1999-06-07", "GoogleMapsResponse": {"status": "OK", "results": [{"geometry": {"location_type": "APPROXIMATE", "bounds": {"northeast": {"lat": 48.9021449, "lng": 2.4699208}, "southwest": {"lat": 48.815573, "lng": 2.224199}}, "viewport": {"northeast": {"lat": 48.9021449, "lng": 2.4699208}, "southwest": {"lat": 48.815573, "lng": 2.224199}}, "location": {"lat": 48.856614, "lng": 2.3522219}}, "address_components": [{"long_name": "Paris", "types": ["locality", "political"], "short_name": "Paris"}, {"long_name": "Paris", "types": ["administrative_area_level_2", "political"], "short_name": "75"}, {"long_name": "\u00cele-de-France", "types": ["administrative_area_level_1", "political"], "short_name": "IDF"}, {"long_name": "France", "types": ["country", "political"], "short_name": "FR"}], "formatted_address": "Paris, France", "types": ["locality", "political"]}]}, "phone": "", "contact": "DEMIRM", "location": "Paris, France", "address": "Observatoire de Paris, 61, Av. de l'Observatoire, F-75014, Paris, France", "keywords": "cosmology, black holes, string theory", "ingested": "Apr 15, 1999 12:00:00 AM", "email": "chalonge@mesiob.obspm.fr"}, {"web": "", "fax": "", "bibCode": "", "end": "1999-06-27", "title": "The Cosmological Constant-Aspen Summer Workshop", "meetingNumber": "500", "modified": "Apr 15, 1999 12:00:00 AM", "start": "1999-06-07", "GoogleMapsResponse": {"status": "OK", "results": [{"geometry": {"location_type": "APPROXIMATE", "bounds": {"northeast": {"lat": 39.21978500000001, "lng": -106.8013911}, "southwest": {"lat": 39.1771779, "lng": -106.8720581}}, "viewport": {"northeast": {"lat": 39.21978500000001, "lng": -106.8013911}, "southwest": {"lat": 39.1771779, "lng": -106.8720581}}, "location": {"lat": 39.1910983, "lng": -106.8175387}}, "address_components": [{"long_name": "Aspen", "types": ["locality", "political"], "short_name": "Aspen"}, {"long_name": "Pitkin County", "types": ["administrative_area_level_2", "political"], "short_name": "Pitkin County"}, {"long_name": "Colorado", "types": ["administrative_area_level_1", "political"], "short_name": "CO"}, {"long_name": "United States", "types": ["country", "political"], "short_name": "US"}], "formatted_address": "Aspen, CO, USA", "types": ["locality", "political"]}]}, "phone": "", "contact": "", "location": "Aspen,Colorado", "address": "Aspen Center for Physics, 700 W. Gillespie St., Aspen, CO.  81611", "keywords": "cosmology", "ingested": "Apr 15, 1999 12:00:00 AM", "email": "mturner@fnalv.fnal.gov"}, {"web": "", "fax": "520-523-1371", "bibCode": " 1999PASP..111.1591M", "end": "1999-06-11", "title": "From Giant Planets to Cool Stars", "meetingNumber": "399", "modified": "Jul 23, 2001 12:00:00 AM", "start": "1999-06-08", "GoogleMapsResponse": {"status": "OK", "results": [{"geometry": {"location_type": "APPROXIMATE", "bounds": {"northeast": {"lat": 35.2401021, "lng": -111.50679}, "southwest": {"lat": 35.12231300000001, "lng": -111.709128}}, "viewport": {"northeast": {"lat": 35.2401021, "lng": -111.50679}, "southwest": {"lat": 35.12231300000001, "lng": -111.709128}}, "location": {"lat": 35.2013516, "lng": -111.639249}}, "address_components": [{"long_name": "Flagstaff", "types": ["locality", "political"], "short_name": "Flagstaff"}, {"long_name": "Coconino County", "types": ["administrative_area_level_2", "political"], "short_name": "Coconino County"}, {"long_name": "Arizona", "types": ["administrative_area_level_1", "political"], "short_name": "AZ"}, {"long_name": "United States", "types": ["country", "political"], "short_name": "US"}], "formatted_address": "Flagstaff, AZ, USA", "types": ["locality", "political"]}]}, "phone": "520-523-5452", "contact": "Mark Marley & Caitlin Griffith", "location": "Flagstaff, Arizona", "address": "Northern Arizona University, Department of Physics and Astronomy, Flagstaff, Arizona 86011-6010,", "keywords": "planets, stars", "ingested": "Jan 19, 1999 12:00:00 AM", "email": "gpcs99@bohr.phy.nau.edu"}, {"web": "http://www.CRM.UMontreal.CA/act/theme/1999/at_1999_06_10_an.html", "fax": "(514) 343-2254", "bibCode": " 1999grra.conf.....B", "end": "1999-06-12", "title": "8th Canadian Conference on General Relativity and Relativistic Astrophysics", "meetingNumber": "438", "modified": "Mar 07, 2001 12:00:00 AM", "start": "1999-06-10", "GoogleMapsResponse": {"status": "OK", "results": [{"geometry": {"location_type": "APPROXIMATE", "bounds": {"northeast": {"lat": 45.513065, "lng": -73.5713394}, "southwest": {"lat": 45.498471, "lng": -73.5860287}}, "viewport": {"northeast": {"lat": 45.513065, "lng": -73.5713394}, "southwest": {"lat": 45.498471, "lng": -73.5860287}}, "location": {"lat": 45.50478469999999, "lng": -73.5771511}}, "address_components": [{"long_name": "McGill University", "types": ["establishment"], "short_name": "McGill University"}, {"long_name": "845", "types": ["street_number"], "short_name": "845"}, {"long_name": "Sherbrooke Street West", "types": ["route"], "short_name": "Sherbrooke St W"}, {"long_name": "Montreal", "types": ["locality", "political"], "short_name": "Montreal"}, {"long_name": "Montreal", "types": ["administrative_area_level_2", "political"], "short_name": "Montreal"}, {"long_name": "Quebec", "types": ["administrative_area_level_1", "political"], "short_name": "QC"}, {"long_name": "Canada", "types": ["country", "political"], "short_name": "CA"}, {"long_name": "H3A 0G4", "types": ["postal_code"], "short_name": "H3A 0G4"}], "formatted_address": "McGill University, 845 Sherbrooke Street West, Montreal, QC H3A 0G4, Canada", "types": ["university", "establishment"]}]}, "phone": "(514) 343-2197", "contact": "Louis Pelletier", "location": "McGill University, Montr\u00e9al, Qu\u00e9bec, Canada", "address": "Centre de recherches math\u00e9matiques (CRM),,                 Universit\u00e9 de Montr\u00e9al, C.P. 6128, Succ. centre-ville, Montr\u00e9al, (Qu\u00e9bec) CANADA, H3C 3J7", "keywords": "astrophysics", "ingested": "Feb 22, 1999 12:00:00 AM", "email": "ACTIVITES@CRM.UMontreal.CA"}, {"web": "", "fax": "+358-2-2433767", "bibCode": "2000sgg..conf.....V", "end": "1999-06-18", "title": "IAU Colloquium 174: Small Galaxy Groups", "meetingNumber": "296", "modified": "Jun 09, 2009 12:00:00 AM", "start": "1999-06-13", "phone": "+358-2-2744245", "contact": "Mauri Valtonen, Chris Flynn", "location": "Turku, Finland", "address": "Tuorla Observatory, Vaisalantie 20, Piikkio, Finland,, FIN-21500", "keywords": "", "ingested": "Apr 27, 1998 12:00:00 AM", "email": "sgg@astro.utu.fi"}, {"web": "http://www.grc.org/programs.aspx?year=1999&program=origins", "fax": "1-202-364-8726", "bibCode": " 1999M&PS...34..307.", "end": "1999-06-18", "title": "Gordon Research Conference on Origins of Solar System", "meetingNumber": "428", "modified": "Jul 06, 2009 12:00:00 AM", "start": "1999-06-13", "phone": "1-202-686-4370 x 4402", "contact": "Alan Boss", "location": "Henniker, New Hampshire", "address": "DTM, Carnegie Instititution of Washington, 5241 Broad Branch Road, NW, Washington, DC 20015-1305", "keywords": "solar system", "ingested": "Feb 15, 1999 12:00:00 AM", "email": "boss@dtm.ciw.edu"}, {"web": "", "fax": "", "bibCode": "", "end": "1999-06-27", "title": "Type Ia Supernovae, Aspen Summer Workshop", "meetingNumber": "501", "modified": "Apr 19, 1999 12:00:00 AM", "start": "1999-06-14", "phone": "", "contact": "", "location": "Aspen, Colorado", "address": "Aspen Center for Physics, 700 Gillespie Stree, Aspen, CO.  81611", "keywords": "supernovae", "ingested": "Apr 15, 1999 12:00:00 AM", "email": "lamb@oddjob.uchicago.edu"}, {"web": "", "fax": "617-353-6463", "bibCode": "", "end": "1999-06-17", "title": "SHINE 99", "meetingNumber": "420", "modified": "Jun 09, 2009 12:00:00 AM", "start": "1999-06-14", "phone": "978-443-8559", "contact": "Nancy Crooker", "location": "Regal Harvest House, Boulder, Colorado", "address": "Boston University, 725 Commonwealth Avenue, Boston, Massachusetts  02215", "keywords": "solar, heliopspheric", "ingested": "Feb 12, 1999 12:00:00 AM", "email": "crooker@bu.edu"}, {"web": "http://www.obspm.fr/chalonge", "fax": "33(0)140512002", "bibCode": "", "end": "1999-06-18", "title": "VI Paris Cosmology Colloquium", "meetingNumber": "528", "modified": "May 27, 1999 12:00:00 AM", "start": "1999-06-16", "GoogleMapsResponse": {"status": "OK", "results": [{"geometry": {"location_type": "APPROXIMATE", "bounds": {"northeast": {"lat": 48.8370142, "lng": 2.3372691}, "southwest": {"lat": 48.8344181, "lng": 2.332642}}, "viewport": {"northeast": {"lat": 48.8370651302915, "lng": 2.3372691}, "southwest": {"lat": 48.8343671697085, "lng": 2.332642}}, "location": {"lat": 48.8358925, "lng": 2.3365123}}, "address_components": [{"long_name": "Paris Observatory", "types": ["establishment"], "short_name": "Paris Observatory"}, {"long_name": "61", "types": ["street_number"], "short_name": "61"}, {"long_name": "Avenue de l\u2019Observatoire", "types": ["route"], "short_name": "Avenue de l\u2019Observatoire"}, {"long_name": "Paris", "types": ["locality", "political"], "short_name": "Paris"}, {"long_name": "Paris", "types": ["administrative_area_level_2", "political"], "short_name": "75"}, {"long_name": "\u00cele-de-France", "types": ["administrative_area_level_1", "political"], "short_name": "IDF"}, {"long_name": "France", "types": ["country", "political"], "short_name": "FR"}, {"long_name": "75014", "types": ["postal_code"], "short_name": "75014"}], "formatted_address": "Paris Observatory, 61 Avenue de l\u2019Observatoire, 75014 Paris", "types": ["establishment"]}]}, "phone": " 33(0)140512007", "contact": "", "location": "Observatoire de Paris", "address": "DEMIRM - Observatoire de Paris, 61, Avenue de l'Observatoire, Paris, France, Zip Code: 75014", "keywords": "cosmology", "ingested": "May 27, 1999 12:00:00 AM", "email": "chalonge@mesiob.obspm.fr"}, {"web": "", "fax": "", "bibCode": "1999hrug.conf.....B", "end": "1999-06-24", "title": "The Hy-Redshift Universe: Galaxy Formation and Evolution at High Redshift", "meetingNumber": "318", "modified": "Jun 09, 2009 12:00:00 AM", "start": "1999-06-21", "GoogleMapsResponse": {"status": "OK", "results": [{"geometry": {"location_type": "APPROXIMATE", "bounds": {"northeast": {"lat": 37.9056681, "lng": -122.234179}, "southwest": {"lat": 37.846226, "lng": -122.3270804}}, "viewport": {"northeast": {"lat": 37.9056681, "lng": -122.234179}, "southwest": {"lat": 37.846226, "lng": -122.3270804}}, "location": {"lat": 37.8715926, "lng": -122.272747}}, "address_components": [{"long_name": "Berkeley", "types": ["locality", "political"], "short_name": "Berkeley"}, {"long_name": "Alameda County", "types": ["administrative_area_level_2", "political"], "short_name": "Alameda County"}, {"long_name": "California", "types": ["administrative_area_level_1", "political"], "short_name": "CA"}, {"long_name": "United States", "types": ["country", "political"], "short_name": "US"}], "formatted_address": "Berkeley, CA, USA", "types": ["locality", "political"]}]}, "phone": "", "contact": "Ivan R. King", "location": "Berkeley, CA", "address": "Univ. of Calif. Berkeley,, 601 Campbell Hall,, Berkeley, CA, USA 94720", "keywords": "", "ingested": "Aug 14, 1998 12:00:00 AM", "email": "hyfest@bigz.berkeley.edu"}, {"web": "", "fax": "33 1 69 15 44 75", "bibCode": "", "end": "1999-06-25", "title": "Second Conference on New Developments in Photodetection", "meetingNumber": "406", "modified": "Jun 28, 2001 12:00:00 AM", "start": "1999-06-21", "GoogleMapsResponse": {"status": "OK", "results": [{"geometry": {"location_type": "APPROXIMATE", "bounds": {"northeast": {"lat": 47.0589021, "lng": 4.89736}, "southwest": {"lat": 46.9955299, "lng": 4.786901}}, "viewport": {"northeast": {"lat": 47.0589021, "lng": 4.89736}, "southwest": {"lat": 46.9955299, "lng": 4.786901}}, "location": {"lat": 47.02603000000001, "lng": 4.840004}}, "address_components": [{"long_name": "Beaune", "types": ["locality", "political"], "short_name": "Beaune"}, {"long_name": "C\u00f4te-d'Or", "types": ["administrative_area_level_2", "political"], "short_name": "21"}, {"long_name": "Burgandy", "types": ["administrative_area_level_1", "political"], "short_name": "Burgandy"}, {"long_name": "France", "types": ["country", "political"], "short_name": "FR"}], "formatted_address": "Beaune, France", "types": ["locality", "political"]}]}, "phone": "33 1 69 15 73 18", "contact": "Frederique Dykstra", "location": "Beaune, France", "address": "Institut de Physique Nucleaire, Bat. 100, F-91406 Orsay Cedex, France", "keywords": "photodetection, astrophysics", "ingested": "Jan 29, 1999 12:00:00 AM", "email": "beaune-99@in2p3.fr"}, {"web": "http://www.iac.es/oxford6/oxford6.htm", "fax": "34-922-605210 or 34-922-263295", "bibCode": "", "end": "1999-06-29", "title": " Oxford VI International Conference on Archaeoastronomy\r\nand Astronomy in Culture and the S.E.A.C. 1999 Annual Meeting\r\n\r\n", "meetingNumber": "476", "modified": "Mar 25, 1999 12:00:00 AM", "start": "1999-06-21", "GoogleMapsResponse": {"status": "OK", "results": [{"geometry": {"location_type": "APPROXIMATE", "bounds": {"northeast": {"lat": 28.4999488, "lng": -16.2823703}, "southwest": {"lat": 28.4396452, "lng": -16.3343401}}, "viewport": {"northeast": {"lat": 28.4999488, "lng": -16.2823703}, "southwest": {"lat": 28.4396452, "lng": -16.3343401}}, "location": {"lat": 28.4874009, "lng": -16.3159061}}, "address_components": [{"long_name": "San Cristobal de La Laguna", "types": ["locality", "political"], "short_name": "San Cristobal de La Laguna"}, {"long_name": "San Crist\u00f3bal de La Laguna", "types": ["political"], "short_name": "San Crist\u00f3bal de La Laguna"}, {"long_name": "Santa Cruz de Tenerife", "types": ["administrative_area_level_2", "political"], "short_name": "TF"}, {"long_name": "Canary Islands", "types": ["administrative_area_level_1", "political"], "short_name": "CN"}, {"long_name": "Spain", "types": ["country", "political"], "short_name": "ES"}], "partial_match": true, "formatted_address": "San Cristobal de La Laguna, Santa Cruz de Tenerife, Spain", "types": ["locality", "political"]}]}, "phone": "34-922-605265 or 34-922-263454", "contact": "Dr. Juan Antonio Belmonte", "location": "La Laguna, Tenerife, Canary Islands, Spain", "address": "Instituto de Astrofisica de Canarias, C/ Via Lactea S.N.,38200 La Laguna, Tenerife, Spain", "keywords": "astronomy", "ingested": "Mar 25, 1999 12:00:00 AM", "email": "jba@iac.es"}, {"web": "", "fax": "+81-52-789-2845", "bibCode": " 1999sf99.proc.....N", "end": "1999-06-25", "title": "Star Formation 1999", "meetingNumber": "345", "modified": "Jun 09, 2009 12:00:00 AM", "start": "1999-06-21", "GoogleMapsResponse": {"status": "OK", "results": [{"geometry": {"location_type": "APPROXIMATE", "bounds": {"northeast": {"lat": 35.2604518, "lng": 137.0609245}, "southwest": {"lat": 35.0338752, "lng": 136.7918065}}, "viewport": {"northeast": {"lat": 35.1979, "lng": 136.9607}, "southwest": {"lat": 35.1382, "lng": 136.8625}}, "location": {"lat": 35.1814464, "lng": 136.906398}}, "address_components": [{"long_name": "Nagoya", "types": ["locality", "political"], "short_name": "Nagoya"}, {"long_name": "Aichi", "types": ["administrative_area_level_1", "political"], "short_name": "Aichi"}, {"long_name": "Japan", "types": ["country", "political"], "short_name": "JP"}], "formatted_address": "Nagoya, Aichi, Japan", "types": ["locality", "political"]}]}, "phone": "+81-52-789-2841", "contact": "Tomoyuki Hanawa", "location": "Nagoya, Japan", "address": "Nagoya University, chikusa-ku, Nagoya, Japan, 464-8602", "keywords": "stars", "ingested": "Oct 19, 1998 12:00:00 AM", "email": "hanawa@a.phys.nagoya-u.ac.jp"}, {"web": "", "fax": "", "bibCode": "", "end": "1999-07-14", "title": "Computing Our Universe (Student Summer School)", "meetingNumber": "390", "modified": "Jun 28, 2001 12:00:00 AM", "start": "1999-06-21", "GoogleMapsResponse": {"status": "OK", "results": [{"geometry": {"location_type": "APPROXIMATE", "bounds": {"northeast": {"lat": 42.4043703, "lng": -72.5103136}, "southwest": {"lat": 42.3621071, "lng": -72.55003409999999}}, "viewport": {"northeast": {"lat": 42.4043703, "lng": -72.5103136}, "southwest": {"lat": 42.3621071, "lng": -72.55003409999999}}, "location": {"lat": 42.391055, "lng": -72.5266808}}, "address_components": [{"long_name": "University of Massachusetts Amherst", "types": ["establishment"], "short_name": "University of Massachusetts Amherst"}, {"long_name": "Amherst", "types": ["locality", "political"], "short_name": "Amherst"}, {"long_name": "Hampshire County", "types": ["administrative_area_level_2", "political"], "short_name": "Hampshire County"}, {"long_name": "MA", "types": ["administrative_area_level_1", "political"], "short_name": "MA"}, {"long_name": "United States", "types": ["country", "political"], "short_name": "US"}, {"long_name": "01003", "types": ["postal_code"], "short_name": "01003"}], "formatted_address": "University of Massachusetts Amherst, Amherst, MA 01003", "types": ["university", "establishment"]}]}, "phone": "", "contact": "Eric Linder", "location": "UMass-Amherst", "address": "Department of Astronomy, University of Massachusetts, Amherst, MA.  01003-4525", "keywords": "universe", "ingested": "Jan 14, 1999 12:00:00 AM", "email": "summer@kea.phast.umass.edu"},