[{"web": "http://www.nasonline.org/SACKLER_solarsystems", "fax": " 949-387-0500", "bibCode": "", "end": "2007-01-06", "title": "Evolution and Exploration of Solar Systems", "meetingNumber": "2006", "modified": "Jun 29, 2006 12:00:00 AM", "start": "2007-01-05", "phone": "949-387-2923", "contact": "Susan Marty", "location": "Arnold and Mabel Beckman Center of the National Academies", "address": "National Academy of Sciences, 5251 California Avenue, Suite 230, Irvine, CA, 92617", "keywords": "Evolution Exploration Solar Systems Planetary", "ingested": "Jun 29, 2006 12:00:00 AM", "email": "smarty@nas.edu"}, {"web": "", "fax": "", "bibCode": "", "end": "2007-01-10", "title": "209th AAS Meeting (Joint with AAPT)", "meetingNumber": "1752", "modified": "Aug 30, 2006 12:00:00 AM", "start": "2007-01-06", "GoogleMapsResponse": {"status": "OK", "results": [{"geometry": {"location_type": "APPROXIMATE", "bounds": {"northeast": {"lat": 47.734145, "lng": -122.235776}, "southwest": {"lat": 47.4955511, "lng": -122.4359085}}, "viewport": {"northeast": {"lat": 47.734145, "lng": -122.235776}, "southwest": {"lat": 47.4955511, "lng": -122.4359085}}, "location": {"lat": 47.6062095, "lng": -122.3320708}}, "address_components": [{"long_name": "Seattle", "types": ["locality", "political"], "short_name": "Seattle"}, {"long_name": "King County", "types": ["administrative_area_level_2", "political"], "short_name": "King County"}, {"long_name": "Washington", "types": ["administrative_area_level_1", "political"], "short_name": "WA"}, {"long_name": "United States", "types": ["country", "political"], "short_name": "US"}], "formatted_address": "Seattle, WA, USA", "types": ["locality", "political"]}]}, "phone": "", "contact": "AAS Executive Office", "location": "Seattle, WA", "address": "", "keywords": "AAS", "ingested": "May 11, 2005 12:00:00 AM", "email": "gilmore@aas.org"}, {"web": "", "fax": "", "bibCode": "", "end": "2007-01-17", "title": "2007 Gravitational Microlensing Workshop", "meetingNumber": "2028", "modified": "Jul 01, 2009 12:00:00 AM", "start": "2007-01-15", "GoogleMapsResponse": {"status": "OK", "results": [{"geometry": {"location": {"lat": 36.3995967, "lng": 127.3752265}, "viewport": {"northeast": {"lat": 36.4085772, "lng": 127.3912339}, "southwest": {"lat": 36.3906151, "lng": 127.3592191}}, "location_type": "APPROXIMATE"}, "address_components": [{"long_name": "61-1", "types": ["political"], "short_name": "61-1"}, {"long_name": "Hwaam-dong", "types": ["sublocality", "political"], "short_name": "Hwaam-dong"}, {"long_name": "Yuseong-gu", "types": ["sublocality", "political"], "short_name": "Yuseong-gu"}, {"long_name": "Daejeon", "types": ["locality", "political"], "short_name": "Daejeon"}, {"long_name": "South Korea", "types": ["country", "political"], "short_name": "KR"}, {"long_name": "305-348", "types": ["postal_code"], "short_name": "305-348"}], "partial_match": true, "formatted_address": "61-1 Hwaam-dong, Yuseong-gu, Daejeon, South Korea", "types": ["political"]}]}, "phone": "82-43-261-3244", "contact": "Cheongho Han", "location": "Korea Astronomy and Space Science Institute (KASI), 61-1, Hwaam-dong, Yuseong-gu", "address": "Chungbuk National Univeristy,", "keywords": "gravitational lensing - extrasolar planets", "ingested": "Jul 14, 2006 12:00:00 AM", "email": "cheongho@astroph.chungbuk.ac.kr"}, {"web": "http://www.lc.leidenuniv.nl/lc/web/2007/239/info.php3?wsid=239", "fax": "(+31) 71 527 5415", "bibCode": "", "end": "2007-01-19", "title": "Computational Cosmology", "meetingNumber": "2145", "modified": "Dec 11, 2006 12:00:00 AM", "start": "2007-01-15", "GoogleMapsResponse": {"status": "OK", "results": [{"geometry": {"location": {"lat": 52.1687986, "lng": 4.4579521}, "viewport": {"northeast": {"lat": 52.1701475802915, "lng": 4.459301080291502}, "southwest": {"lat": 52.1674496197085, "lng": 4.456603119708498}}, "location_type": "APPROXIMATE"}, "address_components": [{"long_name": "Lorentz Center", "types": ["point_of_interest", "establishment"], "short_name": "Lorentz Center"}, {"long_name": "Niels Bohrweg", "types": ["route"], "short_name": "Niels Bohrweg"}, {"long_name": "Leiden", "types": ["locality", "political"], "short_name": "Leiden"}, {"long_name": "Leiden", "types": ["administrative_area_level_2", "political"], "short_name": "Leiden"}, {"long_name": "South Holland", "types": ["administrative_area_level_1", "political"], "short_name": "ZH"}, {"long_name": "The Netherlands", "types": ["country", "political"], "short_name": "NL"}, {"long_name": "2333", "types": ["postal_code_prefix", "postal_code"], "short_name": "2333"}], "formatted_address": "Lorentz Center, Niels Bohrweg, 2333 Leiden, The Netherlands", "types": ["point_of_interest", "establishment"]}]}, "phone": "(+31) 71 527 5400", "contact": "Wies Groeneboer", "location": "Lorentz Center, Leiden, The Netherlands", "address": "Lorentz Center, Universiteit Leiden, Niels Bohrweg 2, Leiden, The Netherlands, 2333 CA", "keywords": "Cosmology, model, Millennium", "ingested": "Dec 11, 2006 12:00:00 AM", "email": "groeneboer@lorentzcenter.nl"}, {"web": "http://www.ifa.hawaii.edu/~kewley/Metals07/", "fax": " 1-808-956-9590", "bibCode": "", "end": "2007-01-26", "title": "Metallicity Calibrations for Gaseous Nebulae Workshop", "meetingNumber": "2135", "modified": "Nov 29, 2006 12:00:00 AM", "start": "2007-01-22", "GoogleMapsResponse": {"status": "OK", "results": [{"geometry": {"location": {"lat": 21.3069823, "lng": -157.811671}, "viewport": {"northeast": {"lat": 21.3083312802915, "lng": -157.8103220197085}, "southwest": {"lat": 21.30563331970849, "lng": -157.8130199802915}}, "location_type": "APPROXIMATE"}, "address_components": [{"long_name": "Institute For Astronomy", "types": ["point_of_interest", "establishment"], "short_name": "Institute For Astronomy"}, {"long_name": "University of Hawaii at Manoa", "types": ["establishment"], "short_name": "University of Hawaii at Manoa"}, {"long_name": "2680", "types": ["street_number"], "short_name": "2680"}, {"long_name": "Woodlawn Drive", "types": ["route"], "short_name": "Woodlawn Dr"}, {"long_name": "Manoa", "types": ["neighborhood", "political"], "short_name": "Manoa"}, {"long_name": "Honolulu", "types": ["locality", "political"], "short_name": "Honolulu"}, {"long_name": "Honolulu County", "types": ["administrative_area_level_2", "political"], "short_name": "Honolulu County"}, {"long_name": "Hawaii", "types": ["administrative_area_level_1", "political"], "short_name": "HI"}, {"long_name": "United States", "types": ["country", "political"], "short_name": "US"}, {"long_name": "96822", "types": ["postal_code"], "short_name": "96822"}, {"long_name": "1897", "types": [], "short_name": "1897"}], "formatted_address": "Institute For Astronomy, University of Hawaii at Manoa, 2680 Woodlawn Drive, Honolulu, HI 96822, USA", "types": ["university", "point_of_interest", "establishment"]}]}, "phone": "1-808-956-8306", "contact": "Fabio Bresolin", "location": "Institute for Astronomy, Honolulu, Hawaii", "address": "Institute for Astronomy, 2680 Woodlawn Drive, Honolulu, Hawaii, 96822", "keywords": "", "ingested": "Nov 29, 2006 12:00:00 AM", "email": "bresolin@ifa.hawaii.edu"}, {"web": "http://vsop.mtk.nao.ac.jp/RAWS2007/", "fax": "", "bibCode": "", "end": "2007-01-26", "title": "The Asian Radio Astronomy Winter School 2007", "meetingNumber": "2054", "modified": "Aug 29, 2006 12:00:00 AM", "start": "2007-01-22", "GoogleMapsResponse": {"status": "OK", "results": [{"geometry": {"location": {"lat": 35.675224, "lng": 139.537814}, "viewport": {"northeast": {"lat": 35.6765729802915, "lng": 139.5391629802915}, "southwest": {"lat": 35.6738750197085, "lng": 139.5364650197085}}, "location_type": "APPROXIMATE"}, "address_components": [{"long_name": "National Astronomical Observatory of Japan", "types": ["point_of_interest", "establishment"], "short_name": "National Astronomical Observatory of Japan"}, {"long_name": "1", "types": ["sublocality_level_5", "sublocality", "political"], "short_name": "1"}, {"long_name": "21", "types": ["sublocality_level_4", "sublocality", "political"], "short_name": "21"}, {"long_name": "2", "types": ["sublocality_level_3", "sublocality", "political"], "short_name": "2"}, {"long_name": "2 Chome", "types": ["sublocality_level_2", "sublocality", "political"], "short_name": "2 Chome"}, {"long_name": "Osawa", "types": ["sublocality_level_1", "sublocality", "political"], "short_name": "Osawa"}, {"long_name": "Mitaka", "types": ["locality", "political"], "short_name": "Mitaka"}, {"long_name": "Tokyo", "types": ["administrative_area_level_1", "political"], "short_name": "Tokyo"}, {"long_name": "Japan", "types": ["country", "political"], "short_name": "JP"}, {"long_name": "181-0015", "types": ["postal_code"], "short_name": "181-0015"}], "formatted_address": "National Astronomical Observatory of Japan, 2 Chome-2-21-1 Osawa, Mitaka, Tokyo 181-0015, Japan", "types": ["point_of_interest", "establishment"]}]}, "phone": "+81 422 34 3645", "contact": " Yoshiaki Hagiwara", "location": "National Astronomical Observatory of Japan", "address": "National Astronomical Observatory of Japan, Osawa 2-21, Mitaka, Tokyo, 181-8588", "keywords": "Radio astronomy, interferometry", "ingested": "Aug 29, 2006 12:00:00 AM", "email": "yoshiaki.hagiwara@nao.ac.jp"}, {"web": "http://www.physics.arizona.edu/gravity", "fax": "", "bibCode": "", "end": "2007-01-24", "title": "Rethinking Gravity: From the Planck Scale to the Size of the Universe", "meetingNumber": "2046", "modified": "Sep 15, 2006 12:00:00 AM", "start": "2007-01-22", "GoogleMapsResponse": {"status": "OK", "results": [{"geometry": {"location_type": "APPROXIMATE", "bounds": {"northeast": {"lat": 32.32016610000001, "lng": -110.708204}, "southwest": {"lat": 31.9916539, "lng": -111.059406}}, "viewport": {"northeast": {"lat": 32.32016490000001, "lng": -110.708204}, "southwest": {"lat": 31.9916539, "lng": -111.059406}}, "location": {"lat": 32.2217429, "lng": -110.926479}}, "address_components": [{"long_name": "Tucson", "types": ["locality", "political"], "short_name": "Tucson"}, {"long_name": "Pima County", "types": ["administrative_area_level_2", "political"], "short_name": "Pima County"}, {"long_name": "Arizona", "types": ["administrative_area_level_1", "political"], "short_name": "AZ"}, {"long_name": "United States", "types": ["country", "political"], "short_name": "US"}], "formatted_address": "Tucson, AZ, USA", "types": ["locality", "political"]}]}, "phone": "+1-520-626-8846", "contact": "Dimitrios Psaltis", "location": "Tucson, Arizona, USA", "address": "University of Arizona, 1118 E. 4th St, Tucson, AZ, 85704", "keywords": "gravity, high-energy astrophysics, cosmology, string theory", "ingested": "Aug 09, 2006 12:00:00 AM", "email": "gravity@physics.arizona.edu"}, {"web": "", "fax": "+49 89 320 2362", "bibCode": "", "end": "2007-01-25", "title": "ASTRONET symposium: A Science Vision for European Astronomy in the next 15-20 Years", "meetingNumber": "2093", "modified": "Jul 01, 2009 12:00:00 AM", "start": "2007-01-23", "GoogleMapsResponse": {"status": "OK", "results": [{"geometry": {"location_type": "APPROXIMATE", "bounds": {"northeast": {"lat": 46.627038, "lng": 0.4518499}, "southwest": {"lat": 46.54223, "lng": 0.291089}}, "viewport": {"northeast": {"lat": 46.627038, "lng": 0.4518499}, "southwest": {"lat": 46.54223, "lng": 0.291089}}, "location": {"lat": 46.58022400000001, "lng": 0.340375}}, "address_components": [{"long_name": "Poitiers", "types": ["locality", "political"], "short_name": "Poitiers"}, {"long_name": "Vienne", "types": ["administrative_area_level_2", "political"], "short_name": "86"}, {"long_name": "Poitou-Charentes", "types": ["administrative_area_level_1", "political"], "short_name": "PCh"}, {"long_name": "France", "types": ["country", "political"], "short_name": "FR"}], "formatted_address": "Poitiers, France", "types": ["locality", "political"]}]}, "phone": "+49 89 320 6447", "contact": "Svea Teupke", "location": "Poitiers, France", "address": "European Southern Observatory, Karl-Schwarzschild-Str 2, Munchen, Germany, 85748", "keywords": "European Astronomy, ASTRONET", "ingested": "Oct 18, 2006 12:00:00 AM", "email": "scichall07@eso.org"}, {"web": "http://www.eso.org/cal07/", "fax": "+56 2 463 3001", "bibCode": " 2008eic..work.....K", "end": "2007-01-26", "title": "The 2007 ESO Instrument Calibration Workshop", "meetingNumber": "1999", "modified": "Jul 01, 2009 12:00:00 AM", "start": "2007-01-23", "GoogleMapsResponse": {"status": "OK", "results": [{"geometry": {"location_type": "APPROXIMATE", "bounds": {"northeast": {"lat": 48.2732261, "lng": 11.6851891}, "southwest": {"lat": 48.2167624, "lng": 11.5971975}}, "viewport": {"northeast": {"lat": 48.2732261, "lng": 11.6851891}, "southwest": {"lat": 48.2167624, "lng": 11.5971975}}, "location": {"lat": 48.2488721, "lng": 11.6532477}}, "address_components": [{"long_name": "Garching", "types": ["locality", "political"], "short_name": "Garching"}, {"long_name": "Munich", "types": ["administrative_area_level_3", "political"], "short_name": "M"}, {"long_name": "Upper Bavaria", "types": ["administrative_area_level_2", "political"], "short_name": "Upper Bavaria"}, {"long_name": "Bavaria", "types": ["administrative_area_level_1", "political"], "short_name": "BY"}, {"long_name": "Germany", "types": ["country", "political"], "short_name": "DE"}], "partial_match": true, "formatted_address": "Garching, Germany", "types": ["locality", "political"]}]}, "phone": "+56 2 463 3078", "contact": " Andreas Kaufer", "location": "ESO Headquarters, Garching (Munich), Germany", "address": "European Southern Observatory, Alonso de Cordova 3107, Santiago, Chile,", "keywords": " ESO Very Large Telescope, Instrumentation, Calibration", "ingested": "May 30, 2006 12:00:00 AM", "email": "cal07@eso.org"}, {"web": "http://glast.gsfc.nasa.gov/science/symposium/2007/", "fax": "301-286-0250", "bibCode": "", "end": "2007-02-08", "title": "The First GLAST Symposium", "meetingNumber": "2068", "modified": "Sep 15, 2006 12:00:00 AM", "start": "2007-02-05", "GoogleMapsResponse": {"status": "OK", "results": [{"geometry": {"location_type": "APPROXIMATE", "bounds": {"northeast": {"lat": 37.4435369, "lng": -122.149475}, "southwest": {"lat": 37.4063388, "lng": -122.191292}}, "viewport": {"northeast": {"lat": 37.4435369, "lng": -122.149475}, "southwest": {"lat": 37.4063388, "lng": -122.191292}}, "location": {"lat": 37.42410599999999, "lng": -122.1660756}}, "address_components": [{"long_name": "Stanford", "types": ["locality", "political"], "short_name": "Stanford"}, {"long_name": "Santa Clara County", "types": ["administrative_area_level_2", "political"], "short_name": "Santa Clara County"}, {"long_name": "California", "types": ["administrative_area_level_1", "political"], "short_name": "CA"}, {"long_name": "United States", "types": ["country", "political"], "short_name": "US"}], "formatted_address": "Stanford, CA, USA", "types": ["locality", "political"]}]}, "phone": "301-286-0941", "contact": "Steve Ritz", "location": "Stanford, CA, USA", "address": "NASA GSFC, M/C 661, Greenbelt, MD, 20771", "keywords": "gamma ray, space craft, AGN, blazars, pulsars, EBL, GRB, dark matter, black holes, cosmic rays", "ingested": "Sep 15, 2006 12:00:00 AM", "email": "ritz@milkyway.gsfc.nasa.gov"}, {"web": "http://www.chem.hawaii.edu/Bil301/Titan2007.html", "fax": "808-9565908", "bibCode": "", "end": "2007-02-07", "title": "Titan \u0096 Observations, Experiments, Computations, and Modeling\r\n", "meetingNumber": "2138", "modified": "Dec 01, 2006 12:00:00 AM", "start": "2007-02-05", "GoogleMapsResponse": {"status": "OK", "results": [{"geometry": {"location_type": "APPROXIMATE", "bounds": {"northeast": {"lat": 21.4012299, "lng": -157.6485225}, "southwest": {"lat": 21.2549062, "lng": -157.9494185}}, "viewport": {"northeast": {"lat": 21.4012299, "lng": -157.6485225}, "southwest": {"lat": 21.2549062, "lng": -157.9494185}}, "location": {"lat": 21.3069444, "lng": -157.8583333}}, "address_components": [{"long_name": "Honolulu", "types": ["locality", "political"], "short_name": "Honolulu"}, {"long_name": "Honolulu County", "types": ["administrative_area_level_2", "political"], "short_name": "Honolulu County"}, {"long_name": "Hawaii", "types": ["administrative_area_level_1", "political"], "short_name": "HI"}, {"long_name": "United States", "types": ["country", "political"], "short_name": "US"}], "formatted_address": "Honolulu, HI, USA", "types": ["locality", "political"]}]}, "phone": "808-9565731", "contact": "Ralf I. Kaiser", "location": "Honolulu, Hawaii", "address": "University of Hawaii, Department of Chemistry, 2545 The Mall, Honolulu, HI, 96822", "keywords": "Titan, Reaction Dynamics, Kinetics, Observations, Cassini-Huygens, Physical Organic Chemistry, Electronic Structure Theory", "ingested": "Dec 01, 2006 12:00:00 AM", "email": "kaiser@gold.chem.hawaii.edu"}, {"web": "", "fax": "(+31) (0)521 595 101", "bibCode": "", "end": "2007-02-08", "title": "Astroparticle Physics Symposium", "meetingNumber": "2146", "modified": "Jul 01, 2009 12:00:00 AM", "start": "2007-02-08", "GoogleMapsResponse": {"status": "OK", "results": [{"geometry": {"location_type": "APPROXIMATE", "bounds": {"northeast": {"lat": 52.8894678, "lng": 6.4802656}, "southwest": {"lat": 52.7781072, "lng": 6.306169199999999}}, "viewport": {"northeast": {"lat": 52.8894678, "lng": 6.4802656}, "southwest": {"lat": 52.7781072, "lng": 6.306169199999999}}, "location": {"lat": 52.8353557, "lng": 6.3658171}}, "address_components": [{"long_name": "Dwingeloo", "types": ["locality", "political"], "short_name": "Dwingeloo"}, {"long_name": "Westerveld", "types": ["administrative_area_level_2", "political"], "short_name": "Westerveld"}, {"long_name": "Drenthe", "types": ["administrative_area_level_1", "political"], "short_name": "DR"}, {"long_name": "The Netherlands", "types": ["country", "political"], "short_name": "NL"}, {"long_name": "7991", "types": ["postal_code_prefix", "postal_code"], "short_name": "7991"}], "formatted_address": "7991 Dwingeloo, The Netherlands", "types": ["locality", "political"]}]}, "phone": "(+31) (0)521 595 100", "contact": "Marja Carnal- v.d. Spek", "location": "Dwingeloo, The Netherlands", "address": "LOFAR, Oude Hoogeveensedijk 4, Dwingeloo, Drenthe, 7991 PD", "keywords": "Astroparticle Physics Symposium, Radio Techniques, Westerbork Synthesis Radio Telescope", "ingested": "Dec 13, 2006 12:00:00 AM", "email": "Secretary@lofar.nl"}, {"web": "http://universe.gsfc.nasa.gov/conferences/supernova1987a/", "fax": " (303) 492-5235", "bibCode": "", "end": "2007-02-23", "title": "Supernova 1987A: 20 Years After. Supernovae and Gamma-Ray Bursters", "meetingNumber": "2007", "modified": "Jun 30, 2006 12:00:00 AM", "start": "2007-02-19", "GoogleMapsResponse": {"status": "OK", "results": [{"geometry": {"location_type": "APPROXIMATE", "bounds": {"northeast": {"lat": 39.21978500000001, "lng": -106.8013911}, "southwest": {"lat": 39.1771779, "lng": -106.8720581}}, "viewport": {"northeast": {"lat": 39.21978500000001, "lng": -106.8013911}, "southwest": {"lat": 39.1771779, "lng": -106.8720581}}, "location": {"lat": 39.1910983, "lng": -106.8175387}}, "address_components": [{"long_name": "Aspen", "types": ["locality", "political"], "short_name": "Aspen"}, {"long_name": "Pitkin County", "types": ["administrative_area_level_2", "political"], "short_name": "Pitkin County"}, {"long_name": "Colorado", "types": ["administrative_area_level_1", "political"], "short_name": "CO"}, {"long_name": "United States", "types": ["country", "political"], "short_name": "US"}], "formatted_address": "Aspen, CO, USA", "types": ["locality", "political"]}]}, "phone": "(303) 492-7835", "contact": "Richard McCray", "location": "Aspen, Colorado, USA", "address": "University of Colorado, JILA , Boulder, CO, 80309", "keywords": "supernova, SN, 1987A, gamma-ray burst, GRB", "ingested": "Jun 29, 2006 12:00:00 AM", "email": "supernova1987a@milkyway.gsfc.nasa.gov"}, {"web": "http://fizika.pmfst.hr/siwa", "fax": "+385 91 5910 643", "bibCode": "", "end": "2007-03-03", "title": "Split International Winter schools of Astrophysics (SIWA) 2007: Extrasolar Planets & Astrobiology", "meetingNumber": "2050", "modified": "Aug 21, 2006 12:00:00 AM", "start": "2007-02-19", "phone": "+385 91 5910 643", "contact": " Bojan Pecnik", "location": "Department of Physics, Faculty of Natural Sciences and Kinesiology, N. Tesle 12,", "address": "Faculty of Natural Sciences, N. Tesle 12, Split, Croatia, 21000", "keywords": "Winter school, Exoplanets, Astrobiology", "ingested": "Aug 21, 2006 12:00:00 AM", "email": "bonnie@pmfst.hr"}, {"web": "http://www.congrex.nl/07c10/", "fax": "(+31) 71 565 5658", "bibCode": "", "end": "2007-02-21", "title": "Herschel Open Time Key Program Workshop", "meetingNumber": "2126", "modified": "Nov 27, 2006 12:00:00 AM", "start": "2007-02-20", "GoogleMapsResponse": {"status": "OK", "results": [{"geometry": {"location_type": "APPROXIMATE", "bounds": {"northeast": {"lat": 52.3282742, "lng": 4.5431251}, "southwest": {"lat": 52.2072337, "lng": 4.4050799}}, "viewport": {"northeast": {"lat": 52.3282742, "lng": 4.5431251}, "southwest": {"lat": 52.2072337, "lng": 4.4050799}}, "location": {"lat": 52.2399885, "lng": 4.4500094}}, "address_components": [{"long_name": "Noordwijk", "types": ["locality", "political"], "short_name": "Noordwijk"}, {"long_name": "Noordwijk", "types": ["administrative_area_level_2", "political"], "short_name": "Noordwijk"}, {"long_name": "South Holland", "types": ["administrative_area_level_1", "political"], "short_name": "ZH"}, {"long_name": "The Netherlands", "types": ["country", "political"], "short_name": "NL"}], "formatted_address": "Noordwijk, The Netherlands", "types": ["locality", "political"]}]}, "phone": "(+31) 71 565 5005", "contact": "ESA Conference Bureau", "location": "Noordwijk, The Netherlands", "address": "European Space Agency, PO Box 299, Noordwijk, The Netherlands, 2200 AG", "keywords": "Herschel Space Observatory, far infrared, submillimetre", "ingested": "Nov 27, 2006 12:00:00 AM", "email": "ESA.Conference.Bureau@esa.int"}, {"web": "http://sn1987a-20th.physics.uci.edu/", "fax": "", "bibCode": "", "end": "2007-02-25", "title": "Twenty Years after SN1987A: What did we learn, what will the next SN tell us?", "meetingNumber": "2055", "modified": "Aug 29, 2006 12:00:00 AM", "start": "2007-02-23", "GoogleMapsResponse": {"status": "OK", "results": [{"geometry": {"location_type": "APPROXIMATE", "bounds": {"northeast": {"lat": 19.9732959, "lng": -155.7760994}, "southwest": {"lat": 19.894464, "lng": -155.8899689}}, "viewport": {"northeast": {"lat": 19.9732959, "lng": -155.7760994}, "southwest": {"lat": 19.894464, "lng": -155.8899689}}, "location": {"lat": 19.9372484, "lng": -155.7910681}}, "address_components": [{"long_name": "Waikoloa Village", "types": ["locality", "political"], "short_name": "Waikoloa Village"}, {"long_name": "Hawaii County", "types": ["administrative_area_level_2", "political"], "short_name": "Hawaii County"}, {"long_name": "Hawaii", "types": ["administrative_area_level_1", "political"], "short_name": "HI"}, {"long_name": "United States", "types": ["country", "political"], "short_name": "US"}], "partial_match": true, "formatted_address": "Waikoloa Village, HI, USA", "types": ["locality", "political"]}]}, "phone": "", "contact": "Masayuki Nakahata", "location": "Hilton Waikoloa, Hawaii", "address": "Kamioka Observatory, Institute for Cosmic Ray Research(ICRR), University of Tokyo  506-1205", "keywords": "SN1987A, supernovae, neutrinos", "ingested": "Aug 29, 2006 12:00:00 AM", "email": " sn1987a@suketto.icrr.u-tokyo.ac.jp"}, {"web": "", "fax": "", "bibCode": "", "end": "2007-03-10", "title": "37th Saas-Fee Advanced Course: The Origin of the Galaxy and Local Group", "meetingNumber": "2034", "modified": "Jul 01, 2009 12:00:00 AM", "start": "2007-03-04", "phone": " +41 44 635 5815", "contact": "Prof. Ben Moore", "location": "Murren, Switzerland", "address": "Institute for Theoretical Physics, University of Zurich, Switzerland", "keywords": "", "ingested": "Jul 20, 2006 12:00:00 AM", "email": "saasfee2007@gmail.com"}, {"web": "", "fax": "56-2-4633101", "bibCode": "", "end": "2007-03-08", "title": "ESO Workshop on Observing Planetary Systems", "meetingNumber": "2059", "modified": "Jul 01, 2009 12:00:00 AM", "start": "2007-03-05", "phone": "56-2-4633000", "contact": "Michael Sterzik; Christophe Dumas", "location": "ESO Headquarters, Santiago, Chile", "address": "European Southern Observatory, Casilla 19001, Santiago 19, Santiago", "keywords": " Planetary systems; Star and planet formation; Extrasolar planets; Early solar system", "ingested": "Sep 01, 2006 12:00:00 AM", "email": "ops_ws07@eso.org"}, {"web": "http://www.aero.org/conferences/planetarydefense/index.html", "fax": "  310-563-3004", "bibCode": "", "end": "2007-03-08", "title": "2007 Planetary Defense Conference", "meetingNumber": "1955", "modified": "Mar 10, 2006 12:00:00 AM", "start": "2007-03-05", "phone": "(310) 336-1135", "contact": "William Ailor", "location": "George Washington University, Washington, D.C. USA", "address": "The Aerospace Corporation, P.O. Box 92957, Los Angeles, CA, 90009", "keywords": "asteroid, comet, deflection, impact, policy, mitigation", "ingested": "Mar 08, 2006 12:00:00 AM", "email": "william.h.ailor@aero.org"}, {"web": "http://www.lc.leidenuniv.nl/lc/web/2007/256/info.php3?wsid=256", "fax": "(+31) 71 527 5415", "bibCode": "", "end": "2007-03-08", "title": "Extragalactic surveys with LOFAR", "meetingNumber": "2214", "modified": "Mar 01, 2007 12:00:00 AM", "start": "2007-03-06", "phone": "(+31) 71 527 5400", "contact": " W Groeneboer", "location": " Leiden, The Netherlands", "address": "Lorentz Center, PO Box 9506, Leiden, The Netherlands, 2300 RA", "keywords": "LOFAR, radio interferometry", "ingested": "Mar 01, 2007 12:00:00 AM", "email": " groeneboer@lorentzcenter.nl"}, {"web": "http://moriond.in2p3.fr/J07", "fax": "33 1 44 27 46 38", "bibCode": "", "end": "2007-03-18", "title": "Rencontres de Moriond: Gravitational Waves and Experimental Gravity", "meetingNumber": "2136", "modified": "Nov 30, 2006 12:00:00 AM", "start": "2007-03-11", "phone": "33 1 44 27 48 42", "contact": "Jacques Dumarchez", "location": "La Thuile / Val d'Aosta / Italy", "address": "Univ. of Paris, LPNHE Tour 33 4 Place Jussieu, Paris, 75252", "keywords": "gravitation, gravitational waves, ultra-stable clocks, equivalence principle, multi-gravity theories", "ingested": "Nov 30, 2006 12:00:00 AM", "email": "jacques.dumarchez@cern.ch"}, {"web": "http://www.apc.univ-paris7.fr/The_Violent_Universe/", "fax": "33 1 69 08 65 77", "bibCode": "", "end": "2007-03-23", "title": "The Violent Universe", "meetingNumber": "2091", "modified": "Oct 16, 2006 12:00:00 AM", "start": "2007-03-12", "GoogleMapsResponse": {"status": "OK", "results": [{"geometry": {"location_type": "APPROXIMATE", "bounds": {"northeast": {"lat": 45.94121, "lng": 6.855463899999999}, "southwest": {"lat": 45.842589, "lng": 6.7426659}}, "viewport": {"northeast": {"lat": 45.94121, "lng": 6.855463899999999}, "southwest": {"lat": 45.842589, "lng": 6.7426659}}, "location": {"lat": 45.89038799999999, "lng": 6.798735}}, "address_components": [{"long_name": "Les Houches", "types": ["locality", "political"], "short_name": "Les Houches"}, {"long_name": "Haute-Savoie", "types": ["administrative_area_level_2", "political"], "short_name": "74"}, {"long_name": "Rhone-Alpes", "types": ["administrative_area_level_1", "political"], "short_name": "RA"}, {"long_name": "France", "types": ["country", "political"], "short_name": "FR"}], "formatted_address": "Les Houches, France", "types": ["locality", "political"]}, {"geometry": {"location": {"lat": 45.95108099999999, "lng": 6.617672}, "viewport": {"northeast": {"lat": 45.9524299802915, "lng": 6.619020980291502}, "southwest": {"lat": 45.9497320197085, "lng": 6.616323019708497}}, "location_type": "APPROXIMATE"}, "address_components": [{"long_name": "Les Houches", "types": ["sublocality", "political"], "short_name": "Les Houches"}, {"long_name": "Sallanches", "types": ["locality", "political"], "short_name": "Sallanches"}, {"long_name": "Haute-Savoie", "types": ["administrative_area_level_2", "political"], "short_name": "74"}, {"long_name": "Rhone-Alpes", "types": ["administrative_area_level_1", "political"], "short_name": "RA"}, {"long_name": "France", "types": ["country", "political"], "short_name": "FR"}, {"long_name": "74700", "types": ["postal_code"], "short_name": "74700"}], "formatted_address": "Les Houches, 74700 Sallanches, France", "types": ["sublocality", "political"]}]}, "phone": "33 1 69 08 35 69", "contact": "Fran\u00e7ois Lebrun", "location": "Les Houches (France)", "address": "Fran\u00e7ois Lebrun, CEA-Saclay, APC  , Gif sur Yvette, France, 91191", "keywords": "Gamma-rays, neutrinos, Gravitational waves, cosmic-rays, particle acceleration, SNRs, GRBs, SGRs", "ingested": "Oct 16, 2006 12:00:00 AM", "email": "flebrun@cea.fr"}, {"web": "http://www.atnf.csiro.au/research/masermeeting", "fax": "+61 2 9372 4105", "bibCode": "", "end": "2007-03-16", "title": "IAU Symposium 242: Astrophysical Masers and their Environments", "meetingNumber": "2079", "modified": "Oct 02, 2006 12:00:00 AM", "start": "2007-03-12", "GoogleMapsResponse": {"status": "OK", "results": [{"geometry": {"location_type": "APPROXIMATE", "bounds": {"northeast": {"lat": -23.6915859, "lng": 133.8870795}, "southwest": {"lat": -23.7074547, "lng": 133.8743422}}, "viewport": {"northeast": {"lat": -23.6915859, "lng": 133.8870795}, "southwest": {"lat": -23.7074547, "lng": 133.8743422}}, "location": {"lat": -23.7002104, "lng": 133.8806114}}, "address_components": [{"long_name": "Alice Springs", "types": ["locality", "political"], "short_name": "Alice Springs"}, {"long_name": "Northern Territory", "types": ["administrative_area_level_1", "political"], "short_name": "NT"}, {"long_name": "Australia", "types": ["country", "political"], "short_name": "AU"}, {"long_name": "0870", "types": ["postal_code"], "short_name": "0870"}], "formatted_address": "Alice Springs NT 0870, Australia", "types": ["locality", "political"]}, {"geometry": {"location_type": "APPROXIMATE", "bounds": {"northeast": {"lat": -23.6303924, "lng": 133.9407162}, "southwest": {"lat": -23.8315255, "lng": 133.726046}}, "viewport": {"northeast": {"lat": -23.6303924, "lng": 133.9407162}, "southwest": {"lat": -23.8315255, "lng": 133.726046}}, "location": {"lat": -23.7002056, "lng": 133.8805618}}, "address_components": [{"long_name": "Alice Springs", "types": ["colloquial_area", "locality", "political"], "short_name": "Alice Springs"}, {"long_name": "Northern Territory", "types": ["administrative_area_level_1", "political"], "short_name": "NT"}, {"long_name": "Australia", "types": ["country", "political"], "short_name": "AU"}, {"long_name": "0870", "types": ["postal_code"], "short_name": "0870"}], "formatted_address": "Alice Springs NT 0870, Australia", "types": ["colloquial_area", "locality", "political"]}]}, "phone": "+61 2 9372 4196", "contact": "Dr Jessica Chapman", "location": "Alice Springs, Australia", "address": "CSIRO Australia Telescope Ntaional Facility, PO BOx 76, Epping, NSW, Australia, 1710", "keywords": "Masers, IAU, radio astronomy", "ingested": "Oct 02, 2006 12:00:00 AM", "email": "Jessica.Chapman@csiro.au"}, {"web": "http://www.beyondmoon.de/", "fax": "+49 (0)421 2208 267", "bibCode": "", "end": "2007-03-16", "title": "DGLR Intl. Symposium : To Moon and Beyond", "meetingNumber": "2094", "modified": "Oct 18, 2006 12:00:00 AM", "start": "2007-03-14", "GoogleMapsResponse": {"status": "OK", "results": [{"geometry": {"location_type": "APPROXIMATE", "bounds": {"northeast": {"lat": 53.2289105, "lng": 8.9908131}, "southwest": {"lat": 53.01169849999999, "lng": 8.4817585}}, "viewport": {"northeast": {"lat": 53.2289105, "lng": 8.9908131}, "southwest": {"lat": 53.01169849999999, "lng": 8.4817585}}, "location": {"lat": 53.07929619999999, "lng": 8.8016937}}, "address_components": [{"long_name": "Bremen", "types": ["locality", "political"], "short_name": "Bremen"}, {"long_name": "Bremen", "types": ["administrative_area_level_3", "political"], "short_name": "Bremen"}, {"long_name": "Bremen", "types": ["administrative_area_level_1", "political"], "short_name": "HB"}, {"long_name": "Germany", "types": ["country", "political"], "short_name": "DE"}], "formatted_address": "Bremen, Germany", "types": ["locality", "political"]}]}, "phone": "+49 (0)421 2208 266", "contact": "Conference Secretariat", "location": "Bremen, Germany", "address": "mathWissen.de AG, Fahrenheitstrasse 1, Bremen, 28359", "keywords": "lunar base, radio astronomy, life science, exobiology", "ingested": "Oct 18, 2006 12:00:00 AM", "email": "info@beyondmoon.de"}, {"web": "", "fax": "951-827-6229", "bibCode": "", "end": "2007-03-22", "title": "6th IGPP Annual International Astrophysics Conference on Turbulence and Nonlinear Processes in Astrophysical Plasmas", "meetingNumber": "2204", "modified": "Jul 01, 2009 12:00:00 AM", "start": "2007-03-16", "GoogleMapsResponse": {"status": "OK", "results": [{"geometry": {"location_type": "APPROXIMATE", "bounds": {"northeast": {"lat": 21.4012299, "lng": -157.6485225}, "southwest": {"lat": 21.2549062, "lng": -157.9494185}}, "viewport": {"northeast": {"lat": 21.4012299, "lng": -157.6485225}, "southwest": {"lat": 21.2549062, "lng": -157.9494185}}, "location": {"lat": 21.3069444, "lng": -157.8583333}}, "address_components": [{"long_name": "Honolulu", "types": ["locality", "political"], "short_name": "Honolulu"}, {"long_name": "Honolulu County", "types": ["administrative_area_level_2", "political"], "short_name": "Honolulu County"}, {"long_name": "Hawaii", "types": ["administrative_area_level_1", "political"], "short_name": "HI"}, {"long_name": "United States", "types": ["country", "political"], "short_name": "US"}], "formatted_address": "Honolulu, HI, USA", "types": ["locality", "political"]}]}, "phone": "951-827-7037", "contact": "Dastgeer Shaikh", "location": "Honolulu, Hawaii", "address": "Institute of Geophysics and Planetary Physics,, University of California, Riverside CA, 900 University Avenue, Riverside, CA 92521", "keywords": "Turbulence, Nonlinear processes in Astrophysics, InterstellarMedium Turbulence, Solar Wind turbulence, Heliosphere, Magnetosphere turbulence, Ionosphere turbulence, Complexity, Shock", "ingested": "Feb 16, 2007 12:00:00 AM", "email": "dastgeer@ucr.edu"}, {"web": "http://www.kitp.ucsb.edu/activities/auto2/?id=912", "fax": "805-893-2431", "bibCode": "", "end": "2007-03-17", "title": "Forging the Elements and Probing the Universe with Stars", "meetingNumber": "2101", "modified": "Nov 13, 2006 12:00:00 AM", "start": "2007-03-17", "phone": "805-893-6306", "contact": "Jocelyn Quick", "location": "Kavli Institute for Theoretical Physics at the University of California, Santa B", "address": "Kavli Institute for Theoretical Physics, University of California, Santa Barbara, CA, 93106-4030", "keywords": "Secondary School Physics Teachers Conference", "ingested": "Nov 13, 2006 12:00:00 AM", "email": "jocelyn@kitp.ucsb.edu"}, {"web": "http://physics.nist.gov/apip", "fax": "", "bibCode": "", "end": "2007-03-22", "title": "15th International Conference on Atomic Processes in Plasmas", "meetingNumber": "2177", "modified": "Jan 16, 2007 12:00:00 AM", "start": "2007-03-19", "GoogleMapsResponse": {"status": "OK", "results": [{"geometry": {"location_type": "GEOMETRIC_CENTER", "bounds": {"northeast": {"lat": 38.9990215, "lng": -77.0017465}, "southwest": {"lat": 38.9552037, "lng": -77.03917539999999}}, "viewport": {"northeast": {"lat": 38.9990215, "lng": -77.0017465}, "southwest": {"lat": 38.9552037, "lng": -77.03917539999999}}, "location": {"lat": 38.9771126, "lng": -77.0204609}}, "address_components": [{"long_name": "Metro", "types": ["route"], "short_name": "Metro"}, {"long_name": "United States", "types": ["country", "political"], "short_name": "US"}], "partial_match": true, "formatted_address": "Metro, USA", "types": ["route"]}]}, "phone": "", "contact": "John Gillaspy", "location": "Washington DC Metro Area (Gaithersburg, MD)", "address": "NIST, Mailstop 8422, 100 Bureau Dr, Gaithersburg, MD, 20899-8422", "keywords": "laboratory astrophysics, plasmas, x-rays", "ingested": "Jan 16, 2007 12:00:00 AM", "email": "apip@nist.gov"}, {"web": "http://www.astro.uva.nl/grb2007", "fax": "+31-20-5257484", "bibCode": "", "end": "2007-03-23", "title": "070228 - The Next Decade of Gamma-Ray Burst Afterglows", "meetingNumber": "2037", "modified": "Jan 11, 2007 12:00:00 AM", "start": "2007-03-19", "GoogleMapsResponse": {"status": "OK", "results": [{"geometry": {"location_type": "APPROXIMATE", "bounds": {"northeast": {"lat": 52.4311573, "lng": 5.0683775}, "southwest": {"lat": 52.3182742, "lng": 4.7288558}}, "viewport": {"northeast": {"lat": 52.4311573, "lng": 5.0683775}, "southwest": {"lat": 52.3182742, "lng": 4.7288558}}, "location": {"lat": 52.3702157, "lng": 4.895167900000001}}, "address_components": [{"long_name": "Amsterdam", "types": ["locality", "political"], "short_name": "Amsterdam"}, {"long_name": "Government of Amsterdam", "types": ["administrative_area_level_2", "political"], "short_name": "Government of Amsterdam"}, {"long_name": "North Holland", "types": ["administrative_area_level_1", "political"], "short_name": "NH"}, {"long_name": "The Netherlands", "types": ["country", "political"], "short_name": "NL"}], "formatted_address": "Amsterdam, The Netherlands", "types": ["locality", "political"]}]}, "phone": "+31-20-5257491", "contact": "Ralph Wijers", "location": "Amsterdam, The Netherlands", "address": "Atronomical Institute, University of Amsterdam, Kruislaan 403, Amsterdam, 1703RK", "keywords": " gamma-ray bursts, cosmology, shocks, black holes", "ingested": "Jul 24, 2006 12:00:00 AM", "email": "secr-astro@science.uva.nl"}, {"web": "http://www.kitp.ucsb.edu/activities/auto2/?id=910", "fax": " 805-893-2431", "bibCode": "", "end": "2007-03-23", "title": "Paths to Exploding Stars: Accretion and Eruption", "meetingNumber": "2102", "modified": "Nov 13, 2006 12:00:00 AM", "start": "2007-03-19", "phone": "805-893-6306", "contact": "Jocelyn Quick", "location": "Kavli Institute for Theoretical Physics", "address": "Kavli Institute for Theoretical Physics, University of California, Santa Barbara, CA, 93106-4030", "keywords": "Astrophysics, Theoretical Physics, Stars, Accretion, Eruption", "ingested": "Nov 13, 2006 12:00:00 AM", "email": " jocelyn@kitp.ucsb.edu"}, {"web": "http://esavo.esac.esa.int/SpectroscopyAndVOWorkshopMarch2007", "fax": "+34.91.8131172", "bibCode": " 2008asvo.proc..223G", "end": "2007-03-23", "title": "Astronomical Spectroscopy and the Virtual Observatory", "meetingNumber": "2151", "modified": "Jul 01, 2009 12:00:00 AM", "start": "2007-03-21", "phone": "+34.91.8131176", "contact": " Matteo Guainazzi", "location": "European Space Astronomy Center (ESAC) of ESA", "address": "European Space Astronomy Center of ESA, Apartado 50727, Madrid, Madrid, E-28080", "keywords": "Astronomical spectroscopy", "ingested": "Dec 19, 2006 12:00:00 AM", "email": " Matteo.Guainazzi@sciops.esa.int"}, {"web": "http://www.physics.uci.edu/Astrophysical-Probes/", "fax": "", "bibCode": "", "end": "2007-03-24", "title": "Astrophysical Probes of the Nature of Dark Matter", "meetingNumber": "2128", "modified": "Nov 27, 2006 12:00:00 AM", "start": "2007-03-22", "GoogleMapsResponse": {"status": "OK", "results": [{"geometry": {"location_type": "APPROXIMATE", "bounds": {"northeast": {"lat": 33.6549079, "lng": -117.8218541}, "southwest": {"lat": 33.6313021, "lng": -117.8599233}}, "viewport": {"northeast": {"lat": 33.6549079, "lng": -117.8218541}, "southwest": {"lat": 33.6313021, "lng": -117.8599233}}, "location": {"lat": 33.6404952, "lng": -117.8442962}}, "address_components": [{"long_name": "University of California Irvine", "types": ["establishment"], "short_name": "UCI"}, {"long_name": "Irvine", "types": ["locality", "political"], "short_name": "Irvine"}, {"long_name": "Orange County", "types": ["administrative_area_level_2", "political"], "short_name": "Orange County"}, {"long_name": "CA", "types": ["administrative_area_level_1", "political"], "short_name": "CA"}, {"long_name": "United States", "types": ["country", "political"], "short_name": "US"}, {"long_name": "92697", "types": ["postal_code"], "short_name": "92697"}], "formatted_address": "University of California Irvine, Irvine, CA 92697", "types": ["university", "establishment"]}]}, "phone": "", "contact": "Manoj Kaplinghat", "location": "University of California Irvine", "address": "University of California Irvine, 4129 Frederick Reines Hall, UC Irvine, Irvine, CA, 92697", "keywords": "Dark Matter", "ingested": "Nov 27, 2006 12:00:00 AM", "email": "mkapling@uci.edu"}, {"web": "http://www.esf.org/conferences/07224", "fax": "+33 (0)388 36 69 87", "bibCode": "", "end": "2007-03-29", "title": "The Origin of Galaxies: Exploring Galaxy Evolution with the New Generation of Infrared-Millimetre Facilities", "meetingNumber": "2097", "modified": "Oct 24, 2006 12:00:00 AM", "start": "2007-03-24", "phone": "+33 (0)388 76 71 35", "contact": "Rachid Adghoughi", "location": "Universit\u00e4tszentrum Obergurgl, Obergurgl, Austria", "address": "European Science Foundation, Research Conferences Unit, 1 quai Lezay-Marnesia, BP 90015, Strasbourg, 67080", "keywords": "Astrophysics; origin of galaxies; galaxy formation; optical telescopes", "ingested": "Oct 24, 2006 12:00:00 AM", "email": "radghoughi@esf.org"}, {"web": "http://astronomy.swin.edu.au/nz2007", "fax": "+613 92148797", "bibCode": "", "end": "2007-03-30", "title": "A New Zeal for Old Galaxies", "meetingNumber": "1979", "modified": "Apr 10, 2006 12:00:00 AM", "start": "2007-03-25", "phone": "+613 92144392", "contact": "Prof. Duncan Forbes", "location": "Rotorua, New Zealand", "address": "Swinburne University, John Street, H39, Hawthorn, VIC, 3127", "keywords": "extragalactic, cosmology, stellar populations, galaxies, globular cluters", "ingested": "Apr 10, 2006 12:00:00 AM", "email": "nz2007@astro.swin.edu.au"}, {"web": "http://plato.tp.ph.ic.ac.uk/conferences/cosmology/", "fax": "", "bibCode": "", "end": "2007-03-29", "title": "Outstanding Questions for the Standard Cosmological Model", "meetingNumber": "2081", "modified": "Oct 03, 2006 12:00:00 AM", "start": "2007-03-26", "phone": "", "contact": "Carlo Contaldi", "location": " Imperial College, London, UK", "address": "Imperial College, London, UK", "keywords": "cosmology, standard cosmological model, Big Bang, Hubble Constant", "ingested": "Oct 03, 2006 12:00:00 AM", "email": "contaldi@ic.ac.uk"}, {"web": "http://www.lws1.org", "fax": "650 424 3907", "bibCode": "", "end": "2007-03-29", "title": "Living With a Star 1: A New Era in Understanding our Space Environment", "meetingNumber": "1750", "modified": "May 10, 2005 12:00:00 AM", "start": "2007-03-26", "phone": "650 424 2907", "contact": "Karel Schrijver", "location": "Boulder, Colorado, USA", "address": "Lockheed Martin, ADBS/252, 3251 Hanover St., Palo Alto, CA, 94304", "keywords": "Sun; solar activity; sun-earth connections; heliosphere", "ingested": "May 10, 2005 12:00:00 AM", "email": "schryver@lmsal.com"}, {"web": "http://www.aip.de/arena_robot/", "fax": " +49 331 7499 200", "bibCode": "", "end": "2007-03-28", "title": "Telescope and Instrumentation Robotization at Dome C", "meetingNumber": "2044", "modified": "Aug 08, 2006 12:00:00 AM", "start": "2007-03-26", "phone": "+49 331 7499 295", "contact": " Klaus G. Strassmeier", "location": "Tenerife South Cost,  Puerto Santiago, Hotel Playa La Arena", "address": "AIP, An der Sternwarte 16, Potsdam, Germany, D-14482", "keywords": "Robotics, Antarctica, optical and infrared instrumentation, logistics", "ingested": "Aug 08, 2006 12:00:00 AM", "email": "kstrassmeier@aip.de"}, {"web": "http://www.angles.eu.org/meetings/valencia/school.shtml", "fax": "+34-963-543-084", "bibCode": "", "end": "2007-03-30", "title": "ANGLES School on Gravitational Lens Modelling", "meetingNumber": "2188", "modified": "Jan 24, 2007 12:00:00 AM", "start": "2007-03-27", "phone": "+34-963-543-004", "contact": "Ana Maria Mosquera", "location": "University of Valencia, Valencia, Spain", "address": "University of Valencia, C\\C/ Dr. Moliner, 50, Burjassot, Valencia, 46100", "keywords": "Gravitational lensing", "ingested": "Jan 24, 2007 12:00:00 AM", "email": "ana.maria.mosquera@uv.es"}, {"web": "", "fax": "+44 (0) 207 594 7541", "bibCode": "", "end": "2007-04-04", "title": "XEUS: Visions of the Extreme Universe", "meetingNumber": "2183", "modified": "Jul 01, 2009 12:00:00 AM", "start": "2007-04-02", "GoogleMapsResponse": {"status": "OK", "results": [{"geometry": {"location": {"lat": 51.49878349999999, "lng": -0.1748876}, "viewport": {"northeast": {"lat": 51.50013248029149, "lng": -0.173538619708498}, "southwest": {"lat": 51.4974345197085, "lng": -0.176236580291502}}, "location_type": "APPROXIMATE"}, "address_components": [{"long_name": "Imperial College", "types": ["point_of_interest", "establishment"], "short_name": "Imperial College"}, {"long_name": "Kensington", "types": ["neighborhood", "political"], "short_name": "Kensington"}, {"long_name": "Greater London", "types": ["administrative_area_level_2", "political"], "short_name": "Gt Lon"}, {"long_name": "United Kingdom", "types": ["country", "political"], "short_name": "GB"}, {"long_name": "SW7 2AZ", "types": ["postal_code"], "short_name": "SW7 2AZ"}, {"long_name": "London", "types": ["postal_town"], "short_name": "London"}], "formatted_address": "Imperial College, Kensington, London SW7 2AZ", "types": ["point_of_interest", "establishment"]}]}, "phone": "+44 (0) 207 594 5785", "contact": "Prof. Kirpal Nandra", "location": "Imperial College London, UK", "address": "Imperial College London, Blackett Laboratory, Prince Consort Road, London, UK, SW7 2AZ", "keywords": "X-ray XEUS", "ingested": "Jan 19, 2007 12:00:00 AM", "email": "k.nandra@imperial.ac.uk"}, {"web": "http://www.ehu.es/bicos", "fax": "", "bibCode": "", "end": "2007-04-13", "title": "Bilbao Meeting on New Standard Cosmology (BICOS 2007)", "meetingNumber": "2075", "modified": "Sep 27, 2006 12:00:00 AM", "start": "2007-04-10", "GoogleMapsResponse": {"status": "OK", "results": [{"geometry": {"location_type": "APPROXIMATE", "bounds": {"northeast": {"lat": 43.289146, "lng": -2.8897629}, "southwest": {"lat": 43.23750099999999, "lng": -2.9773659}}, "viewport": {"northeast": {"lat": 43.289146, "lng": -2.8897629}, "southwest": {"lat": 43.23750099999999, "lng": -2.9773659}}, "location": {"lat": 43.2630126, "lng": -2.9349852}}, "address_components": [{"long_name": "Bilbao", "types": ["locality", "political"], "short_name": "Bilbao"}, {"long_name": "Bilbao", "types": ["political"], "short_name": "Bilbao"}, {"long_name": "Gran Bilbao", "types": ["administrative_area_level_3", "political"], "short_name": "Gran Bilbao"}, {"long_name": "Biscay", "types": ["administrative_area_level_2", "political"], "short_name": "BI"}, {"long_name": "Basque Country", "types": ["administrative_area_level_1", "political"], "short_name": "PV"}, {"long_name": "Spain", "types": ["country", "political"], "short_name": "ES"}], "formatted_address": "Bilbao, Biscay, Spain", "types": ["locality", "political"]}]}, "phone": "", "contact": "Ruth Lazkoz", "location": " Bilbao (Spain)", "address": "", "keywords": "cosmology", "ingested": "Sep 27, 2006 12:00:00 AM", "email": "bicos@ehu.es"}, {"web": "http://conference.astro.ufl.edu/STARSTOPLANETS/", "fax": " 352 392 5089", "bibCode": "", "end": "2007-04-14", "title": " From Stars to Planets: Connecting our Understanding of Star and Planet Formation", "meetingNumber": "1985", "modified": "Apr 24, 2006 12:00:00 AM", "start": "2007-04-11", "GoogleMapsResponse": {"status": "OK", "results": [{"geometry": {"location_type": "APPROXIMATE", "bounds": {"northeast": {"lat": 29.6738121, "lng": -82.2977543}, "southwest": {"lat": 29.6707021, "lng": -82.30157559999999}}, "viewport": {"northeast": {"lat": 29.6738121, "lng": -82.2977543}, "southwest": {"lat": 29.6707021, "lng": -82.30157559999999}}, "location": {"lat": 29.6722571, "lng": -82.2996649}}, "address_components": [{"long_name": "University of Florida Eastside Campus", "types": ["establishment"], "short_name": "University of Florida Eastside Campus"}, {"long_name": "2008", "types": ["street_number"], "short_name": "2008"}, {"long_name": "Northeast Waldo Road", "types": ["route"], "short_name": "NE Waldo Rd"}, {"long_name": "Gainesville", "types": ["locality", "political"], "short_name": "Gainesville"}, {"long_name": "Alachua County", "types": ["administrative_area_level_2", "political"], "short_name": "Alachua County"}, {"long_name": "Florida", "types": ["administrative_area_level_1", "political"], "short_name": "FL"}, {"long_name": "United States", "types": ["country", "political"], "short_name": "US"}, {"long_name": "32609", "types": ["postal_code"], "short_name": "32609"}], "formatted_address": "University of Florida Eastside Campus, 2008 Northeast Waldo Road, Gainesville, FL 32609, USA", "types": ["university", "establishment"]}]}, "phone": "352 392 2052 ext. 254", "contact": "Jonathan Tan", "location": "University of Florida, Gainesville, Florida, USA", "address": "Dept. of Astronomy, University of Florida, PO Box 112055, Gainesville, Florida, 32611", "keywords": "Star Formation, Planet Formation", "ingested": "Apr 24, 2006 12:00:00 AM", "email": "starstoplanets@astro.ufl.edu"}, {"web": "http://www.math.unipa.it/~daa_erice07/", "fax": "+39 091 6040311", "bibCode": "", "end": "2007-04-22", "title": "6th International Workshop on Data Analysis in Astronomy \u0164Livio Scarsi\u0165 : Modelling and Simulation in Science", "meetingNumber": "2045", "modified": "Aug 08, 2006 12:00:00 AM", "start": "2007-04-15", "phone": " +39 091 6040416", "contact": "Giosue' Lo Bosco", "location": "EMFCSC, Ettore Majorana Foundation and Center for Scientific Culture, Erice, Ita", "address": "DMA, University of  Palermo, Via Archirafi 34, Palermo, Italy, 90123", "keywords": " Simulation, modeling, astrophysics, astroparticles, biochemistry, earth environment, methods and methodologies", "ingested": "Aug 08, 2006 12:00:00 AM", "email": "daa_erice07@unipa.it"}, {"web": "http://www.nam2007.uclan.ac.uk", "fax": "+44 (0)1772 892996", "bibCode": "", "end": "2007-04-20", "title": "RAS National Astronomy Meeting 2007", "meetingNumber": "2180", "modified": "Jan 16, 2007 12:00:00 AM", "start": "2007-04-16", "GoogleMapsResponse": {"status": "OK", "results": [{"geometry": {"location_type": "APPROXIMATE", "bounds": {"northeast": {"lat": 53.7924911, "lng": -2.63028}, "southwest": {"lat": 53.74802099999999, "lng": -2.7640235}}, "viewport": {"northeast": {"lat": 53.7924911, "lng": -2.63028}, "southwest": {"lat": 53.74802099999999, "lng": -2.7640235}}, "location": {"lat": 53.763201, "lng": -2.70309}}, "address_components": [{"long_name": "Preston", "types": ["locality", "political"], "short_name": "Preston"}, {"long_name": "Lancashire", "types": ["administrative_area_level_2", "political"], "short_name": "Lancs"}, {"long_name": "England", "types": ["administrative_area_level_1", "political"], "short_name": "England"}, {"long_name": "United Kingdom", "types": ["country", "political"], "short_name": "GB"}, {"long_name": "Preston", "types": ["postal_town"], "short_name": "Preston"}], "formatted_address": "Preston, Lancashire, UK", "types": ["locality", "political"]}]}, "phone": "+44 (0)1772 893585", "contact": "Brad Gibson", "location": "Preston, UK", "address": "University of Central Lancashire, Centre for Astrophysics, Preston, PR1 2HE", "keywords": "", "ingested": "Jan 16, 2007 12:00:00 AM", "email": "bkgibson@uclan.ac.uk"}, {"web": "", "fax": "+45 3532 5989", "bibCode": "", "end": "2007-04-20", "title": "First Stars Workshop -- 2007 Niels Bohr Summer Institute", "meetingNumber": "2219", "modified": "Jul 01, 2009 12:00:00 AM", "start": "2007-04-16", "GoogleMapsResponse": {"status": "OK", "results": [{"geometry": {"location_type": "APPROXIMATE", "bounds": {"northeast": {"lat": 55.7270937, "lng": 12.7342654}, "southwest": {"lat": 55.615441, "lng": 12.4533824}}, "viewport": {"northeast": {"lat": 55.7270937, "lng": 12.6682953}, "southwest": {"lat": 55.615441, "lng": 12.4533824}}, "location": {"lat": 55.6760968, "lng": 12.5683371}}, "address_components": [{"long_name": "Copenhagen", "types": ["locality", "political"], "short_name": "kbh"}, {"long_name": "K\u00f8benhavn", "types": ["administrative_area_level_2", "political"], "short_name": "K\u00f8benhavn"}, {"long_name": "Capital Region of Denmark", "types": ["administrative_area_level_1", "political"], "short_name": "Capital Region of Denmark"}, {"long_name": "Denmark", "types": ["country", "political"], "short_name": "DK"}], "partial_match": true, "formatted_address": "Copenhagen, Denmark", "types": ["locality", "political"]}]}, "phone": " +45 3532 5999", "contact": "Aake Nordlund", "location": "Niels Bohr Institute, Copenhagen", "address": "Niels Bohr Institute, Juliane Maries Vej 30, Copenhagen, DK, 2100", "keywords": "First Stars, Star Formation, Reionization, Chemical Evolution, Gamma-Ray Bursts", "ingested": "Mar 12, 2007 12:00:00 AM", "email": " aake@astro.ku.dk"}, {"web": "http://www.inaoep.mx/~puerto07", "fax": "52-222-472231", "bibCode": "", "end": "2007-04-20", "title": "New Quests in Stellar Astrophysics II:               The Ultraviolet Properties of Evolved Stellar Populations", "meetingNumber": "2058", "modified": "Aug 31, 2006 12:00:00 AM", "start": "2007-04-16", "GoogleMapsResponse": {"status": "OK", "results": [{"geometry": {"location_type": "APPROXIMATE", "bounds": {"northeast": {"lat": 20.6995918, "lng": -105.1786187}, "southwest": {"lat": 20.5814443, "lng": -105.2708258}}, "viewport": {"northeast": {"lat": 20.6995918, "lng": -105.1786187}, "southwest": {"lat": 20.5814443, "lng": -105.2708258}}, "location": {"lat": 20.615845, "lng": -105.230256}}, "address_components": [{"long_name": "Puerto Vallarta", "types": ["locality", "political"], "short_name": "Puerto Vallarta"}, {"long_name": "Jalisco", "types": ["administrative_area_level_1", "political"], "short_name": "JAL"}, {"long_name": "Mexico", "types": ["country", "political"], "short_name": "MX"}], "formatted_address": "Puerto Vallarta, JAL, Mexico", "types": ["locality", "political"]}]}, "phone": "52-33-36159829", "contact": "Dr. Miguel Chavez-Dagostino", "location": "Puerto Vallarta, Mexico", "address": "INAOE and IAM-UdeG, Av. Vallarta 2602, Col. Arcos Vallarta, Guadalajara, Jalisco, 44130", "keywords": "Ultraviolet: stars-stellar populations", "ingested": "Aug 31, 2006 12:00:00 AM", "email": "puerto07@inaoep.mx"}, {"web": "http://www.astroscu.unam.mx/congresos/agn2007/", "fax": "(52)-(55)-56160653", "bibCode": "", "end": "2007-04-20", "title": "The Nuclear Region, Host Galaxy and \r\nEnvironment of Active Galaxies: A\r\nSymposium to Celebrate the 60th. Birthday of  Deborah Dultzin-Hacyan", "meetingNumber": "2117", "modified": "Nov 13, 2006 12:00:00 AM", "start": "2007-04-18", "GoogleMapsResponse": {"status": "OK", "results": [{"geometry": {"location_type": "GEOMETRIC_CENTER", "bounds": {"northeast": {"lat": 17.094308, "lng": -96.692341}, "southwest": {"lat": 17.0935196, "lng": -96.6938035}}, "viewport": {"northeast": {"lat": 17.0952627802915, "lng": -96.69172326970849}, "southwest": {"lat": 17.0925648197085, "lng": -96.6944212302915}}, "location": {"lat": 17.0940333, "lng": -96.6932176}}, "address_components": [{"long_name": "Huatulco", "types": ["route"], "short_name": "Huatulco"}, {"long_name": "7 Regiones Ampliaci\u00f3n", "types": ["neighborhood", "political"], "short_name": "7 Regiones Ampliaci\u00f3n"}, {"long_name": "Oaxaca", "types": ["administrative_area_level_2", "political"], "short_name": "Oaxaca"}, {"long_name": "Oaxaca", "types": ["administrative_area_level_1", "political"], "short_name": "OAX"}, {"long_name": "Mexico", "types": ["country", "political"], "short_name": "MX"}], "formatted_address": "Huatulco, 7 Regiones Ampliaci\u00f3n, Oaxaca, Mexico", "types": ["route"]}, {"geometry": {"location_type": "GEOMETRIC_CENTER", "bounds": {"northeast": {"lat": 18.0716593, "lng": -96.12253919999999}, "southwest": {"lat": 18.0688596, "lng": -96.12706659999999}}, "viewport": {"northeast": {"lat": 18.0716593, "lng": -96.12253919999999}, "southwest": {"lat": 18.0688596, "lng": -96.12706659999999}}, "location": {"lat": 18.069623, "lng": -96.1243112}}, "address_components": [{"long_name": "Huatulco", "types": ["route"], "short_name": "Huatulco"}, {"long_name": "Las Limas", "types": ["neighborhood", "political"], "short_name": "Las Limas"}, {"long_name": "San Juan Bautista Tuxtepec", "types": ["administrative_area_level_2", "political"], "short_name": "San Juan Bautista Tuxtepec"}, {"long_name": "Oaxaca", "types": ["administrative_area_level_1", "political"], "short_name": "OAX"}, {"long_name": "Mexico", "types": ["country", "political"], "short_name": "MX"}], "formatted_address": "Huatulco, Las Limas, Oaxaca, Mexico", "types": ["route"]}, {"geometry": {"location_type": "GEOMETRIC_CENTER", "bounds": {"northeast": {"lat": 16.2140062, "lng": -95.2226931}, "southwest": {"lat": 16.2127807, "lng": -95.2228296}}, "viewport": {"northeast": {"lat": 16.2147424302915, "lng": -95.22141236970849}, "southwest": {"lat": 16.2120444697085, "lng": -95.22411033029151}}, "location": {"lat": 16.2134102, "lng": -95.2227723}}, "address_components": [{"long_name": "Huatulco", "types": ["route"], "short_name": "Huatulco"}, {"long_name": "Benito Ju\u00e1rez", "types": ["neighborhood", "political"], "short_name": "Benito Ju\u00e1rez"}, {"long_name": "Salina Cruz", "types": ["locality", "political"], "short_name": "Salina Cruz"}, {"long_name": "Oaxaca", "types": ["administrative_area_level_1", "political"], "short_name": "OAX"}, {"long_name": "Mexico", "types": ["country", "political"], "short_name": "MX"}, {"long_name": "70612", "types": ["postal_code"], "short_name": "70612"}], "formatted_address": "Huatulco, Benito Ju\u00e1rez, 70612 Salina Cruz, Oaxaca, Mexico", "types": ["route"]}, {"geometry": {"location_type": "GEOMETRIC_CENTER", "bounds": {"northeast": {"lat": 17.0256433, "lng": -97.9217128}, "southwest": {"lat": 17.0252383, "lng": -97.92290829999999}}, "viewport": {"northeast": {"lat": 17.0267897802915, "lng": -97.9209615697085}, "southwest": {"lat": 17.0240918197085, "lng": -97.9236595302915}}, "location": {"lat": 17.0254184, "lng": -97.9222604}}, "address_components": [{"long_name": "Huatulco", "types": ["route"], "short_name": "Huatulco"}, {"long_name": "Linda Vista", "types": ["neighborhood", "political"], "short_name": "Linda Vista"}, {"long_name": "Putla Villa de Guerrero", "types": ["locality", "political"], "short_name": "Putla Villa de Guerrero"}, {"long_name": "Oaxaca", "types": ["administrative_area_level_1", "political"], "short_name": "OAX"}, {"long_name": "Mexico", "types": ["country", "political"], "short_name": "MX"}, {"long_name": "71007", "types": ["postal_code"], "short_name": "71007"}], "formatted_address": "Huatulco, Linda Vista, 71007 Putla Villa de Guerrero, Oaxaca, Mexico", "types": ["route"]}, {"geometry": {"location_type": "GEOMETRIC_CENTER", "bounds": {"northeast": {"lat": 16.2211697, "lng": -95.1911413}, "southwest": {"lat": 16.2209251, "lng": -95.1922341}}, "viewport": {"northeast": {"lat": 16.2223963802915, "lng": -95.19033871970849}, "southwest": {"lat": 16.2196984197085, "lng": -95.1930366802915}}, "location": {"lat": 16.2211697, "lng": -95.1922341}}, "address_components": [{"long_name": "Huatulco", "types": ["route"], "short_name": "Huatulco"}, {"long_name": "Cesar Linton", "types": ["neighborhood", "political"], "short_name": "Cesar Linton"}, {"long_name": "Salina Cruz", "types": ["locality", "political"], "short_name": "Salina Cruz"}, {"long_name": "Oaxaca", "types": ["administrative_area_level_1", "political"], "short_name": "OAX"}, {"long_name": "Mexico", "types": ["country", "political"], "short_name": "MX"}, {"long_name": "70614", "types": ["postal_code"], "short_name": "70614"}], "formatted_address": "Huatulco, Cesar Linton, 70614 Salina Cruz, Oaxaca, Mexico", "types": ["route"]}, {"geometry": {"location_type": "GEOMETRIC_CENTER", "bounds": {"northeast": {"lat": 17.0308752, "lng": -96.7231611}, "southwest": {"lat": 17.0270719, "lng": -96.7241164}}, "viewport": {"northeast": {"lat": 17.0308752, "lng": -96.7222897697085}, "southwest": {"lat": 17.0270719, "lng": -96.72498773029152}}, "location": {"lat": 17.0298977, "lng": -96.7233072}}, "address_components": [{"long_name": "Huatulco", "types": ["route"], "short_name": "Huatulco"}, {"long_name": "Huajuapan", "types": ["locality", "political"], "short_name": "Huajuapan"}, {"long_name": "Oaxaca", "types": ["administrative_area_level_1", "political"], "short_name": "OAX"}, {"long_name": "Mexico", "types": ["country", "political"], "short_name": "MX"}, {"long_name": "68166", "types": ["postal_code"], "short_name": "68166"}], "formatted_address": "Huatulco, 68166 Huajuapan, Oaxaca, Mexico", "types": ["route"]}, {"geometry": {"location_type": "GEOMETRIC_CENTER", "bounds": {"northeast": {"lat": 17.0404909, "lng": -96.7282237}, "southwest": {"lat": 17.0403437, "lng": -96.7286778}}, "viewport": {"northeast": {"lat": 17.0417662802915, "lng": -96.7271017697085}, "southwest": {"lat": 17.03906831970849, "lng": -96.7297997302915}}, "location": {"lat": 17.0404909, "lng": -96.7286778}}, "address_components": [{"long_name": "Huatulco", "types": ["route"], "short_name": "Huatulco"}, {"long_name": "Santa Elena", "types": ["neighborhood", "political"], "short_name": "Santa Elena"}, {"long_name": "Huajuapan", "types": ["locality", "political"], "short_name": "Huajuapan"}, {"long_name": "Oaxaca", "types": ["administrative_area_level_1", "political"], "short_name": "OAX"}, {"long_name": "Mexico", "types": ["country", "political"], "short_name": "MX"}, {"long_name": "68160", "types": ["postal_code"], "short_name": "68160"}], "formatted_address": "Huatulco, Santa Elena, 68160 Huajuapan, Oaxaca, Mexico", "types": ["route"]}, {"geometry": {"location": {"lat": 15.7787082, "lng": -96.07260699999999}, "viewport": {"northeast": {"lat": 15.7800571802915, "lng": -96.0712580197085}, "southwest": {"lat": 15.7773592197085, "lng": -96.0739559802915}}, "location_type": "APPROXIMATE"}, "address_components": [{"long_name": "huatulco", "types": ["transit_station", "establishment"], "short_name": "huatulco"}, {"long_name": "Oaxaca", "types": ["administrative_area_level_1", "political"], "short_name": "OAX"}, {"long_name": "Mexico", "types": ["country", "political"], "short_name": "MX"}], "formatted_address": "huatulco, Oaxaca, Mexico", "types": ["transit_station", "establishment"]}, {"geometry": {"location": {"lat": 15.85, "lng": -96.33333329999999}, "viewport": {"northeast": {"lat": 15.8513489802915, "lng": -96.33198431970848}, "southwest": {"lat": 15.8486510197085, "lng": -96.3346822802915}}, "location_type": "APPROXIMATE"}, "address_components": [{"long_name": "Huatulco", "types": [], "short_name": "Huatulco"}, {"long_name": "Oaxaca", "types": ["administrative_area_level_1", "political"], "short_name": "OAX"}, {"long_name": "Mexico", "types": ["country", "political"], "short_name": "MX"}], "formatted_address": "Huatulco, Oaxaca, Mexico", "types": []}]}, "phone": "(52)-(55)-56223986", "contact": " Erika Benitez", "location": "Huatulco, Oax., Mexico", "address": "Instituto de Astronomia, UNAM, Apdo. Postal 70-264, Ciudad Universitaria, Mexico. D.F., 04510", "keywords": "The central engine: variability, BH mass and accretion, Emission regions and circumnuclear starbursts, Influence of the host galaxy and of the environment", "ingested": "Nov 13, 2006 12:00:00 AM", "email": "agn2007@astroscu.unam.mx"}, {"web": "http://yerkes.uchicago.edu/meeting/", "fax": "", "bibCode": "", "end": "2007-04-24", "title": "Microstructures in the Interstellar Medium", "meetingNumber": "2082", "modified": "Oct 05, 2006 12:00:00 AM", "start": "2007-04-22", "GoogleMapsResponse": {"status": "OK", "results": [{"geometry": {"location_type": "APPROXIMATE", "bounds": {"northeast": {"lat": 42.615181, "lng": -88.3935269}, "southwest": {"lat": 42.5455751, "lng": -88.45932789999999}}, "viewport": {"northeast": {"lat": 42.615181, "lng": -88.3935269}, "southwest": {"lat": 42.5455751, "lng": -88.45932789999999}}, "location": {"lat": 42.5916836, "lng": -88.4334301}}, "address_components": [{"long_name": "Lake Geneva", "types": ["locality", "political"], "short_name": "Lake Geneva"}, {"long_name": "Walworth County", "types": ["administrative_area_level_2", "political"], "short_name": "Walworth County"}, {"long_name": "Wisconsin", "types": ["administrative_area_level_1", "political"], "short_name": "WI"}, {"long_name": "United States", "types": ["country", "political"], "short_name": "US"}, {"long_name": "53147", "types": ["postal_code"], "short_name": "53147"}], "formatted_address": "Lake Geneva, WI 53147, USA", "types": ["locality", "political"]}]}, "phone": "(859)-257-8795", "contact": "Gary Ferland", "location": "Lake Geneva, WI", "address": "University of Kentucky", "keywords": "", "ingested": "Oct 05, 2006 12:00:00 AM", "email": "gary@pa.uky.edu"}, {"web": "http://www.lofar.org/workshop", "fax": "+31 521 59 51 01", "bibCode": "", "end": "2007-04-27", "title": "Astrophysics in the LOFAR era", "meetingNumber": "2103", "modified": "Nov 13, 2006 12:00:00 AM", "start": "2007-04-23", "GoogleMapsResponse": {"status": "OK", "results": [{"geometry": {"location_type": "APPROXIMATE", "bounds": {"northeast": {"lat": 52.8362332, "lng": 6.979841299999999}, "southwest": {"lat": 52.7245515, "lng": 6.8308461}}, "viewport": {"northeast": {"lat": 52.8362332, "lng": 6.979841299999999}, "southwest": {"lat": 52.7245515, "lng": 6.8308461}}, "location": {"lat": 52.7858037, "lng": 6.8975851}}, "address_components": [{"long_name": "Emmen", "types": ["locality", "political"], "short_name": "Emmen"}, {"long_name": "Emmen", "types": ["administrative_area_level_2", "political"], "short_name": "Emmen"}, {"long_name": "Drenthe", "types": ["administrative_area_level_1", "political"], "short_name": "DR"}, {"long_name": "The Netherlands", "types": ["country", "political"], "short_name": "NL"}], "formatted_address": "Emmen, The Netherlands", "types": ["locality", "political"]}]}, "phone": "+31 521 59 51 00", "contact": "Corina Vogt", "location": "Emmen, the Netherlands", "address": "ASTRON, P.O. Box 2, Dwingeloo, The Netherlands, 7990 AA", "keywords": "LOFAR, radio, low-frequency, astrophysics", "ingested": "Nov 13, 2006 12:00:00 AM", "email": "workshop@lofar.org"}, {"web": "http://ysc.kiev.ua", "fax": "+(380) 44-526-45-07", "bibCode": "", "end": "2007-04-28", "title": "The XIV Young Scientists' Conference on Astronomy and Space Physics", "meetingNumber": "1867", "modified": "Nov 27, 2006 12:00:00 AM", "start": "2007-04-23", "phone": "+(380) 44-526-44-57", "contact": "Alex Golovin, Andrew Simon", "location": "Kyiv National Taras Shevchenko University, Ukraine", "address": "Kyiv National Taras Shevchenko University, PO Box 7, Kyiv, Ukraine, 03022", "keywords": "", "ingested": "Nov 16, 2005 12:00:00 AM", "email": "ysc@univ.kiev.ua"}, {"web": "http://aramis.obspm.fr/~houches/", "fax": "(+33) 1 40 51 20 02", "bibCode": "", "end": "2007-05-04", "title": "Les Houches Winter School: Astronomy in the\r\nSubmillimeter and Far Infrared Domains with the Herschel Space Observatory", "meetingNumber": "2186", "modified": "Jan 23, 2007 12:00:00 AM", "start": "2007-04-23", "phone": "(+33) 1 40 51 20 13", "contact": "L. Pagani", "location": "Les Houches, France", "address": "Observatoire de Paris, 61, Aven. de l'Observatoire, Paris, France, 75014", "keywords": "Herschel", "ingested": "Jan 23, 2007 12:00:00 AM", "email": "laurent.pagani@obspm.fr"}, {"web": "http://glast.gsfc.nasa.gov/science/resources/meetings/lat/agn_april07/", "fax": "301 286-1684", "bibCode": "", "end": "2007-04-24", "title": "VLBI in the GLAST Era", "meetingNumber": "2216", "modified": "Mar 07, 2007 12:00:00 AM", "start": "2007-04-23", "phone": " 301 286-4390", "contact": "Matthias Kadler", "location": "NASA's Goddard Space Flight Center, Greenbelt, MD, USA", "address": "NASA/GSFC   , Greenbelt, MD, 20771", "keywords": "VLBI, GLAST, blazar, jet, AGN, extragalactic, galaxies: active, gamma-ray", "ingested": "Mar 07, 2007 12:00:00 AM", "email": "mkadler@milkyway.gsfc.nasa.gov"}, {"web": "http://www.stsci.edu/institute/conference/spr07", "fax": "410-338-4796", "bibCode": "", "end": "2007-04-26", "title": "Black Holes - April 23-26, 2007", "meetingNumber": "2170", "modified": "Feb 20, 2007 12:00:00 AM", "start": "2007-04-23", "GoogleMapsResponse": {"status": "OK", "results": [{"geometry": {"location_type": "APPROXIMATE", "bounds": {"northeast": {"lat": 39.3331337, "lng": -76.6227219}, "southwest": {"lat": 39.3323192, "lng": -76.6238451}}, "viewport": {"northeast": {"lat": 39.3340754302915, "lng": -76.6219345197085}, "southwest": {"lat": 39.33137746970851, "lng": -76.62463248029151}}, "location": {"lat": 39.3327755, "lng": -76.6233337}}, "address_components": [{"long_name": "Steven Muller Building Space Telescope Science Institute", "types": ["premise"], "short_name": "Steven Muller Bldg Space Telescope Science Institute"}, {"long_name": "Johns-Hopkins - Homewood", "types": ["neighborhood", "political"], "short_name": "Johns-Hopkins - Homewood"}, {"long_name": "Baltimore", "types": ["locality", "political"], "short_name": "Baltimore"}, {"long_name": "Maryland", "types": ["administrative_area_level_1", "political"], "short_name": "MD"}, {"long_name": "United States", "types": ["country", "political"], "short_name": "US"}, {"long_name": "21210", "types": ["postal_code"], "short_name": "21210"}], "partial_match": true, "formatted_address": "Steven Muller Building Space Telescope Science Institute, Baltimore, MD 21210, USA", "types": ["premise"]}]}, "phone": "410-338-4970", "contact": "Quindairian Gryce", "location": "Space Telescope Science Institute, Baltimore, MD. USA", "address": "Space Telescope Science Institute, 3700 San Martin Drive, Baltimore, MD, 2128", "keywords": "stellar mass, intermediate mass, and supermassive black holes", "ingested": "Jan 08, 2007 12:00:00 AM", "email": "gryce@stsci.edu"}, {"web": "http://www.iac.es/proyect/eclectic/", "fax": "+34-922-605210", "bibCode": "", "end": "2007-04-27", "title": "Pathways Through an Eclectic Universe", "meetingNumber": "2052", "modified": "Aug 28, 2006 12:00:00 AM", "start": "2007-04-23", "GoogleMapsResponse": {"status": "OK", "results": [{"geometry": {"location": {"lat": 28.2296204, "lng": -16.8460966}, "viewport": {"northeast": {"lat": 28.2394508, "lng": -16.8300892}, "southwest": {"lat": 28.2197891, "lng": -16.862104}}, "location_type": "APPROXIMATE"}, "address_components": [{"long_name": "Playa de la Arena", "types": ["natural_feature", "establishment"], "short_name": "Playa de la Arena"}, {"long_name": "Spain", "types": ["country", "political"], "short_name": "ES"}], "partial_match": true, "formatted_address": "Playa de la Arena, Spain", "types": ["natural_feature", "establishment"]}]}, "phone": " +34-922-605200", "contact": "Eva Bejarano", "location": "Playa de La Arena, Tenerife, Spain", "address": "Instituto de Astrofisica de Canarias, La Laguna, Tenerife, Spain, E-38200", "keywords": " star formation, local galaxies, spiral galaxies, barred galaxies, galaxy evolution, interstellar medium in galaxies", "ingested": "Aug 28, 2006 12:00:00 AM", "email": "eclectic@iac.es"}, {"web": "", "fax": "40213373389", "bibCode": "", "end": "2007-05-05", "title": "Young Scientists International School: Heliosphere and Galaxy", "meetingNumber": "2105", "modified": "Jul 01, 2009 12:00:00 AM", "start": "2007-05-03", "GoogleMapsResponse": {"status": "OK", "results": [{"geometry": {"location_type": "APPROXIMATE", "bounds": {"northeast": {"lat": 45.3733654, "lng": 25.5732431}, "southwest": {"lat": 45.3088209, "lng": 25.5296946}}, "viewport": {"northeast": {"lat": 45.3733654, "lng": 25.5732431}, "southwest": {"lat": 45.3088209, "lng": 25.5296946}}, "location": {"lat": 45.35, "lng": 25.5513889}}, "address_components": [{"long_name": "Sinaia", "types": ["locality", "political"], "short_name": "Sinaia"}, {"long_name": "Sinaia", "types": ["administrative_area_level_2", "political"], "short_name": "Sinaia"}, {"long_name": "Prahova", "types": ["administrative_area_level_1", "political"], "short_name": "PH"}, {"long_name": "Romania", "types": ["country", "political"], "short_name": "RO"}], "formatted_address": "Sinaia, Romania", "types": ["locality", "political"]}]}, "phone": "40213356892", "contact": "Nedelia Popescu", "location": "Sinaia, Romania", "address": "Astronomical Institute of Romanian Academy, Cutitul de Argint 5, Bucharest, Romania, 040557", "keywords": "Heliosphere,Galaxy, IHY", "ingested": "Nov 13, 2006 12:00:00 AM", "email": " nedelia@aira.astro.ro"}, {"web": "http://www.astro.ro/~cris/efyra2/", "fax": "40213373389", "bibCode": "", "end": "2007-05-05", "title": "Flows, Boundaries, Interactions", "meetingNumber": "2104", "modified": "Nov 13, 2006 12:00:00 AM", "start": "2007-05-03", "GoogleMapsResponse": {"status": "OK", "results": [{"geometry": {"location_type": "APPROXIMATE", "bounds": {"northeast": {"lat": 45.3733654, "lng": 25.5732431}, "southwest": {"lat": 45.3088209, "lng": 25.5296946}}, "viewport": {"northeast": {"lat": 45.3733654, "lng": 25.5732431}, "southwest": {"lat": 45.3088209, "lng": 25.5296946}}, "location": {"lat": 45.35, "lng": 25.5513889}}, "address_components": [{"long_name": "Sinaia", "types": ["locality", "political"], "short_name": "Sinaia"}, {"long_name": "Sinaia", "types": ["administrative_area_level_2", "political"], "short_name": "Sinaia"}, {"long_name": "Prahova", "types": ["administrative_area_level_1", "political"], "short_name": "PH"}, {"long_name": "Romania", "types": ["country", "political"], "short_name": "RO"}], "formatted_address": "Sinaia, Romania", "types": ["locality", "political"]}]}, "phone": "40213356892", "contact": " Cristiana Dumitrache", "location": "Sinaia, Romania", "address": "Astronomical Institute of Romanian Academy, Cutitul de Argint 5, Bucharest, Romania, 040557", "keywords": "Sun,MHD,Heliosphere,IHY", "ingested": "Nov 13, 2006 12:00:00 AM", "email": "crisd@aira.astro.ro"}, {"web": "http://dda.harvard.edu/", "fax": "734-936-1817", "bibCode": "", "end": "2007-05-10", "title": "AAS Division on Dynamical Astronomy Annual Meeting", "meetingNumber": "2088", "modified": "Oct 13, 2006 12:00:00 AM", "start": "2007-05-06", "GoogleMapsResponse": {"status": "OK", "results": [{"geometry": {"location_type": "APPROXIMATE", "bounds": {"northeast": {"lat": 42.3239728, "lng": -83.6758069}, "southwest": {"lat": 42.222668, "lng": -83.799572}}, "viewport": {"northeast": {"lat": 42.3239728, "lng": -83.6758069}, "southwest": {"lat": 42.222668, "lng": -83.799572}}, "location": {"lat": 42.2808256, "lng": -83.7430378}}, "address_components": [{"long_name": "Ann Arbor", "types": ["locality", "political"], "short_name": "Ann Arbor"}, {"long_name": "Washtenaw County", "types": ["administrative_area_level_2", "political"], "short_name": "Washtenaw County"}, {"long_name": "Michigan", "types": ["administrative_area_level_1", "political"], "short_name": "MI"}, {"long_name": "United States", "types": ["country", "political"], "short_name": "US"}], "formatted_address": "Ann Arbor, MI, USA", "types": ["locality", "political"]}]}, "phone": " 734-647-4320", "contact": "Fred Adams", "location": "Ann Arbor , Michigan", "address": "University of Michigan , Physics Department , Ann Arbor , Michigan, 48109", "keywords": "astrophysics, dynamics, celestial mechanics, astrometry, solar system dynamics, fluid dynamics", "ingested": "Oct 13, 2006 12:00:00 AM", "email": "fca@umich.edu"}, {"web": "http://agenda.albanova.se/conferenceDisplay.py?confId=99", "fax": "+46 8 5537 8601", "bibCode": "", "end": "2007-05-11", "title": " New Trends in Radiation Hydrodynamics", "meetingNumber": "2202", "modified": "Feb 07, 2007 12:00:00 AM", "start": "2007-05-09", "GoogleMapsResponse": {"status": "OK", "results": [{"geometry": {"location_type": "APPROXIMATE", "bounds": {"northeast": {"lat": 59.42784089999999, "lng": 18.198229}, "southwest": {"lat": 59.224443, "lng": 17.7768621}}, "viewport": {"northeast": {"lat": 59.42784089999999, "lng": 18.198229}, "southwest": {"lat": 59.224443, "lng": 17.7768621}}, "location": {"lat": 59.32893000000001, "lng": 18.06491}}, "address_components": [{"long_name": "Stockholm", "types": ["locality", "political"], "short_name": "Stockholm"}, {"long_name": "Sweden", "types": ["country", "political"], "short_name": "SE"}], "partial_match": true, "formatted_address": "Stockholm, Sweden", "types": ["locality", "political"]}]}, "phone": "+46 8 5537 8707", "contact": "Axel Brandenburg", "location": "Nordita (Stockholm)", "address": "Nordita (Stockholm), AlbaNova University Center, Stockholm, 106 91", "keywords": "radiation hydrodynamics, magneto-hydrodynamics, sunspots, photon bubbles, reionization", "ingested": "Feb 07, 2007 12:00:00 AM", "email": " brandenb@nordita.dk"}, {"web": "http://www.cfht.hawaii.edu/UM2007/index.php", "fax": "", "bibCode": "", "end": "2007-05-11", "title": "CFHT 2007 Users' Meeting :  Building CFHT's Future", "meetingNumber": "2165", "modified": "Jan 04, 2007 12:00:00 AM", "start": "2007-05-09", "GoogleMapsResponse": {"status": "OK", "results": [{"geometry": {"location_type": "APPROXIMATE", "bounds": {"northeast": {"lat": 43.3911601, "lng": 5.5323519}, "southwest": {"lat": 43.169621, "lng": 5.228641}}, "viewport": {"northeast": {"lat": 43.3911601, "lng": 5.5323519}, "southwest": {"lat": 43.169621, "lng": 5.277926100000001}}, "location": {"lat": 43.296482, "lng": 5.36978}}, "address_components": [{"long_name": "Marseille", "types": ["locality", "political"], "short_name": "Marseille"}, {"long_name": "Bouches-du-Rhone", "types": ["administrative_area_level_2", "political"], "short_name": "13"}, {"long_name": "Provence-Alpes-C\u00f4te d'Azur", "types": ["administrative_area_level_1", "political"], "short_name": "PACA"}, {"long_name": "France", "types": ["country", "political"], "short_name": "FR"}], "formatted_address": "Marseille, France", "types": ["locality", "political"]}]}, "phone": "", "contact": "", "location": "Marseille (France)", "address": "", "keywords": "CFHT, users' meeting", "ingested": "Jan 04, 2007 12:00:00 AM", "email": "um2007@cfht.hawaii.edu"}, {"web": "http://www.mate.polimi.it/bh2/", "fax": "0039-2-23994567", "bibCode": "", "end": "2007-05-12", "title": "Dynamics and Thermodynamics of Blackholes and Naked Singularities II", "meetingNumber": "2161", "modified": "Jan 03, 2007 12:00:00 AM", "start": "2007-05-10", "GoogleMapsResponse": {"status": "OK", "results": [{"geometry": {"location": {"lat": 45.47872599999999, "lng": 9.233585}, "viewport": {"northeast": {"lat": 45.4800749802915, "lng": 9.234933980291501}, "southwest": {"lat": 45.4773770197085, "lng": 9.232236019708496}}, "location_type": "APPROXIMATE"}, "address_components": [{"long_name": "Biblioteca di Bioingegneria", "types": ["point_of_interest", "establishment"], "short_name": "Biblioteca di Bioingegneria"}, {"long_name": "Politecnico di Milano - Campus Leonardo", "types": ["establishment"], "short_name": "Politecnico di Milano"}, {"long_name": "39", "types": ["street_number"], "short_name": "39"}, {"long_name": "Via Camillo Golgi", "types": ["route"], "short_name": "Via Camillo Golgi"}, {"long_name": "Milan", "types": ["locality", "political"], "short_name": "Milan"}, {"long_name": "Milan", "types": ["administrative_area_level_3", "political"], "short_name": "Milan"}, {"long_name": "Milan", "types": ["administrative_area_level_2", "political"], "short_name": "MI"}, {"long_name": "Lombardy", "types": ["administrative_area_level_1", "political"], "short_name": "Lombardy"}, {"long_name": "Italy", "types": ["country", "political"], "short_name": "IT"}, {"long_name": "20133", "types": ["postal_code"], "short_name": "20133"}], "partial_match": true, "formatted_address": "Biblioteca di Bioingegneria, Politecnico di Milano - Campus Leonardo, Via Camillo Golgi, 39, 20133 Milan, Italy", "types": ["university", "point_of_interest", "establishment"]}]}, "phone": "0039-2-23994597", "contact": "Prof. Giulio Magli", "location": "Dipartimento di Matematica, Politecnico di Milano. Milan, Italy", "address": "Dept. of Mathematics, Politecnico of Milan, Leonardo da Vinci 32, Milan, Italy, 20133", "keywords": "Blackhole formation, gravitational collapse, blackholes", "ingested": "Jan 03, 2007 12:00:00 AM", "email": "magli@mate.polimi.it"}, {"web": "http://www.unb.ca/fredericton/science/math/BHVI/", "fax": "1-506-453-4705", "bibCode": "", "end": "2007-05-15", "title": "Black Holes VI", "meetingNumber": "2196", "modified": "Feb 01, 2007 12:00:00 AM", "start": "2007-05-12", "GoogleMapsResponse": {"status": "OK", "results": [{"geometry": {"location_type": "GEOMETRIC_CENTER", "bounds": {"northeast": {"lat": 43.96597329999999, "lng": -64.7369159}, "southwest": {"lat": 43.962002, "lng": -64.74645699999999}}, "viewport": {"northeast": {"lat": 43.96597329999999, "lng": -64.7369159}, "southwest": {"lat": 43.962002, "lng": -64.74645699999999}}, "location": {"lat": 43.964957, "lng": -64.74298399999999}}, "address_components": [{"long_name": "White Point Beach Resort Road", "types": ["route"], "short_name": "White Point Beach Resort Rd"}, {"long_name": "Hunts Point", "types": ["locality", "political"], "short_name": "Hunts Point"}, {"long_name": "Queens", "types": ["administrative_area_level_3", "political"], "short_name": "Queens"}, {"long_name": "Region of Queens", "types": ["administrative_area_level_2", "political"], "short_name": "Region of Queens"}, {"long_name": "Nova Scotia", "types": ["administrative_area_level_1", "political"], "short_name": "NS"}, {"long_name": "Canada", "types": ["country", "political"], "short_name": "CA"}, {"long_name": "B0T 1G0", "types": ["postal_code"], "short_name": "B0T 1G0"}], "partial_match": true, "formatted_address": "White Point Beach Resort Road, Hunts Point, NS B0T 1G0, Canada", "types": ["route"]}]}, "phone": "1-506-458-7513", "contact": "Jack Gegenberg", "location": "White Point Beach Resort, White Point Nova Scotia, Canada", "address": "Department of Mathematics and Statistics, University of New Brunswick, Fredericton, New Brunswick, Canada, E3B 5A3,", "keywords": "black holes, general relativity, astrophysics, string theory", "ingested": "Jan 31, 2007 12:00:00 AM", "email": "geg@unb.ca"}, {"web": "http://www.strw.leidenuniv.nl/~nac2007/", "fax": "+31 (0) 71 527 5743", "bibCode": "", "end": "2007-05-16", "title": "Netherlands Astronomy Conference 2007", "meetingNumber": "2207", "modified": "Feb 23, 2007 12:00:00 AM", "start": "2007-05-14", "GoogleMapsResponse": {"status": "OK", "results": [{"geometry": {"location_type": "APPROXIMATE", "bounds": {"northeast": {"lat": 51.4389607, "lng": 5.430304}, "southwest": {"lat": 51.3766881, "lng": 5.3159675}}, "viewport": {"northeast": {"lat": 51.4389607, "lng": 5.430304}, "southwest": {"lat": 51.3766881, "lng": 5.3159675}}, "location": {"lat": 51.4176337, "lng": 5.4060209}}, "address_components": [{"long_name": "Veldhoven", "types": ["locality", "political"], "short_name": "Veldhoven"}, {"long_name": "Veldhoven", "types": ["administrative_area_level_2", "political"], "short_name": "Veldhoven"}, {"long_name": "North Brabant", "types": ["administrative_area_level_1", "political"], "short_name": "NB"}, {"long_name": "The Netherlands", "types": ["country", "political"], "short_name": "NL"}], "formatted_address": "Veldhoven, The Netherlands", "types": ["locality", "political"]}]}, "phone": "+31 (0) 71 527 5882", "contact": " F. Molster", "location": "Veldhoven, The Netherlands", "address": "Leiden Observatory, Postbus 9513, Leiden, The Netherlands, 2300 RA", "keywords": "NAC", "ingested": "Feb 23, 2007 12:00:00 AM", "email": "molster@strw.leidenuniv.nl"}, {"web": "http://www.u-cergy.fr/Mol_Spa_Lab/", "fax": "  0033134257095", "bibCode": "", "end": "2007-05-18", "title": "Molecules in Space and Laboratory", "meetingNumber": "1994", "modified": "May 22, 2006 12:00:00 AM", "start": "2007-05-14", "phone": " 0033134257035", "contact": " LEMAIRE Jean Louis", "location": "Val d'Oise (close to Paris), France", "address": "Observatoire de Paris & Universit\u00e9 de Cergy-Pontoise, 5 Place Jules JANSSEN, MEUDON, FRANCE, 92195", "keywords": "space, molecules", "ingested": "May 16, 2006 12:00:00 AM", "email": "Mol_Spa_Lab@ml.u-cergy.fr"}, {"web": "http:// astro.utoronto.ca/msf/", "fax": "", "bibCode": "", "end": "2007-05-18", "title": "Multiplicity in Star Formation", "meetingNumber": "2033", "modified": "Sep 27, 2006 12:00:00 AM", "start": "2007-05-16", "phone": "+1 416 946 7291", "contact": "Prof. Ray Jayawardhana", "location": "Toronto, Canada", "address": "University of Toronto, 50 St. George St, Toronto, ON, M5S 3H4", "keywords": "star formation, disks, planets, brown dwarfs", "ingested": "Jul 19, 2006 12:00:00 AM", "email": "msf@astro.utoronto.ca"}, {"web": "http://chalonge.obspm.fr", "fax": "00 33 1 40 51 20 02", "bibCode": "", "end": "2007-05-18", "title": "The Chalonge School Rencontre at the Paris Colegio de Espa\u0144a : Physics of the Universe Confronts Observations", "meetingNumber": "2238", "modified": "Apr 03, 2007 12:00:00 AM", "start": "2007-05-17", "phone": "00 33 1 40 51 20 0", "contact": " Professor Norma G. Sanchez", "location": "Paris, Spanish College, Cit\u00e9 Internationale Universitaire de Paris", "address": "Ecole Daniel Chalonge,Observatoire de Paris , LERMA, 61, Avenue de l'Observatoire, 75014 Paris, FRANCE,", "keywords": "early and present cosmology, high energy astrophysics, theory, observations.", "ingested": "Apr 03, 2007 12:00:00 AM", "email": "Chalonge.Ecole@obspm.fr"}, {"web": "http://planetquest.jpl.nasa.gov/Navigator/navigator_forum2.cfm", "fax": "818-393-4950", "bibCode": "", "end": "2007-05-18", "title": "Navigator Forum 2007 - Small- and Mid-Scale Exoplanet Space Missions", "meetingNumber": "2213", "modified": "Mar 01, 2007 12:00:00 AM", "start": "2007-05-17", "phone": "818-393-5508", "contact": "Wesley Traub", "location": "NASA Ames Research Center, Moffett Field, California", "address": "JPL/Caltech, 4800 Oak Grove Drive, Pasadena, CA, 91109", "keywords": "Exoplanet terrestrial planet finder", "ingested": "Mar 01, 2007 12:00:00 AM", "email": "Wesley.A.Traub@jpl.nasa.gov"}, {"web": "http:// origins.physics.mcmaster.ca/darkenergy/index.html", "fax": "", "bibCode": "", "end": "2007-05-20", "title": "Workshop: Excursions in the Dark", "meetingNumber": "2148", "modified": "Dec 14, 2006 12:00:00 AM", "start": "2007-05-18", "phone": " (519) 569-7600 ext 6052", "contact": "  Kate Gillespie", "location": "  Perimeter Institute for Theoretical Physics, Waterloo, Ontario", "address": "Perimeter Institute, 31 Caroline St. N., Waterloo, Ontario, N2L 2Y5", "keywords": "cosmology, dark energy, particle physics, obsrvations", "ingested": "Dec 14, 2006 12:00:00 AM", "email": " kgillespie@perimeterinstitute.ca"}, {"web": "http://confs.obspm.fr/Blois2007/", "fax": "", "bibCode": "", "end": "2007-05-25", "title": "XIXth Rencontres de Blois : Matter and Energy in the Universe - From Nucleosynthesis to Cosmology", "meetingNumber": "2246", "modified": "Apr 10, 2007 12:00:00 AM", "start": "2007-05-20", "phone": "", "contact": "", "location": "Chateau Royal de Blois, France", "address": "Rencontres de Blois, Ch\u00e2teau de Blois, 41000 BLOIS, France", "keywords": "", "ingested": "Apr 10, 2007 12:00:00 AM", "email": ""}, {"web": "http://confs.obspm.fr/Blois2007/index.htm", "fax": "(33) 1 45077469", "bibCode": "", "end": "2007-05-26", "title": "Matter and Energy in the Universe: From Nucleosynthesis to Cosmology", "meetingNumber": "2107", "modified": "Dec 28, 2006 12:00:00 AM", "start": "2007-05-20", "GoogleMapsResponse": {"status": "OK", "results": [{"geometry": {"location_type": "APPROXIMATE", "bounds": {"northeast": {"lat": 47.5861959, "lng": 1.3316073}, "southwest": {"lat": 47.584971, "lng": 1.3299972}}, "viewport": {"northeast": {"lat": 47.5869324302915, "lng": 1.332151230291502}, "southwest": {"lat": 47.5842344697085, "lng": 1.329453269708498}}, "location": {"lat": 47.5853919, "lng": 1.3305829}}, "address_components": [{"long_name": "Ch\u00e2teau de Blois", "types": ["premise"], "short_name": "Ch\u00e2teau de Blois"}, {"long_name": "Blois", "types": ["locality", "political"], "short_name": "Blois"}, {"long_name": "Loir-et-Cher", "types": ["administrative_area_level_2", "political"], "short_name": "41"}, {"long_name": "Centre", "types": ["administrative_area_level_1", "political"], "short_name": "Centre"}, {"long_name": "France", "types": ["country", "political"], "short_name": "FR"}, {"long_name": "41000", "types": ["postal_code"], "short_name": "41000"}], "formatted_address": "Ch\u00e2teau de Blois, 41000 Blois, France", "types": ["premise"]}]}, "phone": "(33) 1 45077410", "contact": "Ludwik Celnikier", "location": " Chateau de Blois, Blois, France", "address": "Observatoire de Paris-Meudon, Place Jules Janssen, Meudon, 92190", "keywords": " Nucleosynthesis, Big Bang, Stellar structure, Elementary abundances, nuclear physics", "ingested": "Nov 13, 2006 12:00:00 AM", "email": "blois.confs@obspm.fr"}, {"web": "http://aftar.uaa.alaska.edu/jets2007/", "fax": "", "bibCode": " 2008ASPC..386.....R", "end": "2007-05-24", "title": "Extragalactic Jets:  Theory and Observation from Radio to Gamma Ray", "meetingNumber": "2098", "modified": "Jul 01, 2009 12:00:00 AM", "start": "2007-05-21", "GoogleMapsResponse": {"status": "OK", "results": [{"geometry": {"location": {"lat": 60.9433673, "lng": -149.1706934}, "viewport": {"northeast": {"lat": 60.948786, "lng": -149.154686}, "southwest": {"lat": 60.9379477, "lng": -149.1867008}}, "location_type": "APPROXIMATE"}, "address_components": [{"long_name": "Girdwood", "types": ["neighborhood", "political"], "short_name": "Girdwood"}, {"long_name": "Anchorage", "types": ["locality", "political"], "short_name": "Anchorage"}, {"long_name": "Anchorage", "types": ["administrative_area_level_2", "political"], "short_name": "Anchorage"}, {"long_name": "Alaska", "types": ["administrative_area_level_1", "political"], "short_name": "AK"}, {"long_name": "United States", "types": ["country", "political"], "short_name": "US"}, {"long_name": "99587", "types": ["postal_code"], "short_name": "99587"}], "formatted_address": "Girdwood, Anchorage, AK 99587, USA", "types": ["neighborhood", "political"]}]}, "phone": "907 786-1242", "contact": "Dr. Travis A. Rector", "location": "Girdwood, Alaska, USA", "address": "University of Alaska Anchorage, 3211 Providence Dr., Anchorage, AK, 99508", "keywords": "galaxies: jets", "ingested": "Oct 24, 2006 12:00:00 AM", "email": "rector@noao.edu"}, {"web": "http://www.iaus243.org", "fax": "+33 4 76 44 88 21", "bibCode": "", "end": "2007-05-25", "title": "IAU Symposium No.243 : Star-Disk Interaction in Young Stars", "meetingNumber": "2008", "modified": "Sep 21, 2006 12:00:00 AM", "start": "2007-05-21", "GoogleMapsResponse": {"status": "OK", "results": [{"geometry": {"location_type": "APPROXIMATE", "bounds": {"northeast": {"lat": 45.2143261, "lng": 5.753081}, "southwest": {"lat": 45.154005, "lng": 5.678003899999999}}, "viewport": {"northeast": {"lat": 45.2143261, "lng": 5.753081}, "southwest": {"lat": 45.154005, "lng": 5.678003899999999}}, "location": {"lat": 45.188529, "lng": 5.724524}}, "address_components": [{"long_name": "Grenoble", "types": ["locality", "political"], "short_name": "Grenoble"}, {"long_name": "Isere", "types": ["administrative_area_level_2", "political"], "short_name": "38"}, {"long_name": "Rhone-Alpes", "types": ["administrative_area_level_1", "political"], "short_name": "RA"}, {"long_name": "France", "types": ["country", "political"], "short_name": "FR"}], "formatted_address": "Grenoble, France", "types": ["locality", "political"]}]}, "phone": "+33 4 76 51 47 90", "contact": "Jerome Bouvier", "location": "Grenoble, France", "address": "Laboratoire Astrophysique de l'Observatoire de Grenoble, BP 53, Grenoble Cedex 9, France 38041", "keywords": "Young stars; magnetic fields; disk accretion; wind/jet outflows", "ingested": "Jun 29, 2006 12:00:00 AM", "email": "Jerome.Bouvier@obs.ujf-grenoble.fr"}, {"web": "", "fax": " +380-44-486-26-30", "bibCode": "", "end": "2007-05-25", "title": "7-th Annual International Conference : Relativistic Astrophysics, Gravitation and Cosmology", "meetingNumber": "2184", "modified": "Jul 01, 2009 12:00:00 AM", "start": "2007-05-23", "GoogleMapsResponse": {"status": "OK", "results": [{"geometry": {"location_type": "APPROXIMATE", "bounds": {"northeast": {"lat": 50.590798, "lng": 30.825941}, "southwest": {"lat": 50.213273, "lng": 30.2394401}}, "viewport": {"northeast": {"lat": 50.590798, "lng": 30.825941}, "southwest": {"lat": 50.213273, "lng": 30.2394401}}, "location": {"lat": 50.4501, "lng": 30.5234}}, "address_components": [{"long_name": "Kiev", "types": ["locality", "political"], "short_name": "Kiev"}, {"long_name": "Kyiv City", "types": ["administrative_area_level_2", "political"], "short_name": "Kyiv City"}, {"long_name": "Kyiv city", "types": ["administrative_area_level_1", "political"], "short_name": "Kyiv city"}, {"long_name": "Ukraine", "types": ["country", "political"], "short_name": "UA"}], "partial_match": true, "formatted_address": "Kiev, Kyiv city, Ukraine", "types": ["locality", "political"]}]}, "phone": "+380-44-486-26-91", "contact": "V. Zhdanov, B. Hnatyk", "location": "Kyiv Astronomical Observatory, Kyiv, Ukraine", "address": "Kyiv National Shevchenko University, Observatorna str., 3, Kyiv, 04053", "keywords": "high-energy astrophysics, gravitation, cosmology, general relativity, large-scale structure", "ingested": "Jan 19, 2007 12:00:00 AM", "email": " gravcos@observ.univ.kiev.ua"}, {"web": "http://www.cfa.harvard.edu/~kkorreck/snrconf.htm", "fax": "", "bibCode": "", "end": "2007-05-25", "title": "Endpoints and Interactions: Supernova Remnant Workshop", "meetingNumber": "2195", "modified": "Jan 31, 2007 12:00:00 AM", "start": "2007-05-24", "GoogleMapsResponse": {"status": "OK", "results": [{"geometry": {"location_type": "APPROXIMATE", "bounds": {"northeast": {"lat": 21.4012299, "lng": -157.6485225}, "southwest": {"lat": 21.2549062, "lng": -157.9494185}}, "viewport": {"northeast": {"lat": 21.4012299, "lng": -157.6485225}, "southwest": {"lat": 21.2549062, "lng": -157.9494185}}, "location": {"lat": 21.3069444, "lng": -157.8583333}}, "address_components": [{"long_name": "Honolulu", "types": ["locality", "political"], "short_name": "Honolulu"}, {"long_name": "Honolulu County", "types": ["administrative_area_level_2", "political"], "short_name": "Honolulu County"}, {"long_name": "Hawaii", "types": ["administrative_area_level_1", "political"], "short_name": "HI"}, {"long_name": "United States", "types": ["country", "political"], "short_name": "US"}], "formatted_address": "Honolulu, HI, USA", "types": ["locality", "political"]}]}, "phone": "", "contact": "Kelly Korreck", "location": "Honolulu, Hawaii, USA", "address": "", "keywords": "", "ingested": "Jan 31, 2007 12:00:00 AM", "email": "kkorreck@cfa.harvard.edu"}, {"web": "http://chamonix2007.ens-lyon.fr/", "fax": "33 4 72 72 87 87", "bibCode": "", "end": "2007-06-01", "title": "Structure Formation in the Universe: Galaxies, Stars, Planets", "meetingNumber": "2024", "modified": "Jul 10, 2006 12:00:00 AM", "start": "2007-05-27", "GoogleMapsResponse": {"status": "OK", "results": [{"geometry": {"location_type": "APPROXIMATE", "bounds": {"northeast": {"lat": 46.0311, "lng": 7.0450649}, "southwest": {"lat": 45.82815900000001, "lng": 6.81372}}, "viewport": {"northeast": {"lat": 46.0311, "lng": 7.0450649}, "southwest": {"lat": 45.82815900000001, "lng": 6.81372}}, "location": {"lat": 45.923697, "lng": 6.869433}}, "address_components": [{"long_name": "Chamonix", "types": ["locality", "political"], "short_name": "Chamonix"}, {"long_name": "Haute-Savoie", "types": ["administrative_area_level_2", "political"], "short_name": "74"}, {"long_name": "Rhone-Alpes", "types": ["administrative_area_level_1", "political"], "short_name": "RA"}, {"long_name": "France", "types": ["country", "political"], "short_name": "FR"}], "formatted_address": "Chamonix, France", "types": ["locality", "political"]}]}, "phone": "33 4 72 72 87 06", "contact": "Gilles Chabrier", "location": "Chamonix (France)", "address": "ENS-Lyon, 46 Allee d'Italie, Lyon, France, 69007", "keywords": "planets, stars, galaxies, brown dwarfs,formation and evolution; turbulence; MHD; hydrodynamics", "ingested": "Jul 10, 2006 12:00:00 AM", "email": "chabrier@ens-lyon.fr"}, {"web": "", "fax": "", "bibCode": "", "end": "2007-05-31", "title": "210th. AAS Meeting", "meetingNumber": "2057", "modified": "Aug 30, 2006 12:00:00 AM", "start": "2007-05-27", "GoogleMapsResponse": {"status": "OK", "results": [{"geometry": {"location_type": "APPROXIMATE", "bounds": {"northeast": {"lat": 21.4012299, "lng": -157.6485225}, "southwest": {"lat": 21.2549062, "lng": -157.9494185}}, "viewport": {"northeast": {"lat": 21.4012299, "lng": -157.6485225}, "southwest": {"lat": 21.2549062, "lng": -157.9494185}}, "location": {"lat": 21.3069444, "lng": -157.8583333}}, "address_components": [{"long_name": "Honolulu", "types": ["locality", "political"], "short_name": "Honolulu"}, {"long_name": "Honolulu County", "types": ["administrative_area_level_2", "political"], "short_name": "Honolulu County"}, {"long_name": "Hawaii", "types": ["administrative_area_level_1", "political"], "short_name": "HI"}, {"long_name": "United States", "types": ["country", "political"], "short_name": "US"}], "formatted_address": "Honolulu, HI, USA", "types": ["locality", "political"]}]}, "phone": "", "contact": "Kelli Gilmore", "location": "Honolulu, HI.", "address": "", "keywords": "AAS", "ingested": "Aug 30, 2006 12:00:00 AM", "email": "gilmore@aas.org"}, {"web": "http://www.vlti.org/", "fax": "+351-226089831", "bibCode": "", "end": "2007-06-08", "title": "Summer School: Circumstellar Disks and Planets at Very High Angular Resolution", "meetingNumber": "2009", "modified": "Jun 29, 2006 12:00:00 AM", "start": "2007-05-28", "GoogleMapsResponse": {"status": "OK", "results": [{"geometry": {"location_type": "APPROXIMATE", "bounds": {"northeast": {"lat": 42.1542048, "lng": -6.1902091}, "southwest": {"lat": 32.40374, "lng": -31.2753296}}, "viewport": {"northeast": {"lat": 42.1542048, "lng": -6.1902091}, "southwest": {"lat": 36.9601772, "lng": -9.5171107}}, "location": {"lat": 39.39987199999999, "lng": -8.224454}}, "address_components": [{"long_name": "Portugal", "types": ["country", "political"], "short_name": "PT"}], "formatted_address": "Portugal", "types": ["country", "political"]}]}, "phone": "+351-226089830", "contact": " Paulo J.V. Garcia & Sebastian Wolf", "location": "Portugal", "address": "Centro de Astrofisica da Universidade do Porto, Rua das Estrelas s/n, Porto, Portugal, 4150-762", "keywords": " interferometry, young stellar objects, young stars, circumstellar disks, planets, astrometry, high angular resolution", "ingested": "Jun 29, 2006 12:00:00 AM", "email": " pgarcia@astro.up.pt"}, {"web": "http://www.mat.ucm.es/UVConf", "fax": "34-91-3944615", "bibCode": "", "end": "2007-06-01", "title": "Space Astronomy: The UV window to the Universe\r\n(Dedicated to Willem Wamsteker)", "meetingNumber": "2108", "modified": "Nov 13, 2006 12:00:00 AM", "start": "2007-05-28", "GoogleMapsResponse": {"status": "OK", "results": [{"geometry": {"location_type": "APPROXIMATE", "bounds": {"northeast": {"lat": 40.5966461, "lng": -4.119541}, "southwest": {"lat": 40.5753723, "lng": -4.144981800000001}}, "viewport": {"northeast": {"lat": 40.5966461, "lng": -4.119541}, "southwest": {"lat": 40.5753723, "lng": -4.144981800000001}},