[{"web": "http://www.aas.org/%7Ehad/had.html", "fax": "", "bibCode": "", "end": "2004-01-05", "title": "AAS Historical Astronomy Division", "meetingNumber": "1394", "modified": "Sep 22, 2003 12:00:00 AM", "start": "2004-01-04", "GoogleMapsResponse": {"status": "OK", "results": [{"geometry": {"location_type": "APPROXIMATE", "bounds": {"northeast": {"lat": 33.8876179, "lng": -84.289389}, "southwest": {"lat": 33.6478079, "lng": -84.5518189}}, "viewport": {"northeast": {"lat": 33.8876179, "lng": -84.289389}, "southwest": {"lat": 33.6478079, "lng": -84.5518189}}, "location": {"lat": 33.7489954, "lng": -84.3879824}}, "address_components": [{"long_name": "Atlanta", "types": ["locality", "political"], "short_name": "Atlanta"}, {"long_name": "Fulton County", "types": ["administrative_area_level_2", "political"], "short_name": "Fulton County"}, {"long_name": "Georgia", "types": ["administrative_area_level_1", "political"], "short_name": "GA"}, {"long_name": "United States", "types": ["country", "political"], "short_name": "US"}], "formatted_address": "Atlanta, GA, USA", "types": ["locality", "political"]}]}, "phone": "", "contact": "", "location": "Atlanta, Georgia", "address": "", "keywords": "history", "ingested": "Sep 22, 2003 12:00:00 AM", "email": ""}, {"web": "", "fax": "91-484-2577595", "bibCode": "", "end": "2004-01-10", "title": "International Conference on Gravitation and Cosmology", "meetingNumber": "1374", "modified": "Jun 23, 2009 12:00:00 AM", "start": "2004-01-05", "GoogleMapsResponse": {"status": "OK", "results": [{"geometry": {"location_type": "APPROXIMATE", "bounds": {"northeast": {"lat": 9.9709351, "lng": 76.29669659999999}, "southwest": {"lat": 9.883738, "lng": 76.2370116}}, "viewport": {"northeast": {"lat": 9.9709351, "lng": 76.29669659999999}, "southwest": {"lat": 9.883738, "lng": 76.2370116}}, "location": {"lat": 9.9312328, "lng": 76.26730409999999}}, "address_components": [{"long_name": "Kochi", "types": ["locality", "political"], "short_name": "Kochi"}, {"long_name": "Ernakulam", "types": ["administrative_area_level_2", "political"], "short_name": "EKM"}, {"long_name": "Kerala", "types": ["administrative_area_level_1", "political"], "short_name": "KL"}, {"long_name": "India", "types": ["country", "political"], "short_name": "IN"}], "formatted_address": "Kochi, Kerala, India", "types": ["locality", "political"]}]}, "phone": "91-484-2575150", "contact": "", "location": "Kochi, Kerala, India", "address": "Department  of  Physics, Cochin  University  of  Science  and  Technology           , Kochi, Kerala, India, 682022,", "keywords": "gravitation, gravitational waves, cosmology", "ingested": "Aug 14, 2003 12:00:00 AM", "email": "icgc04@cusat.ac.in"}, {"web": "http://www.astro.northwestern.edu/AspenW04/", "fax": "970-920-1167", "bibCode": "", "end": "2004-01-17", "title": "Binary Radio Pulsars", "meetingNumber": "1402", "modified": "Sep 29, 2003 12:00:00 AM", "start": "2004-01-11", "phone": "970-925-2585", "contact": "", "location": "Aspen Center for Physics", "address": "Aspen Center for Physics, 700 West Gillespie St., Aspen, CO, 81611", "keywords": "pulsars", "ingested": "Sep 29, 2003 12:00:00 AM", "email": "jane@aspenphys.org"}, {"web": "", "fax": "410 - 338 4767", "bibCode": "", "end": "2004-01-14", "title": "Modest 4 - Modeling Dense Stellar Systems\r\n\r\n", "meetingNumber": "1303", "modified": "Mar 05, 2003 12:00:00 AM", "start": "2004-01-12", "phone": "410 - 338 4483", "contact": " Georges Meylan", "location": "Institute of Astronomy Lausanne and Geneva Observatory", "address": "Space Telescope Science Institute, 3700 San Martin Drive, Baltimore, MD, 21218,", "keywords": "", "ingested": "Mar 05, 2003 12:00:00 AM", "email": " gmeylan@stsci.edu"}, {"web": "", "fax": "+82-42-861-5610", "bibCode": "", "end": "2004-01-16", "title": "The APCTP Winter Workshop/School on Black Hole Astrophysics 2004: Magnetohydrodynamic Processes around Black Holes and their Observational Evidences\r\n\r\n", "meetingNumber": "1351", "modified": "Jun 23, 2009 12:00:00 AM", "start": "2004-01-13", "phone": "+82-42-865-3246", "contact": "Seok Jae Park", "location": "Pohang, Korea", "address": "Korea Astronomy Observatory, 61-1, Whaam-Dong, Youseong-Gu, Taejeon, Korea, 305-348", "keywords": "magnetohydrodynamic processes", "ingested": "Jun 26, 2003 12:00:00 AM", "email": "sjpark@kao.re.kr"}, {"web": "http://universe.nasa.gov/workshop", "fax": "301-286-1684", "bibCode": "", "end": "2004-01-16", "title": "Workshop on Studies of Dark Energy and Cosmology with X-ray Surveys", "meetingNumber": "1410", "modified": "Oct 09, 2003 12:00:00 AM", "start": "2004-01-15", "phone": "301-286-3527", "contact": "Keith Jahoda", "location": "Greenbelt Marriott, Greenbelt, MD. USA", "address": "GSFC, Code 662, Greenbelt, MD, 20771,", "keywords": "dark energy", "ingested": "Oct 09, 2003 12:00:00 AM", "email": "xraysurvey@athena.gsfc.nasa.gov"}, {"web": "", "fax": "808-947-2420", "bibCode": "", "end": "2004-01-18", "title": "Hawaii International Conference on Sciences\r\n\r\n", "meetingNumber": "1314", "modified": "Jun 23, 2009 12:00:00 AM", "start": "2004-01-15", "phone": "808-949-1542", "contact": "Andrew Burge", "location": "Renaissance Ilikai Waikiki Hotel, Honolulu, Hawaii USA", "address": "Hawaii International Conference on Sciences, PO Box 75036, Honolulu, HI, 96836", "keywords": "astronomy, astrophysics, physics", "ingested": "Mar 14, 2003 12:00:00 AM", "email": "sciences@hicsciences.org"}, {"web": "", "fax": "+64 9 3082377", "bibCode": "", "end": "2004-01-19", "title": "Hawaiian Gravitational Microlensing", "meetingNumber": "1433", "modified": "Jun 23, 2009 12:00:00 AM", "start": "2004-01-17", "phone": "+64 9 3737599 X86838", "contact": " Philip Yock", "location": "Ilikai Hotel, Waikiki, Hawaii, USA", "address": "University of Auckland, Tamaki Campus, Auckland, New Zealand,", "keywords": "microlensing", "ingested": "Nov 12, 2003 12:00:00 AM", "email": "p.yock@auckland.ac.nz"}, {"web": "http://home.fnal.gov/~frieman/Aspen", "fax": "630-840-8231", "bibCode": "", "end": "2004-01-24", "title": "The Large-scale Distribution of Mass and Light in the Universe\r\n\r\n", "meetingNumber": "1400", "modified": "Sep 25, 2003 12:00:00 AM", "start": "2004-01-19", "GoogleMapsResponse": {"status": "OK", "results": [{"geometry": {"location_type": "APPROXIMATE", "bounds": {"northeast": {"lat": 39.21978500000001, "lng": -106.8013911}, "southwest": {"lat": 39.1771779, "lng": -106.8720581}}, "viewport": {"northeast": {"lat": 39.21978500000001, "lng": -106.8013911}, "southwest": {"lat": 39.1771779, "lng": -106.8720581}}, "location": {"lat": 39.1910983, "lng": -106.8175387}}, "address_components": [{"long_name": "Aspen", "types": ["locality", "political"], "short_name": "Aspen"}, {"long_name": "Pitkin County", "types": ["administrative_area_level_2", "political"], "short_name": "Pitkin County"}, {"long_name": "Colorado", "types": ["administrative_area_level_1", "political"], "short_name": "CO"}, {"long_name": "United States", "types": ["country", "political"], "short_name": "US"}], "partial_match": true, "formatted_address": "Aspen, CO, USA", "types": ["locality", "political"]}]}, "phone": "630-840-2226", "contact": "Josh Frieman", "location": "Aspen Center for Physics,Aspen, Colorado, USA", "address": "Fermilab, PO Box 500, Batavia, Illinois, 60510,", "keywords": "Aspen, universe", "ingested": "Sep 25, 2003 12:00:00 AM", "email": "frieman@fnal.gov"}, {"web": "http://hea.iki.rssi.ru/Z-90/", "fax": "", "bibCode": " 2005PhyU...48..533V", "end": "2004-12-24", "title": "Cosmology and High Energy Astrophysics  (Zeldovich-90)", "meetingNumber": "1563", "modified": "Jul 28, 2009 12:00:00 AM", "start": "2004-01-20", "GoogleMapsResponse": {"status": "OK", "results": [{"geometry": {"location": {"lat": 55.65516299999999, "lng": 37.533631}, "viewport": {"northeast": {"lat": 55.65651198029149, "lng": 37.5349799802915}, "southwest": {"lat": 55.6538140197085, "lng": 37.5322820197085}}, "location_type": "APPROXIMATE"}, "address_components": [{"long_name": "Russian Space Research Institute", "types": ["point_of_interest", "establishment"], "short_name": "Russian Space Research Institute"}, {"long_name": "84/32", "types": ["street_address", "street_number"], "short_name": "84/32"}, {"long_name": "\u041f\u0440\u043e\u0444\u0441\u043e\u044e\u0437\u043d\u0430\u044f \u0443\u043b.", "types": ["route"], "short_name": "\u041f\u0440\u043e\u0444\u0441\u043e\u044e\u0437\u043d\u0430\u044f \u0443\u043b."}, {"long_name": "South-Western Administrative Okrug", "types": ["sublocality", "political"], "short_name": "South-Western Administrative Okrug"}, {"long_name": "\u0433. \u041c\u043e\u0441\u043a\u0432\u0430", "types": ["locality", "political"], "short_name": "\u0433. \u041c\u043e\u0441\u043a\u0432\u0430"}, {"long_name": "\u042e\u0433\u043e-\u0417\u0430\u043f\u0430\u0434\u043d\u044b\u0439 \u0410\u041e", "types": ["administrative_area_level_2", "political"], "short_name": "\u042e\u0433\u043e-\u0417\u0430\u043f\u0430\u0434\u043d\u044b\u0439 \u0410\u041e"}, {"long_name": "\u041c\u043e\u0441\u043a\u0432\u0430", "types": ["administrative_area_level_1", "political"], "short_name": "\u041c\u043e\u0441\u043a\u0432\u0430"}, {"long_name": "Russia", "types": ["country", "political"], "short_name": "RU"}, {"long_name": "117997", "types": ["postal_code"], "short_name": "117997"}], "formatted_address": "Russian Space Research Institute, \u041f\u0440\u043e\u0444\u0441\u043e\u044e\u0437\u043d\u0430\u044f \u0443\u043b., 84/32, \u0433. \u041c\u043e\u0441\u043a\u0432\u0430, Russia, 117997", "types": ["point_of_interest", "establishment"]}]}, "phone": "", "contact": "Z-90 SOC", "location": "Space Research Institute, Moscow, Russia", "address": "Space Research Institute, dep 52, 84/32 Profsoyuznaya, Moscow, Russia, 117799", "keywords": "cosmology, universe, physics, galaxies, astrophysics", "ingested": "Jun 30, 2004 12:00:00 AM", "email": "z90info@hea.iki.rssi.ru"}, {"web": "http://www.ipam.ucla.edu/programs/ai2004/", "fax": "310 206-2096", "bibCode": "", "end": "2004-01-30", "title": "Mathematical Challenges in Astronomical Imaging\r\n\r\n", "meetingNumber": "1431", "modified": "Nov 03, 2003 12:00:00 AM", "start": "2004-01-26", "GoogleMapsResponse": {"status": "OK", "results": [{"geometry": {"location": {"lat": 34.0641662, "lng": -118.442186}, "viewport": {"northeast": {"lat": 34.0655151802915, "lng": -118.4408370197085}, "southwest": {"lat": 34.0628172197085, "lng": -118.4435349802915}}, "location_type": "APPROXIMATE"}, "address_components": [{"long_name": "University of California Los Angeles", "types": ["point_of_interest", "establishment"], "short_name": "University of California Los Angeles"}, {"long_name": "52242", "types": ["subpremise"], "short_name": "52242"}, {"long_name": "University of California, Los Angeles", "types": ["establishment"], "short_name": "University of California, Los Angeles"}, {"long_name": "10833", "types": ["street_number"], "short_name": "10833"}, {"long_name": "Le Conte Avenue", "types": ["route"], "short_name": "Le Conte Ave"}, {"long_name": "Westwood", "types": ["neighborhood", "political"], "short_name": "Westwood"}, {"long_name": "Los Angeles", "types": ["locality", "political"], "short_name": "Los Angeles"}, {"long_name": "Los Angeles County", "types": ["administrative_area_level_2", "political"], "short_name": "Los Angeles County"}, {"long_name": "California", "types": ["administrative_area_level_1", "political"], "short_name": "CA"}, {"long_name": "United States", "types": ["country", "political"], "short_name": "US"}, {"long_name": "90095", "types": ["postal_code"], "short_name": "90095"}, {"long_name": "3075", "types": [], "short_name": "3075"}], "partial_match": true, "formatted_address": "University of California Los Angeles, University of California, Los Angeles, 10833 Le Conte Avenue #52242, Los Angeles, CA 90095, USA", "types": ["university", "point_of_interest", "establishment"]}, {"geometry": {"location": {"lat": 34.0742848, "lng": -118.440112}, "viewport": {"northeast": {"lat": 34.0756337802915, "lng": -118.4387630197085}, "southwest": {"lat": 34.0729358197085, "lng": -118.4414609802915}}, "location_type": "APPROXIMATE"}, "address_components": [{"long_name": "UCLA International Institute", "types": ["point_of_interest", "establishment"], "short_name": "UCLA International Institute"}, {"long_name": "University of California, Los Angeles", "types": ["establishment"], "short_name": "University of California, Los Angeles"}, {"long_name": "11248", "types": ["street_number"], "short_name": "11248"}, {"long_name": "Bunche Hall", "types": ["route"], "short_name": "Bunche Hall"}, {"long_name": "Westwood", "types": ["neighborhood", "political"], "short_name": "Westwood"}, {"long_name": "Los Angeles", "types": ["locality", "political"], "short_name": "Los Angeles"}, {"long_name": "Los Angeles County", "types": ["administrative_area_level_2", "political"], "short_name": "Los Angeles County"}, {"long_name": "California", "types": ["administrative_area_level_1", "political"], "short_name": "CA"}, {"long_name": "United States", "types": ["country", "political"], "short_name": "US"}, {"long_name": "90095", "types": ["postal_code"], "short_name": "90095"}, {"long_name": "0001", "types": [], "short_name": "0001"}], "partial_match": true, "formatted_address": "UCLA International Institute, University of California, Los Angeles, 11248 Bunche Hall, Los Angeles, CA 90095, USA", "types": ["university", "point_of_interest", "establishment"]}, {"geometry": {"location_type": "APPROXIMATE", "bounds": {"northeast": {"lat": 34.0782598, "lng": -118.4372222}, "southwest": {"lat": 34.0577617, "lng": -118.4555991}}, "viewport": {"northeast": {"lat": 34.0782598, "lng": -118.4372222}, "southwest": {"lat": 34.0577617, "lng": -118.4555991}}, "location": {"lat": 34.068921, "lng": -118.4451812}}, "address_components": [{"long_name": "University of California, Los Angeles", "types": ["establishment"], "short_name": "University of California, Los Angeles"}, {"long_name": "Los Angeles", "types": ["locality", "political"], "short_name": "Los Angeles"}, {"long_name": "Los Angeles County", "types": ["administrative_area_level_2", "political"], "short_name": "Los Angeles County"}, {"long_name": "CA", "types": ["administrative_area_level_1", "political"], "short_name": "CA"}, {"long_name": "United States", "types": ["country", "political"], "short_name": "US"}, {"long_name": "90095", "types": ["postal_code"], "short_name": "90095"}], "formatted_address": "University of California, Los Angeles, Los Angeles, CA 90095", "types": ["university", "establishment"]}, {"geometry": {"location": {"lat": 34.0729555, "lng": -118.438431}, "viewport": {"northeast": {"lat": 34.0743044802915, "lng": -118.4370820197085}, "southwest": {"lat": 34.0716065197085, "lng": -118.4397799802915}}, "location_type": "APPROXIMATE"}, "address_components": [{"long_name": "Hugh and Hazel Darling Law Library", "types": ["point_of_interest", "establishment"], "short_name": "Hugh and Hazel Darling Law Library"}, {"long_name": "1112", "types": ["subpremise"], "short_name": "1112"}, {"long_name": "University of California, Los Angeles", "types": ["establishment"], "short_name": "University of California, Los Angeles"}, {"long_name": "385", "types": ["street_number"], "short_name": "385"}, {"long_name": "Charles E Young Drive East", "types": ["route"], "short_name": "Charles E Young Dr E"}, {"long_name": "Westwood", "types": ["neighborhood", "political"], "short_name": "Westwood"}, {"long_name": "Los Angeles", "types": ["locality", "political"], "short_name": "Los Angeles"}, {"long_name": "Los Angeles County", "types": ["administrative_area_level_2", "political"], "short_name": "Los Angeles County"}, {"long_name": "California", "types": ["administrative_area_level_1", "political"], "short_name": "CA"}, {"long_name": "United States", "types": ["country", "political"], "short_name": "US"}, {"long_name": "90095", "types": ["postal_code"], "short_name": "90095"}], "partial_match": true, "formatted_address": "Hugh and Hazel Darling Law Library, University of California, Los Angeles, 385 Charles E Young Drive East #1112, Los Angeles, CA 90095, USA", "types": ["library", "point_of_interest", "establishment"]}, {"geometry": {"location": {"lat": 34.0743748, "lng": -118.4401137}, "viewport": {"northeast": {"lat": 34.0757237802915, "lng": -118.4387647197085}, "southwest": {"lat": 34.0730258197085, "lng": -118.4414626802915}}, "location_type": "APPROXIMATE"}, "address_components": [{"long_name": "Burkle Center for International Relations", "types": ["point_of_interest", "establishment"], "short_name": "Burkle Center for International Relations"}, {"long_name": "Bunche Hall", "types": ["premise"], "short_name": "Bunche Hall"}, {"long_name": "University of California, Los Angeles", "types": ["establishment"], "short_name": "University of California, Los Angeles"}, {"long_name": "11353", "types": ["street_number"], "short_name": "11353"}, {"long_name": "Westwood", "types": ["neighborhood", "political"], "short_name": "Westwood"}, {"long_name": "Los Angeles", "types": ["locality", "political"], "short_name": "Los Angeles"}, {"long_name": "Los Angeles County", "types": ["administrative_area_level_2", "political"], "short_name": "Los Angeles County"}, {"long_name": "California", "types": ["administrative_area_level_1", "political"], "short_name": "CA"}, {"long_name": "United States", "types": ["country", "political"], "short_name": "US"}, {"long_name": "90095", "types": ["postal_code"], "short_name": "90095"}], "partial_match": true, "formatted_address": "Burkle Center for International Relations, University of California, Los Angeles, Bunche Hall, 11353, Los Angeles, CA 90095, USA", "types": ["university", "point_of_interest", "establishment"]}, {"geometry": {"location": {"lat": 34.0663466, "lng": -118.4430604}, "viewport": {"northeast": {"lat": 34.0676955802915, "lng": -118.4417114197085}, "southwest": {"lat": 34.0649976197085, "lng": -118.4444093802915}}, "location_type": "APPROXIMATE"}, "address_components": [{"long_name": "UCLA Department of Psychiatry", "types": ["point_of_interest", "establishment"], "short_name": "UCLA Department of Psychiatry"}, {"long_name": "University of California, Los Angeles", "types": ["establishment"], "short_name": "University of California, Los Angeles"}, {"long_name": "760", "types": ["street_number"], "short_name": "760"}, {"long_name": "Westwood Plaza", "types": ["route"], "short_name": "Westwood Plaza"}, {"long_name": "Westwood", "types": ["neighborhood", "political"], "short_name": "Westwood"}, {"long_name": "Los Angeles", "types": ["locality", "political"], "short_name": "Los Angeles"}, {"long_name": "Los Angeles County", "types": ["administrative_area_level_2", "political"], "short_name": "Los Angeles County"}, {"long_name": "California", "types": ["administrative_area_level_1", "political"], "short_name": "CA"}, {"long_name": "United States", "types": ["country", "political"], "short_name": "US"}, {"long_name": "90095", "types": ["postal_code"], "short_name": "90095"}], "partial_match": true, "formatted_address": "UCLA Department of Psychiatry, University of California, Los Angeles, 760 Westwood Plaza, Los Angeles, CA 90095, USA", "types": ["university", "point_of_interest", "establishment"]}]}, "phone": "310 825-3320", "contact": "Mark Morris", "location": "UCLA, Los Angeles, California, USA", "address": "Division of Astronomy, UCLA, Box 951562, Los Angeles, CA, 90095-1562,", "keywords": "imaging, interferometry", "ingested": "Nov 03, 2003 12:00:00 AM", "email": "Mark Morris"}, {"web": "http://www.aoc.nrao.edu/events/xraydio", "fax": "+1-(505)835-7027", "bibCode": "", "end": "2004-02-06", "title": "X-Ray and Radio Connections\r\n\r\n", "meetingNumber": "1337", "modified": "May 07, 2003 12:00:00 AM", "start": "2004-02-03", "GoogleMapsResponse": {"status": "OK", "results": [{"geometry": {"location_type": "APPROXIMATE", "bounds": {"northeast": {"lat": 35.7540089, "lng": -105.894186}, "southwest": {"lat": 35.6109779, "lng": -106.0718861}}, "viewport": {"northeast": {"lat": 35.7540089, "lng": -105.894186}, "southwest": {"lat": 35.6109779, "lng": -106.0718861}}, "location": {"lat": 35.6869752, "lng": -105.937799}}, "address_components": [{"long_name": "Santa Fe", "types": ["locality", "political"], "short_name": "Santa Fe"}, {"long_name": "Santa Fe County", "types": ["administrative_area_level_2", "political"], "short_name": "Santa Fe County"}, {"long_name": "New Mexico", "types": ["administrative_area_level_1", "political"], "short_name": "NM"}, {"long_name": "United States", "types": ["country", "political"], "short_name": "US"}], "formatted_address": "Santa Fe, NM, USA", "types": ["locality", "political"]}, {"geometry": {"location_type": "APPROXIMATE", "bounds": {"northeast": {"lat": 29.4296259, "lng": -95.049268}, "southwest": {"lat": 29.349821, "lng": -95.192341}}, "viewport": {"northeast": {"lat": 29.4296259, "lng": -95.049268}, "southwest": {"lat": 29.349821, "lng": -95.192341}}, "location": {"lat": 29.3780129, "lng": -95.1057625}}, "address_components": [{"long_name": "Santa Fe", "types": ["locality", "political"], "short_name": "Santa Fe"}, {"long_name": "Galveston County", "types": ["administrative_area_level_2", "political"], "short_name": "Galveston County"}, {"long_name": "Texas", "types": ["administrative_area_level_1", "political"], "short_name": "TX"}, {"long_name": "United States", "types": ["country", "political"], "short_name": "US"}], "formatted_address": "Santa Fe, TX, USA", "types": ["locality", "political"]}, {"geometry": {"location": {"lat": 39.36892890000001, "lng": -91.8190537}, "viewport": {"northeast": {"lat": 39.37027788029151, "lng": -91.81770471970849}, "southwest": {"lat": 39.36757991970851, "lng": -91.8204026802915}}, "location_type": "APPROXIMATE"}, "address_components": [{"long_name": "Santa Fe", "types": ["locality", "political"], "short_name": "Santa Fe"}, {"long_name": "South Fork", "types": ["administrative_area_level_3", "political"], "short_name": "South Fork"}, {"long_name": "Monroe County", "types": ["administrative_area_level_2", "political"], "short_name": "Monroe County"}, {"long_name": "Missouri", "types": ["administrative_area_level_1", "political"], "short_name": "MO"}, {"long_name": "United States", "types": ["country", "political"], "short_name": "US"}, {"long_name": "65282", "types": ["postal_code"], "short_name": "65282"}], "formatted_address": "Santa Fe, MO 65282, USA", "types": ["locality", "political"]}, {"geometry": {"location": {"lat": 35.735069, "lng": -87.12806259999999}, "viewport": {"northeast": {"lat": 35.7364179802915, "lng": -87.1267136197085}, "southwest": {"lat": 35.7337200197085, "lng": -87.1294115802915}}, "location_type": "APPROXIMATE"}, "address_components": [{"long_name": "Santa Fe", "types": ["locality", "political"], "short_name": "Santa Fe"}, {"long_name": "Maury County", "types": ["administrative_area_level_2", "political"], "short_name": "Maury County"}, {"long_name": "Tennessee", "types": ["administrative_area_level_1", "political"], "short_name": "TN"}, {"long_name": "United States", "types": ["country", "political"], "short_name": "US"}, {"long_name": "38482", "types": ["postal_code"], "short_name": "38482"}], "formatted_address": "Santa Fe, TN 38482, USA", "types": ["locality", "political"]}]}, "phone": "+1-(505)835-7000", "contact": "Lorant Sjouwerman or Kristy Dyer", "location": "Santa Fe", "address": "NRAO, PO Box O, Socorro, NM, 87801", "keywords": "", "ingested": "May 06, 2003 12:00:00 AM", "email": "  xraydio@aoc.nrao.edu"}, {"web": "", "fax": "+36 1 3722940", "bibCode": " 2004PADEU..14.....F", "end": "2004-02-07", "title": "British - Hungarian N+N Workshop for Young Researchers on Computer Processing and use of Satellite Data in Astronomy and Astrophysics\r\n\r\n\r\n\r\n", "meetingNumber": "1439", "modified": "Jul 28, 2009 12:00:00 AM", "start": "2004-02-05", "GoogleMapsResponse": {"status": "OK", "results": [{"geometry": {"location_type": "APPROXIMATE", "bounds": {"northeast": {"lat": 47.6130119, "lng": 19.334505}, "southwest": {"lat": 47.349415, "lng": 18.9261011}}, "viewport": {"northeast": {"lat": 47.6130119, "lng": 19.334505}, "southwest": {"lat": 47.349415, "lng": 18.9261011}}, "location": {"lat": 47.497912, "lng": 19.040235}}, "address_components": [{"long_name": "Budapest", "types": ["locality", "political"], "short_name": "Bp"}, {"long_name": "Budapest", "types": ["administrative_area_level_2", "political"], "short_name": "Budapest"}, {"long_name": "Budapest", "types": ["administrative_area_level_1", "political"], "short_name": "Budapest"}, {"long_name": "Hungary", "types": ["country", "political"], "short_name": "HU"}], "formatted_address": "Budapest, Hungary", "types": ["locality", "political"]}]}, "phone": "+36 20 3404907", "contact": "Dr K. Petrovay", "location": "Budapest, Hungary", "address": "Eotvos University, Dept. of Astronomy, P.O. Box 32, Budapest, H-1518, ,", "keywords": "data processing, satellite data, SOHO, TRACE, Chandra, Voyager, SPSS, CDS, ADS, WMAP, RHESSI", "ingested": "Nov 21, 2003 12:00:00 AM", "email": "K.Petrovay@astro.elte.hu"}, {"web": "http://heasarc.gsfc.nasa.gov/docs/heasarc/polar/polar.html", "fax": "301-286-1684", "bibCode": "", "end": "2004-02-11", "title": "X-ray Polarimetry of Astrophysical Sources\r\n\r\n", "meetingNumber": "1379", "modified": "Sep 04, 2003 12:00:00 AM", "start": "2004-02-09", "GoogleMapsResponse": {"status": "OK", "results": [{"geometry": {"location_type": "APPROXIMATE", "bounds": {"northeast": {"lat": 37.4220815, "lng": -122.1934787}, "southwest": {"lat": 37.4120784, "lng": -122.2394509}}, "viewport": {"northeast": {"lat": 37.4220815, "lng": -122.1934787}, "southwest": {"lat": 37.4120784, "lng": -122.2394509}}, "location": {"lat": 37.4185193, "lng": -122.2055072}}, "address_components": [{"long_name": "SLAC National Accelerator Laboratory", "types": ["establishment"], "short_name": "SLAC National Accelerator Laboratory"}, {"long_name": "2575", "types": ["street_number"], "short_name": "2575"}, {"long_name": "Sand Hill Road", "types": ["route"], "short_name": "Sand Hill Rd"}, {"long_name": "Menlo Park", "types": ["locality", "political"], "short_name": "Menlo Park"}, {"long_name": "San Mateo County", "types": ["administrative_area_level_2", "political"], "short_name": "San Mateo County"}, {"long_name": "California", "types": ["administrative_area_level_1", "political"], "short_name": "CA"}, {"long_name": "United States", "types": ["country", "political"], "short_name": "US"}, {"long_name": "94025", "types": ["postal_code"], "short_name": "94025"}, {"long_name": "7015", "types": [], "short_name": "7015"}], "partial_match": true, "formatted_address": "SLAC National Accelerator Laboratory, 2575 Sand Hill Road, Menlo Park, CA 94025, USA", "types": ["university", "establishment"]}]}, "phone": "301-286-3680", "contact": "Tim Kallman", "location": "SLAC, Stanford, California", "address": "Laboratory for High Energy Astrophysics, NASA/GSFC, Code 662, NASA/GSFC, Greenbelt, MD, 20771,", "keywords": "X-rays, Gamma-rays, polarimetry", "ingested": "Sep 04, 2003 12:00:00 AM", "email": "polnwkshp@milkyway.gsfc.nasa.gov"}, {"web": "", "fax": "+44 1865 273390", "bibCode": "", "end": "2004-02-17", "title": "The Impact of Active Galaxies on the Universe at Large\r\n\r\n", "meetingNumber": "1189", "modified": "Jun 23, 2009 12:00:00 AM", "start": "2004-02-16", "GoogleMapsResponse": {"status": "OK", "results": [{"geometry": {"location": {"lat": 51.5058629, "lng": -0.132621}, "viewport": {"northeast": {"lat": 51.50721188029151, "lng": -0.131272019708498}, "southwest": {"lat": 51.50451391970851, "lng": -0.133969980291502}}, "location_type": "APPROXIMATE"}, "address_components": [{"long_name": "The Royal Society", "types": ["premise"], "short_name": "The Royal Society"}, {"long_name": "6", "types": ["street_number"], "short_name": "6"}, {"long_name": "Carlton House Terrace", "types": ["route"], "short_name": "Carlton House Terrace"}, {"long_name": "St. James's", "types": ["neighborhood", "political"], "short_name": "St. James's"}, {"long_name": "Greater London", "types": ["administrative_area_level_2", "political"], "short_name": "Gt Lon"}, {"long_name": "United Kingdom", "types": ["country", "political"], "short_name": "GB"}, {"long_name": "SW1Y 5AG", "types": ["postal_code"], "short_name": "SW1Y 5AG"}, {"long_name": "London", "types": ["postal_town"], "short_name": "London"}], "partial_match": true, "formatted_address": "The Royal Society, 6 Carlton House Terrace, St. James's, London SW1Y 5AG, UK", "types": ["premise"]}, {"geometry": {"location": {"lat": 51.5088786, "lng": -0.1388878}, "viewport": {"northeast": {"lat": 51.5102275802915, "lng": -0.137538819708498}, "southwest": {"lat": 51.5075296197085, "lng": -0.140236780291502}}, "location_type": "APPROXIMATE"}, "address_components": [{"long_name": "Royal Society Of Chemistry", "types": ["point_of_interest", "establishment"], "short_name": "Royal Society Of Chemistry"}, {"long_name": "Burlington House", "types": ["premise"], "short_name": "Burlington House"}, {"long_name": "Piccadilly", "types": ["route"], "short_name": "Piccadilly"}, {"long_name": "Mayfair", "types": ["neighborhood", "political"], "short_name": "Mayfair"}, {"long_name": "Greater London", "types": ["administrative_area_level_2", "political"], "short_name": "Gt Lon"}, {"long_name": "United Kingdom", "types": ["country", "political"], "short_name": "GB"}, {"long_name": "W1J 0BA", "types": ["postal_code"], "short_name": "W1J 0BA"}, {"long_name": "London", "types": ["postal_town"], "short_name": "London"}], "partial_match": true, "formatted_address": "Royal Society Of Chemistry, Burlington House, Piccadilly, Mayfair, London W1J 0BA, UK", "types": ["point_of_interest", "establishment"]}]}, "phone": "+44 1865 273308", "contact": "Katherine Hardaker, Events Officer", "location": "Royal Society, London", "address": "The Royal Society, 6-9 Carlton House Terrace, London SW1Y 5AG", "keywords": "active galaxies; large scale structure", "ingested": "Aug 28, 2002 12:00:00 AM", "email": " Katherine.Hardaker@royalsoc.ac.uk"}, {"web": "", "fax": "+49-89-30000-3569", "bibCode": "2004ESASP.552.....S", "end": "2004-02-20", "title": "The 5th Integral Workshop: The Integral Universe", "meetingNumber": "1218", "modified": "Jul 28, 2009 12:00:00 AM", "start": "2004-02-16", "GoogleMapsResponse": {"status": "OK", "results": [{"geometry": {"location": {"lat": 48.14143199999999, "lng": 11.5806008}, "viewport": {"northeast": {"lat": 48.1427809802915, "lng": 11.5819497802915}, "southwest": {"lat": 48.1400830197085, "lng": 11.5792518197085}}, "location_type": "APPROXIMATE"}, "address_components": [{"long_name": "Bavarian Academy of Sciences and Humanities", "types": ["point_of_interest", "establishment"], "short_name": "Bavarian Academy of Sciences and Humanities"}, {"long_name": "11", "types": ["street_number"], "short_name": "11"}, {"long_name": "Alfons-Goppel-Stra\u00dfe", "types": ["route"], "short_name": "Alfons-Goppel-Stra\u00dfe"}, {"long_name": "M\u00fcnchen", "types": ["sublocality", "political"], "short_name": "M\u00fcnchen"}, {"long_name": "Munich", "types": ["locality", "political"], "short_name": "M"}, {"long_name": "Munich", "types": ["administrative_area_level_3", "political"], "short_name": "M"}, {"long_name": "Upper Bavaria", "types": ["administrative_area_level_2", "political"], "short_name": "Upper Bavaria"}, {"long_name": "Bavaria", "types": ["administrative_area_level_1", "political"], "short_name": "BY"}, {"long_name": "Germany", "types": ["country", "political"], "short_name": "DE"}, {"long_name": "80539", "types": ["postal_code"], "short_name": "80539"}], "formatted_address": "Bavarian Academy of Sciences and Humanities, Alfons-Goppel-Stra\u00dfe 11, 80539 Munich, Germany", "types": ["point_of_interest", "establishment"]}]}, "phone": "+49-89-30000-3578", "contact": "Dr. Volker Schoenfelder", "location": "Munich, Germany, Bavarian Academy of Sciences", "address": "Max-Planck-Institut fuer extraterrestrische Physik, Postfach 1312, 85741 Garching, Germany", "keywords": "Gamma-Ray Astrophysics", "ingested": "Oct 07, 2002 12:00:00 AM", "email": "vos@mpe.mpg.de"}, {"web": "", "fax": "52+55+56 16 06 53", "bibCode": " 2005RMxAC..24.....H", "end": "2004-02-18", "title": "Second International Workshop on Science with the GTC: Science with GTC 1st-light Instruments and the LMT \r\n\r\n", "meetingNumber": "1472", "modified": "Jul 28, 2009 12:00:00 AM", "start": "2004-02-16", "GoogleMapsResponse": {"status": "OK", "results": [{"geometry": {"location_type": "APPROXIMATE", "bounds": {"northeast": {"lat": 19.5919189, "lng": -98.9401855}, "southwest": {"lat": 19.0482787, "lng": -99.3641835}}, "viewport": {"northeast": {"lat": 19.5919189, "lng": -98.9401855}, "southwest": {"lat": 19.0482787, "lng": -99.3641835}}, "location": {"lat": 19.4326077, "lng": -99.133208}}, "address_components": [{"long_name": "Mexico City", "types": ["locality", "political"], "short_name": "Mexico City"}, {"long_name": "Federal District", "types": ["administrative_area_level_1", "political"], "short_name": "D.F."}, {"long_name": "Mexico", "types": ["country", "political"], "short_name": "MX"}], "formatted_address": "Mexico City, Federal District, Mexico", "types": ["locality", "political"]}, {"geometry": {"location_type": "APPROXIMATE", "bounds": {"northeast": {"lat": 39.20780389999999, "lng": -91.8054779}, "southwest": {"lat": 39.1116249, "lng": -91.923513}}, "viewport": {"northeast": {"lat": 39.20780389999999, "lng": -91.8054779}, "southwest": {"lat": 39.1116249, "lng": -91.923513}}, "location": {"lat": 39.1730652, "lng": -91.887271}}, "address_components": [{"long_name": "Mexico", "types": ["locality", "political"], "short_name": "Mexico"}, {"long_name": "Audrain County", "types": ["administrative_area_level_2", "political"], "short_name": "Audrain County"}, {"long_name": "Missouri", "types": ["administrative_area_level_1", "political"], "short_name": "MO"}, {"long_name": "United States", "types": ["country", "political"], "short_name": "US"}, {"long_name": "65265", "types": ["postal_code"], "short_name": "65265"}], "formatted_address": "Mexico, MO 65265, USA", "types": ["locality", "political"]}]}, "phone": "52+55+56 22 39 36", "contact": "Jesus Gonzalez", "location": "Mexico City", "address": "Instituto de Astronomia, UNAM, Ciudad Universitaria, Mexico City, Mexico, 04510,", "keywords": "GTC, LMT", "ingested": "Jan 20, 2004 12:00:00 AM", "email": " gtcmex03@astroscu.unam.mx"}, {"web": "", "fax": "+61-2-6125-0260", "bibCode": "", "end": "2004-02-19", "title": "Planetary Timescales: From Stardust to Continents. Elizabeth and Frederick White Conference.\r\n\r\n", "meetingNumber": "1416", "modified": "Jun 23, 2009 12:00:00 AM", "start": "2004-02-16", "GoogleMapsResponse": {"status": "OK", "results": [{"geometry": {"location": {"lat": -35.2834284, "lng": 149.1238129}, "viewport": {"northeast": {"lat": -35.2820794197085, "lng": 149.1251618802915}, "southwest": {"lat": -35.28477738029149, "lng": 149.1224639197085}}, "location_type": "APPROXIMATE"}, "address_components": [{"long_name": "Australian Academy of Science", "types": ["point_of_interest", "establishment"], "short_name": "Australian Academy of Science"}, {"long_name": "9", "types": ["street_number"], "short_name": "9"}, {"long_name": "Gordon St", "types": ["route"], "short_name": "Gordon St"}, {"long_name": "Acton", "types": ["locality", "political"], "short_name": "Acton"}, {"long_name": "ACT", "types": ["administrative_area_level_1", "political"], "short_name": "ACT"}, {"long_name": "Australia", "types": ["country", "political"], "short_name": "AU"}, {"long_name": "2601", "types": ["postal_code"], "short_name": "2601"}], "formatted_address": "Australian Academy of Science, 9 Gordon St, Acton ACT 2601", "types": ["point_of_interest", "establishment"]}]}, "phone": " +61-2-6125-0234", "contact": "Ulyana Dyudina", "location": "Australian Academy of Science, Canberra, Australia", "address": "RSAA, Australian National University, Mt Stromlo Observatory, Cotter Rd., Weston, ACT, 2611,", "keywords": "planets, timescales, protostellar, protoplanetary disk,solar nebula", "ingested": "Oct 15, 2003 12:00:00 AM", "email": "ulyana@mso.anu.edu.au"}, {"web": "", "fax": "310 563-3004", "bibCode": "", "end": "2004-02-26", "title": "Planetary Defense Conference: Protecting Earth from Asteroids\r\n\r\n", "meetingNumber": "1286", "modified": "Jun 25, 2009 12:00:00 AM", "start": "2004-02-23", "phone": "310 336-1135", "contact": "Dr. William H. Ailor", "location": "Garden Grove, CA", "address": "The Aerospace Corporation, P.O. Box 92957, Los Angeles, CA, 90009,", "keywords": "asteroids, comets, NEO, NEOs, Near Earth Objects, impacts, collisions,mitigation, deflection, nuclear, orbits, spacecraft, systems, systems engineering", "ingested": "Feb 10, 2003 12:00:00 AM", "email": "william.h.ailor@aero.org"}, {"web": "", "fax": "7-095-333-23-78", "bibCode": "", "end": "2004-03-06", "title": "The Future of Life and the Future of our Civilization\r\n\r\n", "meetingNumber": "1388", "modified": "Jun 25, 2009 12:00:00 AM", "start": "2004-02-28", "phone": "7-095-333-33-66", "contact": "Professor Vladimir Burdyuzha", "location": "Aristotle University of Thessaloniki, Greece", "address": "Astro-Space Center, Lebedev Physical Institute, Profsoyuznaya str. 84/32, Moscow, Russia, 117810", "keywords": "cosmology, sociology, medicine", "ingested": "Sep 22, 2003 12:00:00 AM", "email": "burdyuzh@asc.rssi.ru"}, {"web": "http://webusers.ct.astro.it/abo/couette04/", "fax": "+39 095330592", "bibCode": "2004AIPC..733.....R", "end": "2004-03-02", "title": "MHD Couette Flows: Experiments and Models\r\n\r\n", "meetingNumber": "1450", "modified": "Jul 28, 2009 12:00:00 AM", "start": "2004-02-29", "phone": " +39 0957332319", "contact": "Alfio Bonanno", "location": "Acitrezza, Catania, ITALY", "address": "INAF - Osservatorio Astrofisico di Catania, Via. S.Sofia 78, Catania, ITALY, 95123,", "keywords": " Magnetorotational instability, Experiments, Dynamo theory", "ingested": "Dec 18, 2003 12:00:00 AM", "email": "abo@ct.astro.it"}, {"web": "", "fax": "55 51 3316 7286", "bibCode": " 2005Obs...125..409K", "end": "2004-03-05", "title": "The Interplay among Black Holes, Stars and ISM in Galactic Nuclei\r\n\r\n", "meetingNumber": "1325", "modified": "Jul 28, 2009 12:00:00 AM", "start": "2004-03-01", "GoogleMapsResponse": {"status": "OK", "results": [{"geometry": {"location_type": "APPROXIMATE", "bounds": {"northeast": {"lat": -29.3257961, "lng": -50.8271641}, "southwest": {"lat": -29.4336563, "lng": -50.9057725}}, "viewport": {"northeast": {"lat": -29.3257961, "lng": -50.8271641}, "southwest": {"lat": -29.4336563, "lng": -50.9057725}}, "location": {"lat": -29.3738509, "lng": -50.8766699}}, "address_components": [{"long_name": "Gramado", "types": ["locality", "political"], "short_name": "Gramado"}, {"long_name": "Gramado", "types": ["administrative_area_level_2", "political"], "short_name": "Gramado"}, {"long_name": "Rio Grande do Sul", "types": ["administrative_area_level_1", "political"], "short_name": "RS"}, {"long_name": "Brazil", "types": ["country", "political"], "short_name": "BR"}], "partial_match": true, "formatted_address": "Gramado - Rio Grande do Sul, Brazil", "types": ["locality", "political"]}, {"geometry": {"location": {"lat": -28.4, "lng": -52.15}, "viewport": {"northeast": {"lat": -28.3986510197085, "lng": -52.1486510197085}, "southwest": {"lat": -28.4013489802915, "lng": -52.1513489802915}}, "location_type": "APPROXIMATE"}, "address_components": [{"long_name": "Gramado", "types": ["locality", "political"], "short_name": "Gramado"}, {"long_name": "Rio Grande do Sul", "types": ["administrative_area_level_1", "political"], "short_name": "RS"}, {"long_name": "Brazil", "types": ["country", "political"], "short_name": "BR"}], "partial_match": true, "formatted_address": "Gramado - Rio Grande do Sul, Brazil", "types": ["locality", "political"]}, {"geometry": {"location": {"lat": -29.366667, "lng": -52.98333299999999}, "viewport": {"northeast": {"lat": -29.3653180197085, "lng": -52.9819840197085}, "southwest": {"lat": -29.3680159802915, "lng": -52.9846819802915}}, "location_type": "APPROXIMATE"}, "address_components": [{"long_name": "Gramado", "types": ["locality", "political"], "short_name": "Gramado"}, {"long_name": "Rio Grande do Sul", "types": ["administrative_area_level_1", "political"], "short_name": "RS"}, {"long_name": "Brazil", "types": ["country", "political"], "short_name": "BR"}], "partial_match": true, "formatted_address": "Gramado - Rio Grande do Sul, Brazil", "types": ["locality", "political"]}, {"geometry": {"location": {"lat": -29.3697732, "lng": -53.396645}, "viewport": {"northeast": {"lat": -29.3684242197085, "lng": -53.3952960197085}, "southwest": {"lat": -29.3711221802915, "lng": -53.3979939802915}}, "location_type": "APPROXIMATE"}, "address_components": [{"long_name": "Gramado", "types": ["locality", "political"], "short_name": "Gramado"}, {"long_name": "Nova Palma", "types": ["administrative_area_level_2", "political"], "short_name": "Nova Palma"}, {"long_name": "Rio Grande do Sul", "types": ["administrative_area_level_1", "political"], "short_name": "RS"}, {"long_name": "Brazil", "types": ["country", "political"], "short_name": "BR"}], "partial_match": true, "formatted_address": "Gramado - Rio Grande do Sul, Brazil", "types": ["locality", "political"]}]}, "phone": "55 51 3316 6443", "contact": "Thaisa Storchi Bergmann", "location": "Hotel Serrano, Gramado, RS, Brasil", "address": "Instituto de Fisica - UFRGS - Brasil, Campus do Vale - CP 15051, Porto Alegre, RS - Brasil, 91 501-970", "keywords": "galactic nuclei", "ingested": "Apr 07, 2003 12:00:00 AM", "email": " bhsign@if.ufrgs.br"}, {"web": "http://www.eventmakeronline.com/conf/view/index.asp?meetingid=14", "fax": "", "bibCode": "", "end": "2004-03-13", "title": "5th International Conference on High Energy Density Laboratory Astrophysics \r\n\r\n", "meetingNumber": "1432", "modified": "Jun 25, 2009 12:00:00 AM", "start": "2004-03-10", "GoogleMapsResponse": {"status": "OK", "results": [{"geometry": {"location_type": "APPROXIMATE", "bounds": {"northeast": {"lat": 32.32016610000001, "lng": -110.708204}, "southwest": {"lat": 31.9916539, "lng": -111.059406}}, "viewport": {"northeast": {"lat": 32.32016490000001, "lng": -110.708204}, "southwest": {"lat": 31.9916539, "lng": -111.059406}}, "location": {"lat": 32.2217429, "lng": -110.926479}}, "address_components": [{"long_name": "Tucson", "types": ["locality", "political"], "short_name": "Tucson"}, {"long_name": "Pima County", "types": ["administrative_area_level_2", "political"], "short_name": "Pima County"}, {"long_name": "Arizona", "types": ["administrative_area_level_1", "political"], "short_name": "AZ"}, {"long_name": "United States", "types": ["country", "political"], "short_name": "US"}], "formatted_address": "Tucson, AZ, USA", "types": ["locality", "political"]}]}, "phone": "585-275-1717", "contact": "Adam Frank", "location": "Tucson, Arizona", "address": "University of Rochester, Rochester, 14627-0171,", "keywords": "High Energy Astrophysics, Supernova, Gamma Ray Burts, jets", "ingested": "Nov 04, 2003 12:00:00 AM", "email": "afrank@pas.rochester.edu"}, {"web": "http://www.iauc195.to.infn.it", "fax": "+39-011-658444", "bibCode": "2004ogci.conf.....D", "end": "2004-03-16", "title": "IAU Colloquium No. 195: Outskirts of Galaxy Clusters: Intense Life in the Suburbs\r\n\r\n\r\n\r\n", "meetingNumber": "1423", "modified": "Jul 29, 2009 12:00:00 AM", "start": "2004-03-12", "GoogleMapsResponse": {"status": "OK", "results": [{"geometry": {"location_type": "APPROXIMATE", "bounds": {"northeast": {"lat": 45.1335014, "lng": 7.7623282}, "southwest": {"lat": 45.00677659999999, "lng": 7.5778502}}, "viewport": {"northeast": {"lat": 45.1335014, "lng": 7.7623282}, "southwest": {"lat": 45.00677659999999, "lng": 7.5778502}}, "location": {"lat": 45.07098200000001, "lng": 7.685676}}, "address_components": [{"long_name": "Turin", "types": ["locality", "political"], "short_name": "Turin"}, {"long_name": "Turin", "types": ["administrative_area_level_3", "political"], "short_name": "Turin"}, {"long_name": "Turin", "types": ["administrative_area_level_2", "political"], "short_name": "TO"}, {"long_name": "Piedmont", "types": ["administrative_area_level_1", "political"], "short_name": "Piedmont"}, {"long_name": "Italy", "types": ["country", "political"], "short_name": "IT"}], "formatted_address": "Turin, Italy", "types": ["locality", "political"]}]}, "phone": "", "contact": "Antonaldo Diaferio", "location": "Torino, Italy", "address": "Universita' di Torino, Dip. Fisica Generale, Via P. Giuria 1, Torino, TO, I-10125,", "keywords": "cosmic web, galaxy clusters, galaxies", "ingested": "Oct 21, 2003 12:00:00 AM", "email": "iauc195@ph.unito.it"}, {"web": "http://www.pmodwrc.ch/pmod.php?topic=saas_prelim", "fax": "+41 81 417 51 00", "bibCode": "2005ssac.confD...5R", "end": "2004-03-20", "title": "The Sun, Solar Analogs and the Climate\r\n\r\n", "meetingNumber": "1331", "modified": "Jul 29, 2009 12:00:00 AM", "start": "2004-03-15", "GoogleMapsResponse": {"status": "OK", "results": [{"geometry": {"location_type": "APPROXIMATE", "bounds": {"northeast": {"lat": 46.85958, "lng": 9.9670901}, "southwest": {"lat": 46.6702399, "lng": 9.720749999999999}}, "viewport": {"northeast": {"lat": 46.85958, "lng": 9.9670901}, "southwest": {"lat": 46.6702399, "lng": 9.720749999999999}}, "location": {"lat": 46.8001204, "lng": 9.830889599999999}}, "address_components": [{"long_name": "Davos", "types": ["locality", "political"], "short_name": "Davos"}, {"long_name": "Pr\u00e4ttigau/Davos District", "types": ["administrative_area_level_2", "political"], "short_name": "Pr\u00e4ttigau/Davos District"}, {"long_name": "Grisons", "types": ["administrative_area_level_1", "political"], "short_name": "GR"}, {"long_name": "Switzerland", "types": ["country", "political"], "short_name": "CH"}], "formatted_address": "Davos, Switzerland", "types": ["locality", "political"]}]}, "phone": "+41 81 417 51 11", "contact": "Isabelle R\u00fcedi", "location": "Davos, Switzerland", "address": "PMOD/WRC, Dorfstrasse 33, Davos Dorf, GR, 7260,", "keywords": "Sun, Solar analogs, Climate", "ingested": "Apr 22, 2003 12:00:00 AM", "email": "i.ruedi@pmodwrc.ch"}, {"web": "", "fax": "805/893-3486", "bibCode": "", "end": "2004-03-19", "title": "Planet Formation : Terrestrial and Extra Solar", "meetingNumber": "1446", "modified": "Jun 25, 2009 12:00:00 AM", "start": "2004-03-15", "GoogleMapsResponse": {"status": "OK", "results": [{"geometry": {"location_type": "APPROXIMATE", "bounds": {"northeast": {"lat": 34.4235783, "lng": -119.8394436}, "southwest": {"lat": 34.4038983, "lng": -119.8815405}}, "viewport": {"northeast": {"lat": 34.4235783, "lng": -119.8394436}, "southwest": {"lat": 34.4038983, "lng": -119.8815405}}, "location": {"lat": 34.4139629, "lng": -119.848947}}, "address_components": [{"long_name": "University of California, Santa Barbara", "types": ["establishment"], "short_name": "UCSB"}, {"long_name": "Santa Barbara", "types": ["locality", "political"], "short_name": "Santa Barbara"}, {"long_name": "Santa Barbara County", "types": ["administrative_area_level_2", "political"], "short_name": "Santa Barbara County"}, {"long_name": "CA", "types": ["administrative_area_level_1", "political"], "short_name": "CA"}, {"long_name": "United States", "types": ["country", "political"], "short_name": "US"}, {"long_name": "93106", "types": ["postal_code"], "short_name": "93106"}], "partial_match": true, "formatted_address": "University of California, Santa Barbara, Santa Barbara, CA 93106", "types": ["university", "establishment"]}]}, "phone": "805/893-5422", "contact": "Sue Alemdar", "location": "Kavli Institute for Theoretical Physics, UC Santa Barbara", "address": "Kavli Institute for Theoretical Physics, University of California, Santa Barbara, California, 93106-4030", "keywords": "planets", "ingested": "Dec 15, 2003 12:00:00 AM", "email": "sue@kitp.ucsb.edu"}, {"web": "", "fax": "808-961-6516", "bibCode": " 2005ASPC..343.....A", "end": "2004-03-19", "title": "Astronomical Polarimetry: Current Status and Future Directions\r\n\r\n", "meetingNumber": "1334", "modified": "Jul 29, 2009 12:00:00 AM", "start": "2004-03-15", "GoogleMapsResponse": {"status": "OK", "results": [{"geometry": {"location_type": "APPROXIMATE", "bounds": {"northeast": {"lat": 19.9732959, "lng": -155.7760994}, "southwest": {"lat": 19.894464, "lng": -155.8899689}}, "viewport": {"northeast": {"lat": 19.9732959, "lng": -155.7760994}, "southwest": {"lat": 19.894464, "lng": -155.8899689}}, "location": {"lat": 19.9372484, "lng": -155.7910681}}, "address_components": [{"long_name": "Waikoloa Village", "types": ["locality", "political"], "short_name": "Waikoloa Village"}, {"long_name": "Hawaii County", "types": ["administrative_area_level_2", "political"], "short_name": "Hawaii County"}, {"long_name": "Hawaii", "types": ["administrative_area_level_1", "political"], "short_name": "HI"}, {"long_name": "United States", "types": ["country", "political"], "short_name": "US"}], "partial_match": true, "formatted_address": "Waikoloa Village, HI, USA", "types": ["locality", "political"]}]}, "phone": "808-961-3756", "contact": "Andy Adamson", "location": "Waikoloa Beach Marriott, Waikoloa, Hawaii", "address": "Joint Astronomy Centre, 660 N.A'Ohoku Place, Hilo, Hawaii, 96720", "keywords": "Polarimetry,Optical, Infrared, Submillimetre", "ingested": "Apr 23, 2003 12:00:00 AM", "email": "pol2004@jach.hawaii.edu"}, {"web": "", "fax": "(805) 893-2431", "bibCode": "", "end": "2004-03-19", "title": "Planet Formation: Terrestrial and Extra Solar\r\n\r\n", "meetingNumber": "1404", "modified": "Jun 25, 2009 12:00:00 AM", "start": "2004-03-15", "GoogleMapsResponse": {"status": "OK", "results": [{"geometry": {"location_type": "APPROXIMATE", "bounds": {"northeast": {"lat": 34.4235783, "lng": -119.8394436}, "southwest": {"lat": 34.4038983, "lng": -119.8815405}}, "viewport": {"northeast": {"lat": 34.4235783, "lng": -119.8394436}, "southwest": {"lat": 34.4038983, "lng": -119.8815405}}, "location": {"lat": 34.4139629, "lng": -119.848947}}, "address_components": [{"long_name": "University of California, Santa Barbara", "types": ["establishment"], "short_name": "UCSB"}, {"long_name": "Santa Barbara", "types": ["locality", "political"], "short_name": "Santa Barbara"}, {"long_name": "Santa Barbara County", "types": ["administrative_area_level_2", "political"], "short_name": "Santa Barbara County"}, {"long_name": "CA", "types": ["administrative_area_level_1", "political"], "short_name": "CA"}, {"long_name": "United States", "types": ["country", "political"], "short_name": "US"}, {"long_name": "93106", "types": ["postal_code"], "short_name": "93106"}], "partial_match": true, "formatted_address": "University of California, Santa Barbara, Santa Barbara, CA 93106", "types": ["university", "establishment"]}]}, "phone": "(805) 893-5422", "contact": "Sue Alemdar", "location": "Kavli Institute for Theoretical Physics, University of California,Santa Barbara,", "address": "Kavli Institute for Theoretical Physics, University of California, Santa Barbara, California, 93106-4030,", "keywords": "planet", "ingested": "Oct 01, 2003 12:00:00 AM", "email": " sue@kitp.ucsb.edu"}, {"web": "http://www.noao.edu/meetings/dark_energy", "fax": "(520) 318-8360", "bibCode": "", "end": "2004-03-20", "title": "Observing Dark Energy\r\n\r\n", "meetingNumber": "1405", "modified": "Oct 01, 2003 12:00:00 AM", "start": "2004-03-18", "GoogleMapsResponse": {"status": "OK", "results": [{"geometry": {"location_type": "APPROXIMATE", "bounds": {"northeast": {"lat": 32.32016610000001, "lng": -110.708204}, "southwest": {"lat": 31.9916539, "lng": -111.059406}}, "viewport": {"northeast": {"lat": 32.32016490000001, "lng": -110.708204}, "southwest": {"lat": 31.9916539, "lng": -111.059406}}, "location": {"lat": 32.2217429, "lng": -110.926479}}, "address_components": [{"long_name": "Tucson", "types": ["locality", "political"], "short_name": "Tucson"}, {"long_name": "Pima County", "types": ["administrative_area_level_2", "political"], "short_name": "Pima County"}, {"long_name": "Arizona", "types": ["administrative_area_level_1", "political"], "short_name": "AZ"}, {"long_name": "United States", "types": ["country", "political"], "short_name": "US"}], "formatted_address": "Tucson, AZ, USA", "types": ["locality", "political"]}]}, "phone": "(520) 318-8290", "contact": "Tod R. Lauer", "location": "Tucson, AZ", "address": "NOAO, P.O. Box 26732, Tucson, AZ, 85726,", "keywords": "cosmology, dark energy", "ingested": "Oct 01, 2003 12:00:00 AM", "email": " lauer@noao.edu"}, {"web": "http://astro.u-strasbg.fr/scyon/School/", "fax": "+33-(0)3.90.24.24.17", "bibCode": "", "end": "2004-03-22", "title": "Strasbourg School on Numerical N-Body Dynamics", "meetingNumber": "1449", "modified": "Dec 17, 2003 12:00:00 AM", "start": "2004-03-19", "GoogleMapsResponse": {"status": "OK", "results": [{"geometry": {"location_type": "APPROXIMATE", "bounds": {"northeast": {"lat": 48.6462221, "lng": 7.836045099999999}, "southwest": {"lat": 48.492005, "lng": 7.688142900000001}}, "viewport": {"northeast": {"lat": 48.6462221, "lng": 7.836045099999999}, "southwest": {"lat": 48.492005, "lng": 7.688142900000001}}, "location": {"lat": 48.583148, "lng": 7.747882}}, "address_components": [{"long_name": "Strasbourg", "types": ["locality", "political"], "short_name": "Strasbourg"}, {"long_name": "Bas-Rhin", "types": ["administrative_area_level_2", "political"], "short_name": "67"}, {"long_name": "Alsace", "types": ["administrative_area_level_1", "political"], "short_name": "Alsace"}, {"long_name": "France", "types": ["country", "political"], "short_name": "FR"}], "formatted_address": "Strasbourg, France", "types": ["locality", "political"]}]}, "phone": "+33-(0)3.90.24.24.36", "contact": "Christian Boily", "location": "Strasbourg, France", "address": "Observatoire, Universite Louis Pasteur , 11, rue de l'Universite, Strasbourg, France , F-67000,", "keywords": "N-body, dynamics, numerical methods", "ingested": "Dec 17, 2003 12:00:00 AM", "email": "cmb@astro.u-strasbg.fr"}, {"web": "", "fax": "(33 1) 69 28 86 59", "bibCode": "", "end": "2004-03-28", "title": "The Young Local Universe - XXIVth Moriond Astrophysics Meeting\r\n\r\n", "meetingNumber": "1507", "modified": "Jun 25, 2009 12:00:00 AM", "start": "2004-03-21", "GoogleMapsResponse": {"status": "OK", "results": [{"geometry": {"location_type": "APPROXIMATE", "bounds": {"northeast": {"lat": 45.72039030000001, "lng": 6.9610252}, "southwest": {"lat": 45.7051494, "lng": 6.939850099999999}}, "viewport": {"northeast": {"lat": 45.72039030000001, "lng": 6.9610252}, "southwest": {"lat": 45.7051494, "lng": 6.939850099999999}}, "location": {"lat": 45.71685249999999, "lng": 6.948686299999999}}, "address_components": [{"long_name": "La Thuile", "types": ["locality", "political"], "short_name": "La Thuile"}, {"long_name": "La Thuile", "types": ["administrative_area_level_3", "political"], "short_name": "La Thuile"}, {"long_name": "Aosta Valley", "types": ["administrative_area_level_2", "political"], "short_name": "AO"}, {"long_name": "Aosta", "types": ["administrative_area_level_1", "political"], "short_name": "Aosta"}, {"long_name": "Italy", "types": ["country", "political"], "short_name": "IT"}, {"long_name": "11016", "types": ["postal_code"], "short_name": "11016"}], "formatted_address": "11016 La Thuile Aosta Valley, Italy", "types": ["locality", "political"]}]}, "phone": "(33 1) 69 29 05 50", "contact": "Elizabeth Hautefeuille", "location": "La Thuile, Aosta Valley, Italy", "address": "Rencontres de Moriond, 104, avenue du G\u00e9n\u00e9ral Leclerc / BP 33, GIF SUR YVETTE CEDEX, France, 91192,", "keywords": "star formation, galaxies", "ingested": "Mar 02, 2004 12:00:00 AM", "email": "ylu@obs.ujf-grenoble.fr"}, {"web": "http://cosmos.astro.uson.mx/meetings/cna2004/cna2004.htm", "fax": "6622-126649", "bibCode": "", "end": "2004-03-27", "title": "Congreso Nacional de Astronomia\r\n\r\n", "meetingNumber": "1454", "modified": "Dec 23, 2003 12:00:00 AM", "start": "2004-03-25", "phone": "(55) 6622 907063", "contact": "Antonio Sanchez-Ibarra", "location": "Hermosillo Sonora, Mexico", "address": "Area de Astronomia/DIF-US, Apdo. Postal 5-88, Hermosillo, Sonora, 83190,", "keywords": "CNA 2004", "ingested": "Dec 23, 2003 12:00:00 AM", "email": "asanchez@cosmos.astro.uson.mx"}, {"web": "", "fax": "+27 21 650 3342", "bibCode": "", "end": "2004-04-02", "title": "Nearby Large-Scale Structures and the Zone of Avoidance\r\n\r\n\r\n\r\n", "meetingNumber": "1371", "modified": "Jun 25, 2009 12:00:00 AM", "start": "2004-03-28", "phone": "+27 21 650 2392", "contact": "Prof. A.P. Fairall", "location": "Cape Town, South Africa", "address": "University of Cape Town, Rondebosch, Cape Town, 7700", "keywords": "large-scale structures, zone of avoidance", "ingested": "Aug 07, 2003 12:00:00 AM", "email": " zoaconf@mensa.ast.uct.ac.za"}, {"web": "", "fax": "+44-1908-654191", "bibCode": "2004Obs...124..313.", "end": "2004-04-02", "title": "The Royal Astronomical Society National Astronomy Meeting 2004\r\n\r\n", "meetingNumber": "1464", "modified": "Jul 29, 2009 12:00:00 AM", "start": "2004-03-29", "phone": "+44-1908-653229", "contact": "Andrew Norton, Barrie Jones, Tracey Moore", "location": "The Open University, Milton Keynes", "address": "The Open University, Walton Hall, Milton Keynes, Buckinghamshire, MK46 5AD,", "keywords": "RAS", "ingested": "Jan 13, 2004 12:00:00 AM", "email": "ras-nam04@open.ac.uk"}, {"web": "http://var.astro.cz/kopal", "fax": "+420 541233389", "bibCode": " 2005zkbs.book.....D", "end": "2004-04-03", "title": "Zdenek Kopal's Binary Star Legacy\r\n\r\n", "meetingNumber": "1401", "modified": "Jun 25, 2009 12:00:00 AM", "start": "2004-03-31", "phone": "+420 541321287", "contact": "Miloslav Zejda", "location": "Litomysl, Czech Republic", "address": "N. Copernicus Observatory and Planetarium, Kravi hora 2, Brno, Czech Republic, 61600,", "keywords": "Zdenek Kopal, binary stars, binary star morphology, Mathematical physics and numerical modelling", "ingested": "Sep 26, 2003 12:00:00 AM", "email": "zejda@hvezdarna.cz"}, {"web": "http://www.kingston.ac.uk/fractal/", "fax": "+44-20-8547-7497", "bibCode": "", "end": "2004-04-07", "title": "Fractal 2004:Complexity and Fractals in Nature\r\n\r\n", "meetingNumber": "1322", "modified": "Jul 07, 2003 12:00:00 AM", "start": "2004-04-04", "GoogleMapsResponse": {"status": "OK", "results": [{"geometry": {"location_type": "APPROXIMATE", "bounds": {"northeast": {"lat": 49.31409499999999, "lng": -123.023068}, "southwest": {"lat": 49.19979, "lng": -123.22474}}, "viewport": {"northeast": {"lat": 49.31409499999999, "lng": -123.023068}, "southwest": {"lat": 49.19979, "lng": -123.22474}}, "location": {"lat": 49.261226, "lng": -123.1139268}}, "address_components": [{"long_name": "Vancouver", "types": ["locality", "political"], "short_name": "Vancouver"}, {"long_name": "Greater Vancouver", "types": ["administrative_area_level_2", "political"], "short_name": "Greater Vancouver"}, {"long_name": "British Columbia", "types": ["administrative_area_level_1", "political"], "short_name": "BC"}, {"long_name": "Canada", "types": ["country", "political"], "short_name": "CA"}], "formatted_address": "Vancouver, BC, Canada", "types": ["locality", "political"]}]}, "phone": "+44-20-8547-7481", "contact": "Dr. M. M. Novak", "location": "Vancouver, Canada", "address": "Kingston University, Penrhyn Rd, Kingston-upon-Thames, Surrey, UK, KT1 2EE,", "keywords": "complexity, nonlinear, fractals, chaos, neural networks", "ingested": "Apr 03, 2003 12:00:00 AM", "email": "novak@kingston.ac.uk"}, {"web": "http://www.tomabel.com/GRB", "fax": "814-863-3399", "bibCode": "", "end": "2004-04-10", "title": "Gamma-ray burst physics before Swift\r\n\r\n", "meetingNumber": "1511", "modified": "Mar 08, 2004 12:00:00 AM", "start": "2004-04-09", "GoogleMapsResponse": {"status": "OK", "results": [{"geometry": {"location_type": "APPROXIMATE", "bounds": {"northeast": {"lat": 40.8075369, "lng": -77.8191779}, "southwest": {"lat": 40.7684919, "lng": -77.885965}}, "viewport": {"northeast": {"lat": 40.8075369, "lng": -77.8191779}, "southwest": {"lat": 40.7684919, "lng": -77.885965}}, "location": {"lat": 40.7933949, "lng": -77.8600012}}, "address_components": [{"long_name": "State College", "types": ["locality", "political"], "short_name": "State College"}, {"long_name": "Centre County", "types": ["administrative_area_level_2", "political"], "short_name": "Centre County"}, {"long_name": "Pennsylvania", "types": ["administrative_area_level_1", "political"], "short_name": "PA"}, {"long_name": "United States", "types": ["country", "political"], "short_name": "US"}], "formatted_address": "State College, PA, USA", "types": ["locality", "political"]}]}, "phone": "814-863-9551", "contact": "Tom Abel", "location": "State College, Pennsylvania", "address": "Department of Astronomy & Astrophysics, Penn State University, 525 Davey Lab, University Park, Pennsylvania, 16802,", "keywords": "Gamma-ray bursts", "ingested": "Mar 08, 2004 12:00:00 AM", "email": "GRB@TomAbel.com"}, {"web": "http://cosmology.tamu.edu/", "fax": "1-979-845-2590", "bibCode": "", "end": "2004-04-16", "title": "2004 Mitchell Symposium on Observational Cosmology", "meetingNumber": "1491", "modified": "Feb 15, 2004 12:00:00 AM", "start": "2004-04-12", "GoogleMapsResponse": {"status": "OK", "results": [{"geometry": {"location_type": "APPROXIMATE", "bounds": {"northeast": {"lat": 30.6338273, "lng": -96.32373679999999}, "southwest": {"lat": 30.57385, "lng": -96.38058029999999}}, "viewport": {"northeast": {"lat": 30.6338273, "lng": -96.32373679999999}, "southwest": {"lat": 30.57385, "lng": -96.38058029999999}}, "location": {"lat": 30.6149186, "lng": -96.3423158}}, "address_components": [{"long_name": "Texas A&M University", "types": ["establishment"], "short_name": "Texas A&M University"}, {"long_name": "College Station", "types": ["locality", "political"], "short_name": "College Station"}, {"long_name": "Brazos County", "types": ["administrative_area_level_2", "political"], "short_name": "Brazos County"}, {"long_name": "Texas", "types": ["administrative_area_level_1", "political"], "short_name": "TX"}, {"long_name": "United States", "types": ["country", "political"], "short_name": "US"}, {"long_name": "77843", "types": ["postal_code"], "short_name": "77843"}], "formatted_address": "Texas A&M University, College Station, TX 77843, USA", "types": ["university", "establishment"]}]}, "phone": "1-979-845-4341", "contact": "Roland E. Allen", "location": "Texas A&M University", "address": "Texas A&M University, Texas Avenue, College Station, Texas, 77843-4242", "keywords": "observational cosmology, supernovae, cosmic microwave background, galactic surveys, dark matter, astroparticle physics, extragalactic astronomy", "ingested": "Feb 15, 2004 12:00:00 AM", "email": "allen@tamu.edu"}, {"web": "http://sci2.esa.int/huygens/conference/", "fax": "", "bibCode": "2004ESASP1278.....F", "end": "2004-04-17", "title": "TITAN from Discovery to Encounter\r\n\r\n", "meetingNumber": "1273", "modified": "Jul 29, 2009 12:00:00 AM", "start": "2004-04-13", "GoogleMapsResponse": {"status": "OK", "results": [{"geometry": {"location": {"lat": 52.21528, "lng": 4.416698999999999}, "viewport": {"northeast": {"lat": 52.2166289802915, "lng": 4.418047980291502}, "southwest": {"lat": 52.2139310197085, "lng": 4.415350019708497}}, "location_type": "APPROXIMATE"}, "address_components": [{"long_name": "Noordwijk ZH, Estec", "types": ["bus_station", "transit_station", "establishment"], "short_name": "Noordwijk ZH, Estec"}, {"long_name": "Katwijk", "types": ["locality", "political"], "short_name": "Katwijk"}, {"long_name": "Katwijk", "types": ["administrative_area_level_2", "political"], "short_name": "Katwijk"}, {"long_name": "South Holland", "types": ["administrative_area_level_1", "political"], "short_name": "ZH"}, {"long_name": "The Netherlands", "types": ["country", "political"], "short_name": "NL"}, {"long_name": "2221", "types": ["postal_code_prefix", "postal_code"], "short_name": "2221"}], "partial_match": true, "formatted_address": "Noordwijk ZH, Estec, 2221 Katwijk, The Netherlands", "types": ["bus_station", "transit_station", "establishment"]}]}, "phone": "", "contact": "Henk Olthof", "location": "ESTEC, Noordwijk , The Netherlands", "address": "ESA/ESTEC, Keplerlaan 1, Noordiwjk, 2200AG", "keywords": "Saturn, Titan, Huygens, Cassini, ESA, NASA, JPL, ESTEC", "ingested": "Jan 27, 2003 12:00:00 AM", "email": "Henk.Olthof@esa.int"}, {"web": "", "fax": "", "bibCode": "", "end": "2004-04-18", "title": "International Conference, British Sundial Society", "meetingNumber": "1191", "modified": "Jun 25, 2009 12:00:00 AM", "start": "2004-04-16", "GoogleMapsResponse": {"status": "OK", "results": [{"geometry": {"location_type": "APPROXIMATE", "bounds": {"northeast": {"lat": 51.7963006, "lng": -1.1751763}, "southwest": {"lat": 51.704532, "lng": -1.3199994}}, "viewport": {"northeast": {"lat": 51.7963006, "lng": -1.1751763}, "southwest": {"lat": 51.704532, "lng": -1.3199994}}, "location": {"lat": 51.7520209, "lng": -1.2577263}}, "address_components": [{"long_name": "Oxford", "types": ["locality", "political"], "short_name": "Oxford"}, {"long_name": "Oxfordshire", "types": ["administrative_area_level_2", "political"], "short_name": "Oxon"}, {"long_name": "England", "types": ["administrative_area_level_1", "political"], "short_name": "England"}, {"long_name": "United Kingdom", "types": ["country", "political"], "short_name": "GB"}, {"long_name": "Oxford", "types": ["postal_town"], "short_name": "Oxford"}], "formatted_address": "Oxford, UK", "types": ["locality", "political"]}]}, "phone": "+44 1344 772303", "contact": "Douglas Bateman", "location": "Oxford, England", "address": "British Sundial Society, 4 New Wokingham Road, Crowthorne, Berkshire, UK, RG45 7NR", "keywords": "Sundials", "ingested": "Sep 04, 2002 12:00:00 AM", "email": "douglas.bateman@btinternet.com"}, {"web": "http://www.physics.sc.edu/neutrino/", "fax": "(803)777-3065", "bibCode": "", "end": "2004-04-17", "title": "Carolina Neutrino Workshop 2004", "meetingNumber": "1499", "modified": "Feb 19, 2004 12:00:00 AM", "start": "2004-04-16", "phone": "(803)777-8105", "contact": "Mary C. Papp", "location": "Russell House Student Union", "address": "University of South Carolina/Department of Physics & Astronomy, 712 Main Street, Columbia, South Carolina, 29208", "keywords": "Solar Neutrinos; Neutrino oscillation; Supernovas; Nucleosynthesis", "ingested": "Feb 19, 2004 12:00:00 AM", "email": "neutrino@physics.sc.edu"}, {"web": "", "fax": "+(380) 44-266-45-07", "bibCode": "", "end": "2004-04-24", "title": "11th Open Young Scientists' Conference on Astronomy and Space Physics\r\n\r\n\r\n\r\n", "meetingNumber": "1475", "modified": "Jun 25, 2009 12:00:00 AM", "start": "2004-04-20", "GoogleMapsResponse": {"status": "OK", "results": [{"geometry": {"location_type": "APPROXIMATE", "bounds": {"northeast": {"lat": 50.590798, "lng": 30.825941}, "southwest": {"lat": 50.213273, "lng": 30.2394401}}, "viewport": {"northeast": {"lat": 50.590798, "lng": 30.825941}, "southwest": {"lat": 50.213273, "lng": 30.2394401}}, "location": {"lat": 50.4501, "lng": 30.5234}}, "address_components": [{"long_name": "Kiev", "types": ["locality", "political"], "short_name": "Kiev"}, {"long_name": "Kyiv City", "types": ["administrative_area_level_2", "political"], "short_name": "Kyiv City"}, {"long_name": "Kyiv city", "types": ["administrative_area_level_1", "political"], "short_name": "Kyiv city"}, {"long_name": "Ukraine", "types": ["country", "political"], "short_name": "UA"}], "formatted_address": "Kiev, Kyiv city, Ukraine", "types": ["locality", "political"]}]}, "phone": "+(380) 44-266-44-57", "contact": "Tatiana Shumakova", "location": "Kiev, Ukraine", "address": "Kiev National Taras Shevchenko University Astronomy and Space Physics Department , POBox 7, Kiev, Ukraine, 03022,", "keywords": "astronomy, space science, astrometry, cosmology, astrophysics, geophysics, radio astronomy", "ingested": "Jan 26, 2004 12:00:00 AM", "email": "ysc@univ.kiev.ua"}, {"web": "http://dda.harvard.edu/meetings/2004/", "fax": "", "bibCode": " 2004DDA....35......", "end": "2004-04-23", "title": "AAS Division on Dynamical Astronomy : 35th Annual Meeting", "meetingNumber": "1393", "modified": "Jul 29, 2009 12:00:00 AM", "start": "2004-04-20", "GoogleMapsResponse": {"status": "OK", "results": [{"geometry": {"location_type": "APPROXIMATE", "bounds": {"northeast": {"lat": 43.574851, "lng": 7.074204}, "southwest": {"lat": 43.499718, "lng": 6.9447059}}, "viewport": {"northeast": {"lat": 43.574851, "lng": 7.057732}, "southwest": {"lat": 43.5346531, "lng": 6.9447059}}, "location": {"lat": 43.552847, "lng": 7.017369}}, "address_components": [{"long_name": "Cannes", "types": ["locality", "political"], "short_name": "Cannes"}, {"long_name": "Alpes-Maritimes", "types": ["administrative_area_level_2", "political"], "short_name": "06"}, {"long_name": "Provence-Alpes-C\u00f4te d'Azur", "types": ["administrative_area_level_1", "political"], "short_name": "PACA"}, {"long_name": "France", "types": ["country", "political"], "short_name": "FR"}], "formatted_address": "Cannes, France", "types": ["locality", "political"]}]}, "phone": "", "contact": "", "location": "Cannes, France", "address": "", "keywords": "astronomy", "ingested": "Sep 22, 2003 12:00:00 AM", "email": ""}, {"web": "http://www.aavso.org/aavso/meetings/mira2004.shtml", "fax": "617-354-0665", "bibCode": "", "end": "2004-04-26", "title": "The 2004 AAVSO Symposium on Mira Companions & Planets\r\n\r\n", "meetingNumber": "1504", "modified": "Mar 01, 2004 12:00:00 AM", "start": "2004-04-26", "GoogleMapsResponse": {"status": "OK", "results": [{"geometry": {"location": {"lat": 42.3814605, "lng": -71.1281638}, "viewport": {"northeast": {"lat": 42.38280948029149, "lng": -71.1268148197085}, "southwest": {"lat": 42.3801115197085, "lng": -71.1295127802915}}, "location_type": "APPROXIMATE"}, "address_components": [{"long_name": "Center For Astrophysics", "types": ["point_of_interest", "establishment"], "short_name": "Center For Astrophysics"}, {"long_name": "Harvard University", "types": ["establishment"], "short_name": "Harvard University"}, {"long_name": "60", "types": ["street_number"], "short_name": "60"}, {"long_name": "Garden Street", "types": ["route"], "short_name": "Garden St"}, {"long_name": "Neighborhood Nine", "types": ["neighborhood", "political"], "short_name": "Neighborhood Nine"}, {"long_name": "Cambridge", "types": ["locality", "political"], "short_name": "Cambridge"}, {"long_name": "Middlesex County", "types": ["administrative_area_level_2", "political"], "short_name": "Middlesex County"}, {"long_name": "Massachusetts", "types": ["administrative_area_level_1", "political"], "short_name": "MA"}, {"long_name": "United States", "types": ["country", "political"], "short_name": "US"}, {"long_name": "02138", "types": ["postal_code"], "short_name": "02138"}, {"long_name": "1516", "types": [], "short_name": "1516"}], "formatted_address": "Center For Astrophysics, Harvard University, 60 Garden Street, Cambridge, MA 02138, USA", "types": ["point_of_interest", "establishment"]}]}, "phone": "617-354-0484", "contact": "Aaron Price", "location": "Harvard-Smithsonian Center for Astrophysics, Cambridge MA.", "address": "AAVSO, 25 Birch St, Cambridge, MA, 02138,", "keywords": "mira,variables,variable stars,exo-planets, stellar evolution", "ingested": "Mar 01, 2004 12:00:00 AM", "email": "aaronp@aavso.org"}, {"web": "http://astrofisica.na.infn.it/ada3/", "fax": "+44 28 9068-3890", "bibCode": "", "end": "2004-05-01", "title": "Astronomical Data Analysis III\r\n\r\n", "meetingNumber": "1463", "modified": "Jan 07, 2004 12:00:00 AM", "start": "2004-04-28", "GoogleMapsResponse": {"status": "OK", "results": [{"geometry": {"location": {"lat": 40.6056513, "lng": 14.3740169}, "viewport": {"northeast": {"lat": 40.61412199999999, "lng": 14.3900243}, "southwest": {"lat": 40.5971795, "lng": 14.3580095}}, "location_type": "APPROXIMATE"}, "address_components": [{"long_name": "Sant'Agata sui Due Golfi", "types": ["locality", "political"], "short_name": "Sant'Agata sui Due Golfi"}, {"long_name": "Massa Lubrense", "types": ["administrative_area_level_3", "political"], "short_name": "Massa Lubrense"}, {"long_name": "Naples", "types": ["administrative_area_level_2", "political"], "short_name": "NA"}, {"long_name": "Campania", "types": ["administrative_area_level_1", "political"], "short_name": "Campania"}, {"long_name": "Italy", "types": ["country", "political"], "short_name": "IT"}, {"long_name": "80061", "types": ["postal_code"], "short_name": "80061"}], "formatted_address": "80061 Sant'Agata sui Due Golfi, Naples, Italy", "types": ["locality", "political"]}]}, "phone": "+44 28 9027-4620", "contact": "Fionn Murtagh", "location": "Sant'Agata sui due Golfi", "address": "School of Computer Science, Queen's University Belfast,  , Bernard Crossland Building, 16 Malone Road , Belfast , Northern Ireland, UK , BT7 1NN,", "keywords": "data analysis, massive data sets, distributed computing, surveys", "ingested": "Jan 07, 2004 12:00:00 AM", "email": "f.murtagh@qub.ac.uk"}, {"web": "", "fax": " 410-338-5076", "bibCode": " 2005pces.conf.....L", "end": "2004-05-06", "title": "Planets To Cosmology:  Essential Science In Hubble's Final Years\r\n\r\n", "meetingNumber": "1461", "modified": "Jul 29, 2009 12:00:00 AM", "start": "2004-05-03", "phone": "410-338-4970", "contact": "Quindairian Gryce", "location": "Space Telescope Science Institute, 3700 San Martin Drive, Baltimore, Maryland 21", "address": "Space Telescope Science Institute, 3700 San Martin Drive, Baltimore, Maryland, 21218,", "keywords": "", "ingested": "Dec 31, 2003 12:00:00 AM", "email": "gryce@stsci.edu"}, {"web": "http://www.stanford.edu/dept/kipac/", "fax": "", "bibCode": " 2004AdSpR..34..651W", "end": "2004-05-14", "title": " Beyond Einstein: From the Big Bang to Black Holes\r\n\r\n", "meetingNumber": "1376", "modified": "Jul 29, 2009 12:00:00 AM", "start": "2004-05-10", "phone": "650-926-3300", "contact": "Roger Blandford", "location": "Stanford Linear Accelerator, Menlo Park, California", "address": "KIPAC/SLAC, 2575 Sand Hill Road, Menlo Park, CA, 94025,", "keywords": "Einstein, big bang, black holes", "ingested": "Sep 02, 2003 12:00:00 AM", "email": "rdb@SLAC.Stanford.EDU"}, {"web": "http://www.astrosci.ca/cfht2004", "fax": " 1-250-363-0045", "bibCode": "", "end": "2004-05-15", "title": "The 7th CFHT Users' Meeting: CFHT in the Wide-field Imaging Era and Beyond\r\n\r\n", "meetingNumber": "1481", "modified": "Feb 11, 2004 12:00:00 AM", "start": "2004-05-13", "phone": " 1-250-363-0025", "contact": "David Bohlender", "location": "Painter's Lodge, Campbell River, British Columbia, Canada", "address": "Herzberg Institute of Astrophysics, Dominion Astrophysical Observatory, Victoria, BC, V9E 2E7", "keywords": "imaging, CFHT", "ingested": "Feb 04, 2004 12:00:00 AM", "email": " david.bohlender@nrc-cnrc.gc.ca"}, {"web": "http://www.nrao.edu/almaworkshop", "fax": "434 296 0278", "bibCode": " 2004alma.work.....W", "end": "2004-05-15", "title": "ALMA Science Workshop\r\n\r\n", "meetingNumber": "1505", "modified": "Jul 29, 2009 12:00:00 AM", "start": "2004-05-14", "phone": "434 296 0211", "contact": "Al Wootten", "location": "University of Maryland Conference Center", "address": "North American ALMA Science Center, NRAO, 520 Edgemont Road, Charlottesville, Virginia, 22903,", "keywords": "ALMA", "ingested": "Mar 01, 2004 12:00:00 AM", "email": "alma_workshop@nrao.edu"}, {"web": "http://widefield.lbl.gov", "fax": "510-486-7115", "bibCode": "", "end": "2004-05-18", "title": "Wide-Field Imaging from Space\r\n\r\n", "meetingNumber": "1437", "modified": "Nov 19, 2003 12:00:00 AM", "start": "2004-05-16", "phone": "510-486-7689", "contact": "Masaaki Yamato", "location": "Berkeley, CA", "address": "Lawrence Berkeley National Laboratory, 1 Cyclotron Road, MS 50R6048, Berkeley, CA, 94720-8164,", "keywords": "wide-field imaging JDEM SNAP", "ingested": "Nov 19, 2003 12:00:00 AM", "email": "Masaaki Yamato"}, {"web": "", "fax": "39-055-220039", "bibCode": "", "end": "2004-05-20", "title": "IMF@50", "meetingNumber": "1452", "modified": "Jun 25, 2009 12:00:00 AM", "start": "2004-05-16", "phone": "39-055-2752-255(249)", "contact": "Edvige Corbelli or Francesco Palla", "location": "Abbazia di Spineto, Siena, Italy", "address": "INAF-Osservatorio Astrofisico di Arcetri, Largo E. Fermi,5 , Firenze, Italy, 50125,", "keywords": "star formation, primordial stars, molecular, atomic hydrogen", "ingested": "Dec 22, 2003 12:00:00 AM", "email": "edvige@arcetri.astro.it"}, {"web": "http://cfa-www.harvard.edu/apsconf/", "fax": "617-495-7049/7231", "bibCode": "", "end": "2004-05-21", "title": "Astrophysics of Planetary Systems \r\n\r\n", "meetingNumber": "1465", "modified": "Jan 13, 2004 12:00:00 AM", "start": "2004-05-17", "GoogleMapsResponse": {"status": "OK", "results": [{"geometry": {"location": {"lat": 42.3750961, "lng": -71.12194029999999}, "viewport": {"northeast": {"lat": 42.3764450802915, "lng": -71.1205913197085}, "southwest": {"lat": 42.3737471197085, "lng": -71.1232892802915}}, "location_type": "ROOFTOP"}, "address_components": [{"long_name": "6", "types": ["street_number"], "short_name": "6"}, {"long_name": "Harvard University", "types": ["establishment"], "short_name": "Harvard University"}, {"long_name": "Appian Way", "types": ["route"], "short_name": "Appian Way"}, {"long_name": "West Cambridge", "types": ["neighborhood", "political"], "short_name": "West Cambridge"}, {"long_name": "Cambridge", "types": ["locality", "political"], "short_name": "Cambridge"}, {"long_name": "Middlesex County", "types": ["administrative_area_level_2", "political"], "short_name": "Middlesex County"}, {"long_name": "Massachusetts", "types": ["administrative_area_level_1", "political"], "short_name": "MA"}, {"long_name": "United States", "types": ["country", "political"], "short_name": "US"}, {"long_name": "02138", "types": ["postal_code"], "short_name": "02138"}], "partial_match": true, "formatted_address": "6 Appian Way, Harvard University, Radcliffe Institute for Advanced Study, Cambridge, MA 02138, USA", "types": ["street_address"]}]}, "phone": "617-495-7451", "contact": "Dimitar Sasselov", "location": "Harvard University, Gutman Library, 6 Appian Way, Cambridge, MA", "address": "Harvard/Smithsonian Center for Astrophysics, 60 Garden St., MS-16, Cambridge, MA, 02138,", "keywords": "Third Harvard-Smithsonian Conference on Theoretical Astrophysics: Astrophysics of Planetary Systems", "ingested": "Jan 13, 2004 12:00:00 AM", "email": "dsasselov@cfa.harvard.edu"}, {"web": "http://www.mpifr-bonn.mpg.de/berlin04/", "fax": "+49 228 525 229", "bibCode": "", "end": "2004-05-21", "title": "Exploring the Cosmic Frontier: Astrophysical Instruments for the 21st Century \r\n\r\n", "meetingNumber": "1375", "modified": "Oct 21, 2003 12:00:00 AM", "start": "2004-05-18", "GoogleMapsResponse": {"status": "OK", "results": [{"geometry": {"location_type": "APPROXIMATE", "bounds": {"northeast": {"lat": 52.6754542, "lng": 13.7611176}, "southwest": {"lat": 52.33962959999999, "lng": 13.0911663}}, "viewport": {"northeast": {"lat": 52.6754542, "lng": 13.7611176}, "southwest": {"lat": 52.33962959999999, "lng": 13.0911663}}, "location": {"lat": 52.52000659999999, "lng": 13.404954}}, "address_components": [{"long_name": "Berlin", "types": ["locality", "political"], "short_name": "Berlin"}, {"long_name": "Berlin", "types": ["administrative_area_level_1", "political"], "short_name": "Berlin"}, {"long_name": "Germany", "types": ["country", "political"], "short_name": "DE"}], "formatted_address": "Berlin, Germany", "types": ["locality", "political"]}]}, "phone": "+49 228 525 292", "contact": "Andrei Lobanov", "location": "Berlin, Germany", "address": "Max-Planck-Institute for Radioastronomy, Auf dem Huegel 69, Bonn, NRW, 53121,", "keywords": "future astriphysical instruments missions optical radio infrared microwave SKA ALMA Herschel Planck OWL JWST", "ingested": "Aug 26, 2003 12:00:00 AM", "email": "alobanov@mpifr-bonn.mpg.de"}, {"web": "http://www.eso.org/extgalpn04/", "fax": "+49 89 32006 480", "bibCode": "", "end": "2004-05-21", "title": "Planetary Nebulae beyond the Milky Way\r\n\r\n", "meetingNumber": "1380", "modified": "Sep 05, 2003 12:00:00 AM", "start": "2004-05-19", "GoogleMapsResponse": {"status": "OK", "results": [{"geometry": {"location_type": "APPROXIMATE", "bounds": {"northeast": {"lat": 48.2732261, "lng": 11.6851891}, "southwest": {"lat": 48.2167624, "lng": 11.5971975}}, "viewport": {"northeast": {"lat": 48.2732261, "lng": 11.6851891}, "southwest": {"lat": 48.2167624, "lng": 11.5971975}}, "location": {"lat": 48.2488721, "lng": 11.6532477}}, "address_components": [{"long_name": "Garching", "types": ["locality", "political"], "short_name": "Garching"}, {"long_name": "Munich", "types": ["administrative_area_level_3", "political"], "short_name": "M"}, {"long_name": "Upper Bavaria", "types": ["administrative_area_level_2", "political"], "short_name": "Upper Bavaria"}, {"long_name": "Bavaria", "types": ["administrative_area_level_1", "political"], "short_name": "BY"}, {"long_name": "Germany", "types": ["country", "political"], "short_name": "DE"}], "partial_match": true, "formatted_address": "Garching, Germany", "types": ["locality", "political"]}, {"geometry": {"location_type": "APPROXIMATE", "bounds": {"northeast": {"lat": 48.1696646, "lng": 12.6326525}, "southwest": {"lat": 48.10091569999999, "lng": 12.5422169}}, "viewport": {"northeast": {"lat": 48.1696646, "lng": 12.6326525}, "southwest": {"lat": 48.10091569999999, "lng": 12.5422169}}, "location": {"lat": 48.1338878, "lng": 12.5806409}}, "address_components": [{"long_name": "Garching an der Alz", "types": ["locality", "political"], "short_name": "Garching an der Alz"}, {"long_name": "Alt\u00f6tting", "types": ["administrative_area_level_3", "political"], "short_name": "A\u00d6"}, {"long_name": "Upper Bavaria", "types": ["administrative_area_level_2", "political"], "short_name": "Upper Bavaria"}, {"long_name": "Bavaria", "types": ["administrative_area_level_1", "political"], "short_name": "BY"}, {"long_name": "Germany", "types": ["country", "political"], "short_name": "DE"}], "partial_match": true, "formatted_address": "Garching an der Alz, Germany", "types": ["locality", "political"]}]}, "phone": "+49 89 32006 248", "contact": "Dr. J. R. Walsh", "location": "ESO Headquarters, Garching, Germany", "address": "ST-ECF, ESO, Karl-Schwarzschild Strasse 2, Garching, Germany, D-81739,", "keywords": "Planetary nebulae; Nearby galaxies; Chemical evolution; Galaxy kinematics", "ingested": "Sep 05, 2003 12:00:00 AM", "email": "jwalsh@eso.org"}, {"web": "", "fax": " +01-863-9608", "bibCode": "", "end": "2004-05-22", "title": "Making Waves with Intermediate-Mass Black Holes", "meetingNumber": "1493", "modified": "Jun 25, 2009 12:00:00 AM", "start": "2004-05-20", "GoogleMapsResponse": {"status": "OK", "results": [{"geometry": {"location_type": "APPROXIMATE", "bounds": {"northeast": {"lat": 40.8352216, "lng": -77.8301006}, "southwest": {"lat": 40.7796437, "lng": -77.8918995}}, "viewport": {"northeast": {"lat": 40.8352216, "lng": -77.8301006}, "southwest": {"lat": 40.7796437, "lng": -77.8918995}}, "location": {"lat": 40.7982133, "lng": -77.8599084}}, "address_components": [{"long_name": "The Pennsylvania State University", "types": ["establishment"], "short_name": "The Pennsylvania State University"}, {"long_name": "University Park", "types": ["neighborhood", "political"], "short_name": "University Park"}, {"long_name": "State College", "types": ["locality", "political"], "short_name": "State College"}, {"long_name": "Centre County", "types": ["administrative_area_level_2", "political"], "short_name": "Centre County"}, {"long_name": "PA", "types": ["administrative_area_level_1", "political"], "short_name": "PA"}, {"long_name": "United States", "types": ["country", "political"], "short_name": "US"}, {"long_name": "16801", "types": ["postal_code"], "short_name": "16801"}], "formatted_address": "The Pennsylvania State University, State College, PA 16801", "types": ["university", "establishment"]}]}, "phone": "+01-814-865-5203", "contact": "Ms. Camma Homan", "location": "Penn State University", "address": "Penn State, 104 Davey Laboratory, University Park, PA, 16802,", "keywords": "Black Holes, Gravitational Waves", "ingested": "Feb 17, 2004 12:00:00 AM", "email": "IMBH-Local@Gravity.PSU.Edu"}, {"web": "http://www.gemini.edu/science/gem_conf/gem_conf.html", "fax": "", "bibCode": "", "end": "2004-05-25", "title": "Gemini Science 2004\r\n\r\n", "meetingNumber": "1448", "modified": "Jan 05, 2004 12:00:00 AM", "start": "2004-05-23", "GoogleMapsResponse": {"status": "OK", "results": [{"geometry": {"location_type": "APPROXIMATE", "bounds": {"northeast": {"lat": 49.31409499999999, "lng": -123.023068}, "southwest": {"lat": 49.19979, "lng": -123.22474}}, "viewport": {"northeast": {"lat": 49.31409499999999, "lng": -123.023068}, "southwest": {"lat": 49.19979, "lng": -123.22474}}, "location": {"lat": 49.261226, "lng": -123.1139268}}, "address_components": [{"long_name": "Vancouver", "types": ["locality", "political"], "short_name": "Vancouver"}, {"long_name": "Greater Vancouver", "types": ["administrative_area_level_2", "political"], "short_name": "Greater Vancouver"}, {"long_name": "British Columbia", "types": ["administrative_area_level_1", "political"], "short_name": "BC"}, {"long_name": "Canada", "types": ["country", "political"], "short_name": "CA"}], "formatted_address": "Vancouver, BC, Canada", "types": ["locality", "political"]}]}, "phone": "", "contact": "Jean-Rene Roy", "location": "Vancouver, BC, Canada", "address": "", "keywords": "Gemini", "ingested": "Dec 16, 2003 12:00:00 AM", "email": "jrroy@gemini.edu"}, {"web": "http://www.seas.columbia.edu/~ah297/un-esa/", "fax": " +43-1-26060-5830", "bibCode": " 2004dbss.book....3H", "end": "2004-05-28", "title": "12th UN/ESA Workshop on Basic Space Science\r\n\r\n", "meetingNumber": "1228", "modified": "Jul 29, 2009 12:00:00 AM", "start": "2004-05-24", "GoogleMapsResponse": {"status": "OK", "results": [{"geometry": {"location_type": "APPROXIMATE", "bounds": {"northeast": {"lat": 41.0608158, "lng": 117.5146251}, "southwest": {"lat": 39.4427581, "lng": 115.4234115}}, "viewport": {"northeast": {"lat": 40.2164962, "lng": 116.7829835}, "southwest": {"lat": 39.6612714, "lng": 116.0119343}}, "location": {"lat": 39.90403, "lng": 116.407526}}, "address_components": [{"long_name": "Beijing", "types": ["locality", "political"], "short_name": "Beijing"}, {"long_name": "Beijing", "types": ["administrative_area_level_1", "political"], "short_name": "Beijing"}, {"long_name": "China", "types": ["country", "political"], "short_name": "CN"}], "partial_match": true, "formatted_address": "Beijing, China", "types": ["locality", "political"]}]}, "phone": "+43-1-26060-4949", "contact": "Hans J. Haubold", "location": "Beijing, P.R. China", "address": "United Nations, Wagramerstr. 5/P.O. Box 500, Vienna, Austria, A-1400,", "keywords": "astrophysics and space science", "ingested": "Oct 29, 2002 12:00:00 AM", "email": "hans@neutrino.aquaphoenix.com"}, {"web": "", "fax": "   (34) 958-814530", "bibCode": "", "end": "2004-05-28", "title": "Third Granada Workshop on Stellar Structure:  Tidal Evolution and Oscillations in Binary Stars\r\n\r\n", "meetingNumber": "1445", "modified": "Jun 25, 2009 12:00:00 AM", "start": "2004-05-26", "GoogleMapsResponse": {"status": "OK", "results": [{"geometry": {"location_type": "APPROXIMATE", "bounds": {"northeast": {"lat": 37.2124648, "lng": -3.5505714}, "southwest": {"lat": 37.1494277, "lng": -3.6338351}}, "viewport": {"northeast": {"lat": 37.2124648, "lng": -3.5505714}, "southwest": {"lat": 37.1494277, "lng": -3.6338351}}, "location": {"lat": 37.1773363, "lng": -3.5985571}}, "address_components": [{"long_name": "Granada", "types": ["locality", "political"], "short_name": "Granada"}, {"long_name": "Granada", "types": ["political"], "short_name": "Granada"}, {"long_name": "Granada", "types": ["administrative_area_level_2", "political"], "short_name": "Granada"}, {"long_name": "Andalusia", "types": ["administrative_area_level_1", "political"], "short_name": "AL"}, {"long_name": "Spain", "types": ["country", "political"], "short_name": "ES"}], "formatted_address": "Granada, Spain", "types": ["locality", "political"]}]}, "phone": "(34) 958-121311", "contact": "Antonio Claret", "location": "Granada", "address": "Instituto de Astrofisica de Andalucia, Camino Bajo de Huetor, 24, Granada, Spain, 18080", "keywords": "stellar evolution - stellar structure-tidal evolution - binary stars - oscillations", "ingested": "Dec 15, 2003 12:00:00 AM", "email": " claret@iaa.es"}, {"web": "http://www.aas.org/meetings/meeting_dates.html", "fax": "", "bibCode": " 2004AAS...204......", "end": "2004-06-03", "title": "204th Meeting of the American Astronomical Society", "meetingNumber": "1342", "modified": "Jul 29, 2009 12:00:00 AM", "start": "2004-05-30", "GoogleMapsResponse": {"status": "OK", "results": [{"geometry": {"location_type": "APPROXIMATE", "bounds": {"northeast": {"lat": 39.91424689999999, "lng": -104.6002959}, "southwest": {"lat": 39.614431, "lng": -105.109927}}, "viewport": {"northeast": {"lat": 39.91424689999999, "lng": -104.6002959}, "southwest": {"lat": 39.614431, "lng": -105.109927}}, "location": {"lat": 39.737567, "lng": -104.9847179}}, "address_components": [{"long_name": "Denver", "types": ["locality", "political"], "short_name": "Denver"}, {"long_name": "Denver County", "types": ["administrative_area_level_2", "political"], "short_name": "Denver County"}, {"long_name": "Colorado", "types": ["administrative_area_level_1", "political"], "short_name": "CO"}, {"long_name": "United States", "types": ["country", "political"], "short_name": "US"}], "formatted_address": "Denver, CO, USA", "types": ["locality", "political"]}]}, "phone": "+1(202) 234-2560", "contact": "American Astronomical Society, Diana Alexander", "location": "Denver, CO, USA", "address": "2000 Florida Avenue, Suite 400 Washington, DC 20009 USA", "keywords": "AAS", "ingested": "May 12, 2003 12:00:00 AM", "email": "diana@aas.org"}, {"web": "http://spd.aas.org/", "fax": "", "bibCode": "", "end": "2004-06-03", "title": "AAS Solar Physics Division", "meetingNumber": "1395", "modified": "Sep 22, 2003 12:00:00 AM", "start": "2004-05-30", "GoogleMapsResponse": {"status": "OK", "results": [{"geometry": {"location_type": "APPROXIMATE", "bounds": {"northeast": {"lat": 39.91424689999999, "lng": -104.6002959}, "southwest": {"lat": 39.614431, "lng": -105.109927}}, "viewport": {"northeast": {"lat": 39.91424689999999, "lng": -104.6002959}, "southwest": {"lat": 39.614431, "lng": -105.109927}}, "location": {"lat": 39.737567, "lng": -104.9847179}}, "address_components": [{"long_name": "Denver", "types": ["locality", "political"], "short_name": "Denver"}, {"long_name": "Denver County", "types": ["administrative_area_level_2", "political"], "short_name": "Denver County"}, {"long_name": "Colorado", "types": ["administrative_area_level_1", "political"], "short_name": "CO"}, {"long_name": "United States", "types": ["country", "political"], "short_name": "US"}], "formatted_address": "Denver, CO, USA", "types": ["locality", "political"]}]}, "phone": "", "contact": "", "location": "Denver, Colorado", "address": "", "keywords": "solar, physics", "ingested": "Sep 22, 2003 12:00:00 AM", "email": ""}, {"web": "", "fax": "53 42 281130", "bibCode": "", "end": "2004-06-03", "title": "Santa Clara 2004. First International Workshop on Gravitation and Cosmology\r\n\r\n", "meetingNumber": "1418", "modified": "Jul 29, 2009 12:00:00 AM", "start": "2004-05-31", "phone": "53 42 281109", "contact": "Gonzalez, Tame", "location": "School of Mathematics, Physics and Computer Sciences. Las Villas Central Univers", "address": "School of Mathematics, Physics and Computer Sciences. Las Villas Central University., Carretera a Camajuani, Santa Clara, Villa Clara, 54830,", "keywords": "scalar fields, Jordan-Brans-Dicke, quintessence, tachyons, scalar-tensor theories, cosmology", "ingested": "Oct 21, 2003 12:00:00 AM", "email": "tame@mfc.uclv.edu.cu"}, {"web": "", "fax": "(852) 2559-9152", "bibCode": " 2005Ap&SS.297....1T", "end": "2004-06-04", "title": "The Multiwavelength Approach to Unidentified Gamma-Ray Sources", "meetingNumber": "1415", "modified": "Jul 29, 2009 12:00:00 AM", "start": "2004-06-01", "phone": "(852) 2859-2360", "contact": "Prof. K.S. Cheng", "location": "Department of Physics, The University of Hong Kong, Hong Kong", "address": "Department of Physics, The University of Hong Kong, Pokfulam Road, Hong Kong,", "keywords": "gamma-ray", "ingested": "Oct 13, 2003 12:00:00 AM", "email": "hrspksc@hkucc.hku.hk"}, {"web": "", "fax": "+381-11-3162190", "bibCode": " 2004AIPC..731.....C", "end": "2004-06-11", "title": "Equation of State and Phase Transition Issues in Models of Ordinary Astrophysical Matter \r\n\r\n", "meetingNumber": "1411", "modified": "Jul 29, 2009 12:00:00 AM", "start": "2004-06-02", "phone": "+381-11-3160260 ext 136", "contact": "Dr.Vladan Celebonovic", "location": "Lorentz Center,Leiden University,Leiden,Netherlands", "address": "Institute of Physics, Pregrevica 118, Zemun-Beograd, Yugoslavia, 11080,", "keywords": "equations of state;phase transitions;astrophysical matter", "ingested": "Oct 09, 2003 12:00:00 AM", "email": "vladan@phy.bg.ac.yu"}, {"web": "http://www.naoj.org/Science/SubaruProject/SDS/multiwave_workshop/workshop.html", "fax": " +1-808-934-5984", "bibCode": " 2005mmgf.conf...82S", "end": "2004-06-05", "title": "Multiwavelength Observations of the Subaru/XMM-Newton Deep Survey Field\r\n\r\n", "meetingNumber": "1520", "modified": "Jul 29, 2009 12:00:00 AM", "start": "2004-06-03", "phone": "+1-808-934-5905", "contact": "Kaz Sekiguchi", "location": "Kyoto University, Kyoto, Japan", "address": "Subaru Telescope, 650 North A'ohoku Place, Hilo, Hawaii, 96720,", "keywords": "", "ingested": "Mar 25, 2004 12:00:00 AM", "email": "kaz@naoj.org"}, {"web": "http://cfa-www.harvard.edu/icq/IWCA3.html", "fax": "", "bibCode": "", "end": "2004-06-06", "title": "Third International Workshop on Cometary Astronomy (IWCA III)", "meetingNumber": "1462", "modified": "Dec 31, 2003 12:00:00 AM", "start": "2004-06-04", "phone": "", "contact": "Daniel Green", "location": "Observatoire de Paris, France", "address": "Harvard-Smithsonian Ctr. for Astrophysics, 60 Garden St., Cambridge, MA, 02138,", "keywords": " comets, amateur-professional collaboration", "ingested": "Dec 31, 2003 12:00:00 AM", "email": "icq@cfa.harvard.edu"}, {"web": "http://www.aspenphys.org", "fax": "303-492-5235", "bibCode": "", "end": "2004-01-27", "title": "The Formation of Supermassive Black Holes\r\n\r\n", "meetingNumber": "1508", "modified": "Mar 03, 2004 12:00:00 AM", "start": "2004-06-06", "phone": "", "contact": "Andrew J S Hamilton", "location": "Aspen, Colorado", "address": "Box 440, JILA, U. Colorado, Boulder, CO 80309, USA,", "keywords": "Astrophysics, Black Holes, Gravitation", "ingested": "Mar 03, 2004 12:00:00 AM", "email": " Andrew.Hamilton@colorado.edu"}, {"web": "http://www.transit-of-venus.org.uk", "fax": "(44)(1772)892996", "bibCode": " 2005tvnv.conf.....K", "end": "2004-06-11", "title": " IAU Colloquium 196: Transits of Venus: New Views of the Solar System and Galaxy\r\n\r\n", "meetingNumber": "1382", "modified": "Jul 30, 2009 12:00:00 AM", "start": "2004-06-07", "GoogleMapsResponse": {"status": "OK", "results": [{"geometry": {"location_type": "APPROXIMATE", "bounds": {"northeast": {"lat": 53.7924911, "lng": -2.63028}, "southwest": {"lat": 53.74802099999999, "lng": -2.7640235}}, "viewport": {"northeast": {"lat": 53.7924911, "lng": -2.63028}, "southwest": {"lat": 53.74802099999999, "lng": -2.7640235}}, "location": {"lat": 53.763201, "lng": -2.70309}}, "address_components": [{"long_name": "Preston", "types": ["locality", "political"], "short_name": "Preston"}, {"long_name": "Lancashire", "types": ["administrative_area_level_2", "political"], "short_name": "Lancs"}, {"long_name": "England", "types": ["administrative_area_level_1", "political"], "short_name": "England"}, {"long_name": "United Kingdom", "types": ["country", "political"], "short_name": "GB"}, {"long_name": "Preston", "types": ["postal_town"], "short_name": "Preston"}], "formatted_address": "Preston, Lancashire, UK", "types": ["locality", "political"]}]}, "phone": "(44)(1772)893735", "contact": "Prof. Don Kurtz", "location": "Preston, Lancashire, UK", "address": "Centre for Astrophysics, University of Central Lancashire, Preston, Lancashire, PR1 2HE,", "keywords": "transit of venus; fundamental astronomy; solar system; parallax; history of astronomy; measurement of time;rotation of the Earth; galactic distance scale", "ingested": "Sep 09, 2003 12:00:00 AM", "email": "dwkurtz@uclan.ac.uk"}, {"web": "http://www.astron.nl/extragas", "fax": "+31-521-597332", "bibCode": " 2005ASPC..331.....B", "end": "2004-06-11", "title": "Extra-planar Gas\r\n\r\n", "meetingNumber": "1389", "modified": "Jul 30, 2009 12:00:00 AM", "start": "2004-06-07", "GoogleMapsResponse": {"status": "OK", "results": [{"geometry": {"location_type": "APPROXIMATE", "bounds": {"northeast": {"lat": 52.8894678, "lng": 6.4802656}, "southwest": {"lat": 52.7781072, "lng": 6.306169199999999}}, "viewport": {"northeast": {"lat": 52.8894678, "lng": 6.4802656}, "southwest": {"lat": 52.7781072, "lng": 6.306169199999999}}, "location": {"lat": 52.8353557, "lng": 6.3658171}}, "address_components": [{"long_name": "Dwingeloo", "types": ["locality", "political"], "short_name": "Dwingeloo"}, {"long_name": "Westerveld", "types": ["administrative_area_level_2", "political"], "short_name": "Westerveld"}, {"long_name": "Drenthe", "types": ["administrative_area_level_1", "political"], "short_name": "DR"}, {"long_name": "The Netherlands", "types": ["country", "political"], "short_name": "NL"}, {"long_name": "7991", "types": ["postal_code_prefix", "postal_code"], "short_name": "7991"}], "formatted_address": "7991 Dwingeloo, The Netherlands", "types": ["locality", "political"]}]}, "phone": " +31-521-595254", "contact": "Robert Braun", "location": "Dwingeloo, The Netherlands", "address": "ASTRON, PO Box 2, Dwingeloo, Netherlands, 7990 KJ,", "keywords": "galaxies, evolution, accretion, outflows", "ingested": "Sep 22, 2003 12:00:00 AM", "email": "rbraun@astron.nl"}, {"web": "http://cgwa.phys.utb.edu", "fax": "(956) 574-6726", "bibCode": "", "end": "2004-06-18", "title": "Gravitational Wave Astronomy Summer School\r\n\r\n", "meetingNumber": "1494", "modified": "Feb 17, 2004 12:00:00 AM", "start": "2004-06-07", "GoogleMapsResponse": {"status": "OK", "results": [{"geometry": {"location_type": "APPROXIMATE", "bounds": {"northeast": {"lat": 26.146534, "lng": -97.1582459}, "southwest": {"lat": 26.0789178, "lng": -97.177756}}, "viewport": {"northeast": {"lat": 26.146534, "lng": -97.1582459}, "southwest": {"lat": 26.0789178, "lng": -97.177756}}, "location": {"lat": 26.1118401, "lng": -97.16812569999999}}, "address_components": [{"long_name": "South Padre Island", "types": ["locality", "political"], "short_name": "South Padre Island"}, {"long_name": "Cameron County", "types": ["administrative_area_level_2", "political"], "short_name": "Cameron County"}, {"long_name": "Texas", "types": ["administrative_area_level_1", "political"], "short_name": "TX"},