[{"web": "http://www.great3challenge.info/?q=node/19", "fax": "", "bibCode": "", "end": "2014-01-07", "title": "GREAT3 Mid-challenge Meeting", "meetingNumber": "4165", "modified": "Oct 08, 2013 03:07:00 PM", "start": "2014-01-06", "GoogleMapsResponse": {"status": "OK", "results": [{"geometry": {"location_type": "APPROXIMATE", "bounds": {"northeast": {"lat": 26.4508411, "lng": -98.1102499}, "southwest": {"lat": 26.2472498, "lng": -98.2257939}}, "viewport": {"northeast": {"lat": 26.4508411, "lng": -98.1102499}, "southwest": {"lat": 26.2472498, "lng": -98.2257939}}, "location": {"lat": 26.3017374, "lng": -98.1633432}}, "address_components": [{"long_name": "Edinburg", "types": ["locality", "political"], "short_name": "Edinburg"}, {"long_name": "Hidalgo County", "types": ["administrative_area_level_2", "political"], "short_name": "Hidalgo County"}, {"long_name": "Texas", "types": ["administrative_area_level_1", "political"], "short_name": "TX"}, {"long_name": "United States", "types": ["country", "political"], "short_name": "US"}], "partial_match": true, "formatted_address": "Edinburg, TX, USA", "types": ["locality", "political"]}]}, "phone": "", "contact": "Barnaby Rowe", "location": "Institute for Astronomy, University of Edinburgh, The Royal Observatory Edinburg", "address": "Department of Physics & Astronomy\r\nUniversity College London\r\nGower Street\r\nLondon WC1E 6BT", "keywords": "weak gravitational lensing\r\nsimulations", "ingested": "Oct 08, 2013 03:07:00 PM", "email": "workshop@great3challenge.info"}, {"web": "http://star-www.st-and.ac.uk/~ch80/RAS_Meeting_2013__Ionisation_Processes/Welcome.html", "fax": "", "bibCode": "", "end": "2014-01-10", "title": "Ionising processes in atmospheric environments\r\nof planets, Brown Dwarfs, and M-dwarfs", "meetingNumber": "4075", "modified": "Jun 06, 2013 02:55:00 PM", "start": "2014-01-10", "GoogleMapsResponse": {"status": "OK", "results": [{"geometry": {"location_type": "APPROXIMATE", "bounds": {"northeast": {"lat": 51.6723432, "lng": 0.148271}, "southwest": {"lat": 51.38494009999999, "lng": -0.3514683}}, "viewport": {"northeast": {"lat": 51.6723432, "lng": 0.148271}, "southwest": {"lat": 51.38494009999999, "lng": -0.3514683}}, "location": {"lat": 51.508515, "lng": -0.1254872}}, "address_components": [{"long_name": "London", "types": ["locality", "political"], "short_name": "London"}, {"long_name": "United Kingdom", "types": ["country", "political"], "short_name": "GB"}], "partial_match": true, "formatted_address": "London, UK", "types": ["locality", "political"]}]}, "phone": "", "contact": "Christiane Helling", "location": "RAS, London, UK", "address": "University of St Andrews, UK", "keywords": "", "ingested": "May 21, 2013 01:53:00 PM", "email": "ch@leap2010.eu"}, {"web": "http://www.astroscu.unam.mx/cursos/esaobela/", "fax": "", "bibCode": "", "end": "2014-01-31", "title": "VII Escuela de astronom&iacute;a observacional para estudiantes latinoamericanos", "meetingNumber": "4146", "modified": "Feb 06, 2014 02:36:21 PM", "start": "2014-01-12", "GoogleMapsResponse": {"status": "OK", "results": [{"geometry": {"location": {"lat": 19.03, "lng": -98.32}, "viewport": {"northeast": {"lat": 19.0405478, "lng": -98.3039926}, "southwest": {"lat": 19.0194515, "lng": -98.3360074}}, "location_type": "APPROXIMATE"}, "address_components": [{"long_name": "Tonantzintla", "types": ["locality", "political"], "short_name": "Tonantzintla"}, {"long_name": "Puebla", "types": ["administrative_area_level_1", "political"], "short_name": "Puebla"}, {"long_name": "Mexico", "types": ["country", "political"], "short_name": "MX"}, {"long_name": "72828", "types": ["postal_code"], "short_name": "72828"}], "formatted_address": "72828 Tonantzintla, Puebla, Mexico", "types": ["locality", "political"]}]}, "phone": "", "contact": "Jose H. Pe&ntilde;a", "location": "Tonantzintla, M&eacute;xico.", "address": "", "keywords": "astronomia, escuela, observacional", "ingested": "Sep 19, 2013 07:40:00 AM", "email": "jhpena@astro.unam.mx"}, {"web": "http://bccp.berkeley.edu/beach_program/index2014.html", "fax": "", "bibCode": "", "end": "2014-01-17", "title": "Essential Cosmology for the Next Generation 2014", "meetingNumber": "4095", "modified": "Jun 17, 2013 11:41:00 AM", "start": "2014-01-13", "GoogleMapsResponse": {"status": "OK", "results": [{"geometry": {"location_type": "APPROXIMATE", "bounds": {"northeast": {"lat": 22.914768, "lng": -109.894286}, "southwest": {"lat": 22.8718754, "lng": -109.9712989}}, "viewport": {"northeast": {"lat": 22.914768, "lng": -109.894286}, "southwest": {"lat": 22.8718754, "lng": -109.9712989}}, "location": {"lat": 22.8905327, "lng": -109.9167371}}, "address_components": [{"long_name": "Cabo San Lucas", "types": ["locality", "political"], "short_name": "Cabo San Lucas"}, {"long_name": "Baja California Sur", "types": ["administrative_area_level_1", "political"], "short_name": "BCS"}, {"long_name": "Mexico", "types": ["country", "political"], "short_name": "MX"}], "formatted_address": "Cabo San Lucas, Baja California Sur, Mexico", "types": ["locality", "political"]}]}, "phone": "", "contact": "Eric Linder", "location": "Cabo San Lucas, Mexico", "address": "Berkeley Center for Cosmological Physics, Berkeley, CA 94720", "keywords": "cosmology, astrophysics, school, gravity", "ingested": "Jun 17, 2013 11:41:00 AM", "email": "bccpcotb@lbl.gov"}, {"web": "http://gawws.u-strasbg.fr/", "fax": "+33(0)3.68.85.24.17", "bibCode": "", "end": "2014-01-15", "title": "The 1st Gutenberg Astrophysics Winter School", "meetingNumber": "4198", "modified": "Nov 20, 2013 01:59:00 PM", "start": "2014-01-13", "GoogleMapsResponse": {"status": "OK", "results": [{"geometry": {"location_type": "APPROXIMATE", "bounds": {"northeast": {"lat": 48.6462221, "lng": 7.836045099999999}, "southwest": {"lat": 48.492005, "lng": 7.688142900000001}}, "viewport": {"northeast": {"lat": 48.6462221, "lng": 7.836045099999999}, "southwest": {"lat": 48.492005, "lng": 7.688142900000001}}, "location": {"lat": 48.583148, "lng": 7.747882}}, "address_components": [{"long_name": "Strasbourg", "types": ["locality", "political"], "short_name": "Strasbourg"}, {"long_name": "Bas-Rhin", "types": ["administrative_area_level_2", "political"], "short_name": "67"}, {"long_name": "Alsace", "types": ["administrative_area_level_1", "political"], "short_name": "Alsace"}, {"long_name": "France", "types": ["country", "political"], "short_name": "FR"}], "formatted_address": "Strasbourg, France", "types": ["locality", "political"]}]}, "phone": "+33(0)3.68.85.24.10", "contact": "christian boily", "location": "Strasbourg, France", "address": "Observatoire astronomique \r\n11 rue de l'Universit\u0102\u0160 \r\nStrasbourg \r\nF-67000 France", "keywords": "Multi-wavelength astronomy, data bases, astrometry, stellar populations, VO", "ingested": "Nov 20, 2013 01:59:00 PM", "email": "gawws@astro.unistra.fr"}, {"web": "http://www.astroscu.unam.mx/lookandlisten/", "fax": "+52-55-5616 0653", "bibCode": "", "end": "2014-01-24", "title": "Look & Listen: Electromagnetic and Gravitational Wave Signals from Compact Objects (Mexican School of Astrophysics)", "meetingNumber": "4129", "modified": "Aug 27, 2013 12:27:00 AM", "start": "2014-01-13", "GoogleMapsResponse": {"status": "OK", "results": [{"geometry": {"location_type": "APPROXIMATE", "bounds": {"northeast": {"lat": 20.6670995, "lng": -87.0477664}, "southwest": {"lat": 20.5999714, "lng": -87.1114968}}, "viewport": {"northeast": {"lat": 20.6670995, "lng": -87.0477664}, "southwest": {"lat": 20.5999714, "lng": -87.1114968}}, "location": {"lat": 20.6295586, "lng": -87.0738851}}, "address_components": [{"long_name": "Playa del Carmen", "types": ["locality", "political"], "short_name": "Playa del Carmen"}, {"long_name": "Quintana Roo", "types": ["administrative_area_level_1", "political"], "short_name": "QROO"}, {"long_name": "Mexico", "types": ["country", "political"], "short_name": "MX"}], "partial_match": true, "formatted_address": "Playa del Carmen, Quintana Roo, Mexico", "types": ["locality", "political"]}]}, "phone": "+52-55-5622 4016", "contact": "Dany Page", "location": "Playa del Carmen, Mayan Riviera, Mexico", "address": "Instituto de Astronomia,\r\nUniversidad Nacional Autonoma de Mexico,\r\nCiudad Universitaria,\r\nMexico, DF, 04510", "keywords": "Neutron Stars\r\nBlack Holes\r\nGamma-ray Bursts", "ingested": "Aug 27, 2013 12:27:00 AM", "email": "lookandlisten@astro.unam.mx"}, {"web": "https://indico.mpifr-bonn.mpg.de/indico/conferenceDisplay.py?confId=69", "fax": "", "bibCode": "", "end": "2014-01-22", "title": "Science with the Atacama Pathfinder Experiment", "meetingNumber": "4140", "modified": "Sep 11, 2013 09:55:00 AM", "start": "2014-01-19", "GoogleMapsResponse": {"status": "OK", "results": [{"geometry": {"location_type": "APPROXIMATE", "bounds": {"northeast": {"lat": 47.74772420000001, "lng": 11.8132802}, "southwest": {"lat": 47.6889151, "lng": 11.7261702}}, "viewport": {"northeast": {"lat": 47.74772420000001, "lng": 11.8132802}, "southwest": {"lat": 47.6889151, "lng": 11.7261702}}, "location": {"lat": 47.7051393, "lng": 11.7647251}}, "address_components": [{"long_name": "Tegernsee", "types": ["locality", "political"], "short_name": "Tegernsee"}, {"long_name": "Miesbach", "types": ["administrative_area_level_3", "political"], "short_name": "MB"}, {"long_name": "Upper Bavaria", "types": ["administrative_area_level_2", "political"], "short_name": "Upper Bavaria"}, {"long_name": "Bavaria", "types": ["administrative_area_level_1", "political"], "short_name": "BY"}, {"long_name": "Germany", "types": ["country", "political"], "short_name": "DE"}], "partial_match": true, "formatted_address": "Tegernsee, Germany", "types": ["locality", "political"]}]}, "phone": "49 228 525381", "contact": "Friedrich Wyrowski", "location": "Schloss Ringberg, Tegernsee, Germany", "address": "Max Planck Institute for Radioastronomy, Auf dem Huegel 69, Bonn, 53121", "keywords": "", "ingested": "Sep 11, 2013 09:55:00 AM", "email": "apex@mpifr-bonn.mpg.de"}, {"web": "http://lcogt.net/microlensing18", "fax": "", "bibCode": "", "end": "2014-01-24", "title": "18th International meeting on Gravitational Microlensing", "meetingNumber": "4114", "modified": "Jul 19, 2013 10:23:00 PM", "start": "2014-01-20", "GoogleMapsResponse": {"status": "OK", "results": [{"geometry": {"location_type": "APPROXIMATE", "bounds": {"northeast": {"lat": 34.4611451, "lng": -119.6399201}, "southwest": {"lat": 34.3952424, "lng": -119.859791}}, "viewport": {"northeast": {"lat": 34.4611451, "lng": -119.6399201}, "southwest": {"lat": 34.3952424, "lng": -119.7642139}}, "location": {"lat": 34.4208305, "lng": -119.6981901}}, "address_components": [{"long_name": "Santa Barbara", "types": ["locality", "political"], "short_name": "Santa Barbara"}, {"long_name": "Santa Barbara County", "types": ["administrative_area_level_2", "political"], "short_name": "Santa Barbara County"}, {"long_name": "California", "types": ["administrative_area_level_1", "political"], "short_name": "CA"}, {"long_name": "United States", "types": ["country", "political"], "short_name": "US"}], "formatted_address": "Santa Barbara, CA, USA", "types": ["locality", "political"]}]}, "phone": "", "contact": "Rachel Street", "location": "Santa Barbara, CA, USA", "address": "LCOGT\r\n6740 Cortona Drive, Suite 102\r\nGoleta, \r\nCA 93117\r\nUSA", "keywords": "Microlensing\r\nPlanets\r\nExoplanets", "ingested": "Jul 19, 2013 10:23:00 PM", "email": "rstreet@lcogt.net"}, {"web": "http://www.jb.man.ac.uk/meetings/emerlin2014", "fax": "", "bibCode": "", "end": "2014-01-21", "title": "e-MERLIN data school", "meetingNumber": "4206", "modified": "Dec 08, 2013 09:12:00 AM", "start": "2014-01-20", "GoogleMapsResponse": {"status": "OK", "results": [{"geometry": {"location_type": "APPROXIMATE", "bounds": {"northeast": {"lat": 53.4767422, "lng": -2.2261045}, "southwest": {"lat": 53.4577123, "lng": -2.2390362}}, "viewport": {"northeast": {"lat": 53.4767422, "lng": -2.2261045}, "southwest": {"lat": 53.4577123, "lng": -2.2390362}}, "location": {"lat": 53.4665323, "lng": -2.2335496}}, "address_components": [{"long_name": "The University of Manchester", "types": ["establishment"], "short_name": "The University of Manchester"}, {"long_name": "Oxford Road", "types": ["route"], "short_name": "Oxford Road"}, {"long_name": "Manchester", "types": ["locality", "political"], "short_name": "Manchester"}, {"long_name": "Greater Manchester", "types": ["administrative_area_level_2", "political"], "short_name": "Gt Man"}, {"long_name": "United Kingdom", "types": ["country", "political"], "short_name": "GB"}, {"long_name": "M13 9PL", "types": ["postal_code"], "short_name": "M13 9PL"}, {"long_name": "Manchester", "types": ["postal_town"], "short_name": "Manchester"}], "formatted_address": "The University of Manchester, Oxford Road, Manchester M13 9PL", "types": ["university", "establishment"]}]}, "phone": "+44 1612754080", "contact": "Neal Jackson", "location": "University of Manchester", "address": "University of Manchester\r\nJodrell Bank Centre for Astrophysics\r\nSchool of Physics and Astronomy\r\nManchester M13 9PL, UK", "keywords": "radio astronomy\r\neMERLIN\r\ndata analysis", "ingested": "Dec 08, 2013 09:12:00 AM", "email": "neal.jackson@manchester.ac.uk"}, {"web": "http://bcool2014.sciencesconf.org", "fax": "+33561332840", "bibCode": "", "end": "2014-01-24", "title": "Third Bcool workshop", "meetingNumber": "4169", "modified": "Oct 15, 2013 06:37:00 AM", "start": "2014-01-20", "GoogleMapsResponse": {"status": "OK", "results": [{"geometry": {"location": {"lat": 56.339316, "lng": -2.7965}, "viewport": {"northeast": {"lat": 56.3455001, "lng": -2.7804926}, "southwest": {"lat": 56.33313090000001, "lng": -2.8125074}}, "location_type": "APPROXIMATE"}, "address_components": [{"long_name": "Saint Andrews", "types": ["locality", "political"], "short_name": "St. Andrews"}, {"long_name": "Fife", "types": ["administrative_area_level_2", "political"], "short_name": "Fife"}, {"long_name": "Scotland", "types": ["administrative_area_level_1", "political"], "short_name": "Scotland"}, {"long_name": "United Kingdom", "types": ["country", "political"], "short_name": "GB"}, {"long_name": "KY16", "types": ["postal_code_prefix", "postal_code"], "short_name": "KY16"}, {"long_name": "Saint Andrews", "types": ["postal_town"], "short_name": "St. Andrews"}], "formatted_address": "Saint Andrews, Fife KY16, UK", "types": ["locality", "political"]}]}, "phone": "+33561332828", "contact": "Pascal Petit", "location": "Saint Andrews (UK)", "address": "14 avenue Edouard Belin\r\n31400 Toulouse\r\nFrance", "keywords": "stars", "ingested": "Oct 15, 2013 06:37:00 AM", "email": "bcool2014@sciencesconf.org"}, {"web": "https://sites.google.com/a/umich.edu/massive-galaxies-aspen-2014/", "fax": "", "bibCode": "", "end": "2014-02-07", "title": "Unveiling the Formation of Massive Galaxies - Theoretical and Observational Challenges", "meetingNumber": "4135", "modified": "Sep 07, 2013 11:01:00 AM", "start": "2014-02-02", "phone": "", "contact": "Oleg Gnedin", "location": "Aspen Center for Physics", "address": "University of Michigan", "keywords": "", "ingested": "Sep 07, 2013 11:01:00 AM", "email": "ognedin@umich.edu"}, {"web": "http://www.eso.org/exoelt2014/", "fax": "", "bibCode": "", "end": "2014-02-06", "title": "Exoplanet Observations with the E-ELT", "meetingNumber": "4155", "modified": "Sep 27, 2013 12:48:00 PM", "start": "2014-02-03", "GoogleMapsResponse": {"status": "OK", "results": [{"geometry": {"location_type": "APPROXIMATE", "bounds": {"northeast": {"lat": 48.262178, "lng": 11.6736824}, "southwest": {"lat": 48.2581265, "lng": 11.6694825}}, "viewport": {"northeast": {"lat": 48.262178, "lng": 11.6736824}, "southwest": {"lat": 48.2581265, "lng": 11.6694825}}, "location": {"lat": 48.2595829, "lng": 11.6709547}}, "address_components": [{"long_name": "European Southern Observatory", "types": ["establishment"], "short_name": "European Southern Observatory"}, {"long_name": "2", "types": ["street_number"], "short_name": "2"}, {"long_name": "Karl-Schwarzschild-Stra\u00dfe", "types": ["route"], "short_name": "Karl-Schwarzschild-Stra\u00dfe"}, {"long_name": "Garching bei M\u00fcnchen", "types": ["locality", "political"], "short_name": "Garching bei M\u00fcnchen"}, {"long_name": "Munich", "types": ["administrative_area_level_3", "political"], "short_name": "Munich"}, {"long_name": "Upper Bavaria", "types": ["administrative_area_level_2", "political"], "short_name": "Upper Bavaria"}, {"long_name": "Bayern", "types": ["administrative_area_level_1", "political"], "short_name": "Bayern"}, {"long_name": "Germany", "types": ["country", "political"], "short_name": "DE"}, {"long_name": "85748", "types": ["postal_code"], "short_name": "85748"}], "formatted_address": "European Southern Observatory, Karl-Schwarzschild-Stra\u00dfe 2, 85748 Garching bei M\u00fcnchen", "types": ["establishment"]}]}, "phone": "", "contact": "Joe Liske", "location": "ESO Garching, Germany", "address": "", "keywords": "exoplanets, E-ELT", "ingested": "Sep 27, 2013 12:48:00 PM", "email": "exoelt2014@eso.org"}, {"web": "http://www.exoclimes.org/", "fax": "", "bibCode": "", "end": "2014-02-14", "title": "Exoclimes III", "meetingNumber": "4061", "modified": "Apr 30, 2013 09:17:00 AM", "start": "2014-02-09", "GoogleMapsResponse": {"status": "OK", "results": [{"geometry": {"location_type": "APPROXIMATE", "bounds": {"northeast": {"lat": 46.85958, "lng": 9.9670901}, "southwest": {"lat": 46.6702399, "lng": 9.720749999999999}}, "viewport": {"northeast": {"lat": 46.85958, "lng": 9.9670901}, "southwest": {"lat": 46.6702399, "lng": 9.720749999999999}}, "location": {"lat": 46.8001204, "lng": 9.830889599999999}}, "address_components": [{"long_name": "Davos", "types": ["locality", "political"], "short_name": "Davos"}, {"long_name": "Pr\u00e4ttigau/Davos District", "types": ["administrative_area_level_2", "political"], "short_name": "Pr\u00e4ttigau/Davos District"}, {"long_name": "Grisons", "types": ["administrative_area_level_1", "political"], "short_name": "GR"}, {"long_name": "Switzerland", "types": ["country", "political"], "short_name": "CH"}], "formatted_address": "Davos, Switzerland", "types": ["locality", "political"]}]}, "phone": "", "contact": "Frederic Pont", "location": "Davos, Switzerland", "address": "", "keywords": "Exoplanets, Brown Dwarfs, Planetary Science, Atmospheric Science, Climate, Earth", "ingested": "Apr 30, 2013 09:17:00 AM", "email": "exoclimes@astro.ex.ac.uk"}, {"web": "http://bambi2014.fudan.edu.cn/", "fax": "", "bibCode": "", "end": "2014-02-15", "title": "Fudan Winter School on Astrophysical Black Holes", "meetingNumber": "3987", "modified": "Feb 26, 2013 01:34:00 PM", "start": "2014-02-10", "phone": "+86-187-2171-1498", "contact": "Cosimo Bambi", "location": "Fudan University, Shanghai, China", "address": "Guanghua East Tower, Fudan University\r\n220 Handan Road, 200433 Shanghai, China", "keywords": "Black Holes", "ingested": "Feb 26, 2013 01:34:00 PM", "email": "bambi@fudan.edu.cn"}, {"web": "http://www.cge.uci.edu/2014_Workshop/", "fax": "", "bibCode": "", "end": "2014-02-14", "title": "The Near-Field / Deep-Field Connection", "meetingNumber": "4081", "modified": "Sep 06, 2013 08:52:00 PM", "start": "2014-02-12", "phone": "", "contact": "James Bullock", "location": "Irvine, CA USA", "address": "", "keywords": "reionization, first-light, local group, dwarf galaxies, metal poor stars, circum-galactic medium, IMF, Milky Way", "ingested": "May 30, 2013 04:04:00 PM", "email": "cge2014workshop@gmail.com"}, {"web": "http://astro3.sci.hokudai.ac.jp/igssf2014", "fax": "", "bibCode": "", "end": "2014-02-21", "title": "The Impact of Galactic Structure on Star Formation", "meetingNumber": "4162", "modified": "Oct 05, 2013 09:54:00 AM", "start": "2014-02-16", "phone": "", "contact": "Elizabeth Tasker", "location": "Sapporo, Japan", "address": "", "keywords": "galactic structure, star formation", "ingested": "Oct 04, 2013 09:37:00 AM", "email": "tasker@astro1.sci.hokudai.ac.jp"}, {"web": "http://lorentzcenter.nl/lc/web/2014/604/info.php3?wsid=604&venue=Oort", "fax": "", "bibCode": "", "end": "2014-02-21", "title": "Tracing the cosmic Web", "meetingNumber": "4197", "modified": "Nov 18, 2013 11:46:00 AM", "start": "2014-02-17", "phone": "+ 31 71 527 5585", "contact": "Noam Libeskind, Rien van de Weijgaert", "location": "Leiden, The Netherlands (Lorentz Center)", "address": "Lorentz Center,\r\nP.O. Box 9506,\r\n2300 RA Leiden,\r\nThe Netherlands", "keywords": "Large-scale structure, the cosmic web, dark matter", "ingested": "Nov 18, 2013 11:46:00 AM", "email": "nlibeskind@aip.de,weygaert@astro.rug.nl"}, {"web": "http://fisica.iaps.inaf.it/wp/", "fax": "+39-0649934182", "bibCode": "", "end": "2014-02-18", "title": "Science Goals of a Sub-arcsecond\r\nFar-infrared Space Observatory, 1st FISICA meeting", "meetingNumber": "4196", "modified": "Nov 15, 2013 11:31:00 AM", "start": "2014-02-17", "phone": "+39-0649934395", "contact": "Luigi Spinoglio", "location": "National Council of Research, Piazzale Aldo Moro 7, 00185 Roma, Italy", "address": "Istituto di Astrofisica e Planetologia Spaziali \r\nINAF, Area di Ricerca di Torvergata\r\nVia Fosso del Cavaliere 100,\r\n00133 Roma\r\nItaly", "keywords": "mid-IR, far-IR, interferometry, science goals", "ingested": "Nov 15, 2013 11:31:00 AM", "email": "Luigi.Spinoglio@iaps.inaf.it"}, {"web": "http://ska2014.ska.ac.za/", "fax": "", "bibCode": "", "end": "2014-02-21", "title": "Transformational Science with the SKA, Synergies with ALMA and other Contemporary Instruments", "meetingNumber": "4147", "modified": "Sep 20, 2013 10:35:00 AM", "start": "2014-02-17", "phone": "", "contact": "Roy Booth", "location": "Stellenbosch, South Africa", "address": "SKA SA, 3rd Floor, The Park, Park Rd, , Pinelands, 7405, South Africa", "keywords": "New instruments, cosmology, cosmic dawn, reionisation, HI in the early Universe, magnetism, structure formation and the first galaxies, galaxy evolution, the ISM\r\npulsars, transients, extreme physics", "ingested": "Sep 19, 2013 07:39:00 AM", "email": "rbooth@ska.ac.za"}, {"web": "http://www.space.noa.gr/netspace/", "fax": "", "bibCode": "", "end": "2014-02-19", "title": "NETworking technologies for efficient SPACE data dissemination and exploitation (NETSPACE) workshop", "meetingNumber": "4099", "modified": "Jun 21, 2013 06:49:00 AM", "start": "2014-02-18", "phone": "", "contact": "Ioannis Daglis", "location": "Athens, Greece", "address": "Metaxa & Vas. Pavlou str. 15236, Penteli, Athens, G", "keywords": "space data dissemination, space data routers, delay tolerant networks", "ingested": "Jun 21, 2013 06:49:00 AM", "email": "daglis@noa.gr"}, {"web": "https://sites.google.com/site/tribesofthedeepsky/", "fax": "", "bibCode": "", "end": "2014-02-28", "title": "Tribes of the Deep Sky", "meetingNumber": "4163", "modified": "Oct 04, 2013 09:38:00 AM", "start": "2014-02-24", "GoogleMapsResponse": {"status": "OK", "results": [{"geometry": {"location_type": "APPROXIMATE", "bounds": {"northeast": {"lat": -26.8738769, "lng": 27.5339439}, "southwest": {"lat": -26.939968, "lng": 27.4301361}}, "viewport": {"northeast": {"lat": -26.8738769, "lng": 27.5339439}, "southwest": {"lat": -26.939968, "lng": 27.4301361}}, "location": {"lat": -26.89777, "lng": 27.45496}}, "address_components": [{"long_name": "Parys", "types": ["locality", "political"], "short_name": "Parys"}, {"long_name": "Parys", "types": ["administrative_area_level_3", "political"], "short_name": "Parys"}, {"long_name": "Northern Free State", "types": ["administrative_area_level_2", "political"], "short_name": "Northern Free State"}, {"long_name": "Free State", "types": ["administrative_area_level_1", "political"], "short_name": "FS"}, {"long_name": "South Africa", "types": ["country", "political"], "short_name": "ZA"}], "formatted_address": "Parys, South Africa", "types": ["locality", "political"]}]}, "phone": "", "contact": "Steve Crawford,Ilani Loubser", "location": "Parys South Africa", "address": "", "keywords": "galaxies, galaxy evolution, galaxy groups, galaxy clusters, brightest cluster galaxies, proto-clusters,", "ingested": "Oct 04, 2013 09:38:00 AM", "email": "deepskytribes@gmail.com"}, {"web": "http://www.aeroconf.org/", "fax": "", "bibCode": "", "end": "2013-03-08", "title": "2014 IEEE Aerospace Conference", "meetingNumber": "4116", "modified": "Jul 25, 2013 09:56:00 PM", "start": "2014-03-01", "GoogleMapsResponse": {"status": "OK", "results": [{"geometry": {"location_type": "APPROXIMATE", "bounds": {"northeast": {"lat": 45.379394, "lng": -111.0381659}, "southwest": {"lat": 45.1307599, "lng": -111.494064}}, "viewport": {"northeast": {"lat": 45.379394, "lng": -111.0381659}, "southwest": {"lat": 45.1307599, "lng": -111.494064}}, "location": {"lat": 45.271159, "lng": -111.2990514}}, "address_components": [{"long_name": "Big Sky", "types": ["locality", "political"], "short_name": "Big Sky"}, {"long_name": "Gallatin County", "types": ["administrative_area_level_2", "political"], "short_name": "Gallatin County"}, {"long_name": "Montana", "types": ["administrative_area_level_1", "political"], "short_name": "MT"}, {"long_name": "United States", "types": ["country", "political"], "short_name": "US"}], "formatted_address": "Big Sky, MT, USA", "types": ["locality", "political"]}]}, "phone": "818-354-4605", "contact": "Richard Mattingly", "location": "Big Sky, MT, USA", "address": "Caltech-JPL, Pasadena, CA, USA", "keywords": "astronomical satellites and missions, space technology, detection techniques, image and signal processing", "ingested": "Jul 25, 2013 09:56:00 PM", "email": "richard.l.mattingly@jpl.nasa.gov"}, {"web": "http://www.eso.org/sci/meetings/2014/3D2014.html", "fax": "", "bibCode": "", "end": "2014-03-14", "title": "3D2014 - Gas and stars in galaxies: A multi-wavelength 3D perspective", "meetingNumber": "3853", "modified": "Jul 08, 2013 05:32:00 AM", "start": "2014-03-10", "GoogleMapsResponse": {"status": "OK", "results": [{"geometry": {"location_type": "APPROXIMATE", "bounds": {"northeast": {"lat": 48.2732261, "lng": 11.6851891}, "southwest": {"lat": 48.2167624, "lng": 11.5971975}}, "viewport": {"northeast": {"lat": 48.2732261, "lng": 11.6851891}, "southwest": {"lat": 48.2167624, "lng": 11.5971975}}, "location": {"lat": 48.2488721, "lng": 11.6532477}}, "address_components": [{"long_name": "Garching", "types": ["locality", "political"], "short_name": "Garching"}, {"long_name": "Munich", "types": ["administrative_area_level_3", "political"], "short_name": "M"}, {"long_name": "Upper Bavaria", "types": ["administrative_area_level_2", "political"], "short_name": "Upper Bavaria"}, {"long_name": "Bavaria", "types": ["administrative_area_level_1", "political"], "short_name": "BY"}, {"long_name": "Germany", "types": ["country", "political"], "short_name": "DE"}], "partial_match": true, "formatted_address": "Garching, Germany", "types": ["locality", "political"]}]}, "phone": "", "contact": "Martin Zwaan, Harald Kuntschner, Carlos De Breuck", "location": "Garching near Munich, Germany", "address": "ESO\r\nKarl-Schwarzschild-Strasse 2\r\nD-85748 Garching, Germany", "keywords": "", "ingested": "Oct 14, 2012 11:43:00 AM", "email": "gal3d2014@eso.org"}, {"web": "http://www.astron.nl/phiscc2014", "fax": "", "bibCode": "", "end": "2014-03-19", "title": "7th International PHISCC Workshop - The Challenges of Upcoming HI Surveys", "meetingNumber": "4187", "modified": "Nov 01, 2013 09:23:00 AM", "start": "2014-03-17", "GoogleMapsResponse": {"status": "OK", "results": [{"geometry": {"location_type": "APPROXIMATE", "bounds": {"northeast": {"lat": 52.8894678, "lng": 6.4802656}, "southwest": {"lat": 52.7781072, "lng": 6.306169199999999}}, "viewport": {"northeast": {"lat": 52.8894678, "lng": 6.4802656}, "southwest": {"lat": 52.7781072, "lng": 6.306169199999999}}, "location": {"lat": 52.8353557, "lng": 6.3658171}}, "address_components": [{"long_name": "Dwingeloo", "types": ["locality", "political"], "short_name": "Dwingeloo"}, {"long_name": "Westerveld", "types": ["administrative_area_level_2", "political"], "short_name": "Westerveld"}, {"long_name": "Drenthe", "types": ["administrative_area_level_1", "political"], "short_name": "DR"}, {"long_name": "The Netherlands", "types": ["country", "political"], "short_name": "NL"}, {"long_name": "7991", "types": ["postal_code_prefix", "postal_code"], "short_name": "7991"}], "partial_match": true, "formatted_address": "7991 Dwingeloo, The Netherlands", "types": ["locality", "political"]}]}, "phone": "+31-50-3634077", "contact": "Marc Verheijen (SOC), Tom Oosterloo (LOC)", "location": "ASTRON, Dwingeloo, The Netherlands", "address": "Marc Verheijen, \r\nKapteyn Astronomical Institute, \r\nLandleven 12, \r\n9747AD Groningen, \r\nThe Netherlands\r\n\r\n---\r\n\r\nTom Oosterloo, \r\nNetherlands Institute for Radio Astronomy, \r\nOude Hoogeveensedijk 4, \r\n7991 PD Dwingeloo, \r\nThe Netherlands", "keywords": "", "ingested": "Nov 01, 2013 09:23:00 AM", "email": "verheyen@astro.rug.nl , oosterloo@astron.nl"}, {"web": "http://www.stsci.edu/institute/conference/hst4", "fax": "+410-338-2617", "bibCode": "", "end": "2014-03-20", "title": "Science with the Hubble Space Telescope IV", "meetingNumber": "4139", "modified": "Sep 09, 2013 01:02:00 PM", "start": "2014-03-17", "GoogleMapsResponse": {"status": "OK", "results": [{"geometry": {"location": {"lat": 41.8932591, "lng": 12.466866}, "viewport": {"northeast": {"lat": 41.8946080802915, "lng": 12.4682149802915}, "southwest": {"lat": 41.89191011970851, "lng": 12.4655170197085}}, "location_type": "APPROXIMATE"}, "address_components": [{"long_name": "Accademia dei Lincei", "types": ["point_of_interest", "establishment"], "short_name": "Accademia dei Lincei"}, {"long_name": "10", "types": ["street_number"], "short_name": "10"}, {"long_name": "Via della Lungara", "types": ["route"], "short_name": "Via della Lungara"}, {"long_name": "Rome", "types": ["locality", "political"], "short_name": "Rome"}, {"long_name": "Rome", "types": ["administrative_area_level_2", "political"], "short_name": "RM"}, {"long_name": "RM", "types": ["administrative_area_level_1", "political"], "short_name": "RM"}, {"long_name": "Italy", "types": ["country", "political"], "short_name": "IT"}, {"long_name": "00165", "types": ["postal_code"], "short_name": "00165"}], "formatted_address": "Accademia dei Lincei, Via della Lungara, 10, 00165 Rome, Italy", "types": ["point_of_interest", "establishment"]}]}, "phone": "+410-338-4520", "contact": "Antonella Nota", "location": "Accademia dei Lincei, Rome, Italy", "address": "Space Telescope Science Institute,\r\n3700 San Martin Drive, Baltimore MD 21218", "keywords": "Hubble Space Telescope", "ingested": "Sep 09, 2013 01:02:00 PM", "email": "hst4@stsci.edu"}, {"web": "http://www.ebi2014.org", "fax": "", "bibCode": "", "end": "2014-03-21", "title": "Search for Life Beyond the Solar System.\r\nExoplanets, Biosignatures & Instruments", "meetingNumber": "3731", "modified": "Jan 23, 2013 08:42:00 PM", "start": "2014-03-17", "GoogleMapsResponse": {"status": "OK", "results": [{"geometry": {"location_type": "APPROXIMATE", "bounds": {"northeast": {"lat": 32.32016610000001, "lng": -110.708204}, "southwest": {"lat": 31.9916539, "lng": -111.059406}}, "viewport": {"northeast": {"lat": 32.32016490000001, "lng": -110.708204}, "southwest": {"lat": 31.9916539, "lng": -111.059406}}, "location": {"lat": 32.2217429, "lng": -110.926479}}, "address_components": [{"long_name": "Tucson", "types": ["locality", "political"], "short_name": "Tucson"}, {"long_name": "Pima County", "types": ["administrative_area_level_2", "political"], "short_name": "Pima County"}, {"long_name": "Arizona", "types": ["administrative_area_level_1", "political"], "short_name": "AZ"}, {"long_name": "United States", "types": ["country", "political"], "short_name": "US"}], "formatted_address": "Tucson, AZ, USA", "types": ["locality", "political"]}]}, "phone": "", "contact": "Pavel Gabor", "location": "Tucson, Arizona, USA", "address": "Vatican Observatory Research Group\r\nDpt of Astronomy\r\n933 N Cherry Ave\r\nTucson, AZ 85721", "keywords": "exoplanets, biosignatures, instrumentation, biomarkers", "ingested": "May 07, 2012 11:23:00 AM", "email": "pgabor@specola.va"}, {"web": "http://astroplate.cz", "fax": "None", "bibCode": "", "end": "2014-03-21", "title": "ASTROPLATE2014:    International workshop on scientific use, digitization and preserving astronomical photographic records", "meetingNumber": "4245", "modified": "Jan 17, 2014 05:10:00 AM", "start": "2014-03-18", "GoogleMapsResponse": {"status": "OK", "results": [{"geometry": {"location_type": "APPROXIMATE", "bounds": {"northeast": {"lat": 50.177403, "lng": 14.7067945}, "southwest": {"lat": 49.94193629999999, "lng": 14.2244533}}, "viewport": {"northeast": {"lat": 50.177403, "lng": 14.7067945}, "southwest": {"lat": 49.94193629999999, "lng": 14.2244533}}, "location": {"lat": 50.0755381, "lng": 14.4378005}}, "address_components": [{"long_name": "Prague", "types": ["locality", "political"], "short_name": "Prague"}, {"long_name": "Hlavn\u00ed m\u011bsto Praha", "types": ["administrative_area_level_2", "political"], "short_name": "Hlavn\u00ed m\u011bsto Praha"}, {"long_name": "Hlavn\u00ed m\u011bsto Praha", "types": ["administrative_area_level_1", "political"], "short_name": "Hlavn\u00ed m\u011bsto Praha"}, {"long_name": "Czech Republic", "types": ["country", "political"], "short_name": "CZ"}], "formatted_address": "Prague, Czech Republic", "types": ["locality", "political"]}]}, "phone": "None", "contact": "Rene Hudec", "location": "Prague", "address": "Astronomical Institute\r\nCZ-251 65 Ondrejov", "keywords": "astronomical data archives, astronomical photography, astronomical plates, data mining, digitization", "ingested": "Jan 17, 2014 05:10:00 AM", "email": "rene.hudec@gmail.com"}, {"web": "http://www.asi2014.in", "fax": "+91-172-2240266", "bibCode": "", "end": "2014-03-22", "title": "Annual meeting of the Astronomical Society of India", "meetingNumber": "4152", "modified": "Sep 26, 2013 01:41:44 AM", "start": "2014-03-20", "GoogleMapsResponse": {"status": "OK", "results": [{"geometry": {"location_type": "APPROXIMATE", "bounds": {"northeast": {"lat": 30.6668509, "lng": 76.7337227}, "southwest": {"lat": 30.6592658, "lng": 76.7206776}}, "viewport": {"northeast": {"lat": 30.6668509, "lng": 76.7337227}, "southwest": {"lat": 30.6592658, "lng": 76.7206776}}, "location": {"lat": 30.6630584, "lng": 76.7272002}}, "address_components": [{"long_name": "Indian Institute of Science Education and Research", "types": ["establishment"], "short_name": "IISER"}, {"long_name": "Sector 81", "types": ["sublocality", "political"], "short_name": "Sector 81"}, {"long_name": "Sahibzada Ajit Singh Nagar", "types": ["locality", "political"], "short_name": "S A S Nagar"}, {"long_name": "Mohali", "types": ["administrative_area_level_2", "political"], "short_name": "SAS Nagar"}, {"long_name": "Punjab", "types": ["administrative_area_level_1", "political"], "short_name": "PB"}, {"long_name": "India", "types": ["country", "political"], "short_name": "IN"}, {"long_name": "140308", "types": ["postal_code"], "short_name": "140308"}], "formatted_address": "Indian Institute of Science Education and Research, Sector 81, Sahibzada Ajit Singh Nagar, Punjab 140308, India", "types": ["establishment"]}]}, "phone": "+91-172-2293130", "contact": "J S Bagla", "location": "IISER Mohali", "address": "IISER Mohali, , Sector 81,, S. A. S. Nagar,, Punjab, India", "keywords": "Astronomy, Astrophysics", "ingested": "Sep 26, 2013 01:41:00 AM", "email": "asi2014@iisermohali.ac.in"}, {"web": "http://moriond.in2p3.fr/J14", "fax": "None", "bibCode": "", "end": "2014-03-29", "title": "Rencontres de Moriond on Cosmology", "meetingNumber": "4239", "modified": "Jan 13, 2014 08:10:00 AM", "start": "2014-03-22", "GoogleMapsResponse": {"status": "OK", "results": [{"geometry": {"location_type": "APPROXIMATE", "bounds": {"northeast": {"lat": 45.72039030000001, "lng": 6.9610252}, "southwest": {"lat": 45.7051494, "lng": 6.939850099999999}}, "viewport": {"northeast": {"lat": 45.72039030000001, "lng": 6.9610252}, "southwest": {"lat": 45.7051494, "lng": 6.939850099999999}}, "location": {"lat": 45.71685249999999, "lng": 6.948686299999999}}, "address_components": [{"long_name": "La Thuile", "types": ["locality", "political"], "short_name": "La Thuile"}, {"long_name": "La Thuile", "types": ["administrative_area_level_3", "political"], "short_name": "La Thuile"}, {"long_name": "Aosta Valley", "types": ["administrative_area_level_2", "political"], "short_name": "AO"}, {"long_name": "Aosta", "types": ["administrative_area_level_1", "political"], "short_name": "Aosta"}, {"long_name": "Italy", "types": ["country", "political"], "short_name": "IT"}, {"long_name": "11016", "types": ["postal_code"], "short_name": "11016"}], "formatted_address": "11016 La Thuile Aosta Valley, Italy", "types": ["locality", "political"]}]}, "phone": "+33 1 44 27 48 42", "contact": "Jacques Dumarchez", "location": "La Thuile, Aosta Valley, Italy", "address": "LPNHE - Univ. of Paris \r\nCC 200\r\n4 Place Jussieu\r\n75005 Paris\r\nFRANCE", "keywords": "cosmoloy, CMB, dark energy, dark matter, clusters, massive gravity, modified gravity", "ingested": "Jan 13, 2014 08:10:00 AM", "email": "jacques.dumarchez@cern.ch"}, {"web": "http://astro.physics.ualberta.ca/rockies14/", "fax": "", "bibCode": "", "end": "2014-03-28", "title": "Stellar tango at Rockies 14", "meetingNumber": "4109", "modified": "Jul 09, 2013 09:43:00 AM", "start": "2014-03-23", "GoogleMapsResponse": {"status": "OK", "results": [{"geometry": {"location_type": "APPROXIMATE", "bounds": {"northeast": {"lat": 51.18383, "lng": -113.8769511}, "southwest": {"lat": 50.84240399999999, "lng": -114.27136}}, "viewport": {"northeast": {"lat": 51.18383, "lng": -113.8769511}, "southwest": {"lat": 50.84240399999999, "lng": -114.27136}}, "location": {"lat": 51.0453246, "lng": -114.0581012}}, "address_components": [{"long_name": "Calgary", "types": ["locality", "political"], "short_name": "Calgary"}, {"long_name": "Division No. 6", "types": ["administrative_area_level_2", "political"], "short_name": "Division No. 6"}, {"long_name": "Alberta", "types": ["administrative_area_level_1", "political"], "short_name": "AB"}, {"long_name": "Canada", "types": ["country", "political"], "short_name": "CA"}], "partial_match": true, "formatted_address": "Calgary, AB, Canada", "types": ["locality", "political"]}]}, "phone": "", "contact": "Natalia Ivanova", "location": "Lake Louise, near Banff/Calgary, Canada", "address": "loc14@interactingstars.org", "keywords": "stars binaries supernova transients GRBs", "ingested": "Jul 09, 2013 09:43:00 AM", "email": ""}, {"web": "http://gaiabds.oato.inaf.it/", "fax": "+390118101930", "bibCode": "", "end": "2014-03-26", "title": "Gaia and the Unseen: The Brown Dwarf Question", "meetingNumber": "4127", "modified": "Oct 04, 2013 09:34:00 AM", "start": "2014-03-24", "phone": "+390118101926", "contact": "Richard Smart", "location": "Rettorato, Torino University, Torino, Italy.", "address": "Osservatorio Astrofisico di Torino,\r\nStrada Osservatorio 20,\r\nPino Torinese,\r\nTO10025,\r\nItaly", "keywords": "brown dwarfs, Gaia, substellar", "ingested": "Aug 13, 2013 09:08:00 AM", "email": "gaiabds@oato.inaf.it"}, {"web": "http://indico.cern.ch/e/NS2014", "fax": "", "bibCode": "", "end": "2014-03-28", "title": "The Structure and Signals of Neutron Stars, from Birth to Death", "meetingNumber": "4145", "modified": "Sep 17, 2013 03:58:00 PM", "start": "2014-03-24", "phone": "+39-0532-974278", "contact": "Alessandro Drago", "location": "Firenze, Italy", "address": "Dipartimento di Fisica e Scienze della Terra, Universit\u0102\u00a0 di Ferrara, \r\nVia Saragat 1, \r\n44122 Ferrara -\r\nItaly", "keywords": "neutron stars, compact stars, supernovae, gamma ray bursts, nuclear matter, quark matter, x ray astronomy", "ingested": "Sep 17, 2013 03:58:00 PM", "email": "drago@fe.infn.it"}, {"web": "", "fax": "", "bibCode": "", "end": "2014-04-02", "title": "The Cosmic Distance Scale", "meetingNumber": "4166", "modified": "Oct 10, 2013 06:38:00 AM", "start": "2014-03-31", "phone": "410-338-4439", "contact": "Mario Livio", "location": "Space Telescope Science Institute", "address": "3700 San Martin Drive\r\nBaltimore, MD  21218", "keywords": "", "ingested": "Oct 10, 2013 06:38:00 AM", "email": "mlivio@stsci.edu"}, {"web": "http://www.zarm.uni-bremen.de/sgr2014/index.html", "fax": "None", "bibCode": "", "end": "2014-04-04", "title": "The Strong Gravity Regime of Black Holes and Neutron Stars", "meetingNumber": "4242", "modified": "Jan 14, 2014 08:27:00 AM", "start": "2014-03-31", "phone": "None", "contact": "Heino Falcke", "location": "Bad Honnef, Germany", "address": "None", "keywords": "", "ingested": "Jan 14, 2014 08:27:00 AM", "email": "h.falcke@astro.ru.nl"}, {"web": "http://www.aao.gov.au/conferences/OTW2014/", "fax": "None", "bibCode": "", "end": "2014-04-04", "title": "The AusGO/AAO Observational Techniques Workshop 2014", "meetingNumber": "4274", "modified": "Jan 29, 2014 02:43:00 PM", "start": "2014-04-01", "phone": "None", "contact": "Caroline Foster", "location": "Australian Astronomical Observatory, North Ryde, NSW, Australia", "address": "105 Delhi Road\r\nNorth Ryde\r\nNSW\r\nAustralia", "keywords": "Observational Techniques Workshop\r\nAustralian Gemini Office\r\nAustralian Astronomical Observatory", "ingested": "Jan 29, 2014 02:43:00 PM", "email": "caroline.foster@aao.gov.au"}, {"web": "http://www.eso.org/haebe2014.html", "fax": "", "bibCode": "", "end": "2014-04-11", "title": "Herbig Ae/Be stars: The missing link in star formation", "meetingNumber": "4156", "modified": "Sep 27, 2013 01:04:00 PM", "start": "2014-04-07", "phone": "+49 89 32005311", "contact": "Willem-Jan de Wit, Rene Oudmaijer", "location": "Santiago de Chile", "address": "ESO Vitacura\r\nCasilla 19001\r\nSantiago 19\r\nChile", "keywords": "Star Formation - Protoplanetary Disks - Intermediate-Mass Stars - Herbig Ae/Be Stars", "ingested": "Sep 27, 2013 12:49:00 PM", "email": "haebe2014@eso.org"}, {"web": "http://www.jb.man.ac.uk/meetings/emerlin2014", "fax": "", "bibCode": "", "end": "2014-04-11", "title": "e-MERLIN Early Science Meeting", "meetingNumber": "4207", "modified": "Dec 08, 2013 09:12:00 AM", "start": "2014-04-10", "phone": "+44 1612754080", "contact": "Neal Jackson", "location": "University of Manchester", "address": "University of Manchester\r\nJodrell Bank Centre for Astrophysics\r\nSchool of Physics & Astronomy\r\nManchester M13 9PL, UK", "keywords": "radio astronomy\r\ne-MERLIN", "ingested": "Dec 08, 2013 09:12:00 AM", "email": "neal.jackson@manchester.ac.uk"}, {"web": "http://www.kitp.ucsb.edu/activities/dbdetails?acro=stars-c14", "fax": "", "bibCode": "", "end": "2014-04-18", "title": "Fire Down Below: The Impact of Feedback on Star and Galaxy Formation", "meetingNumber": "4117", "modified": "Jul 29, 2013 11:04:00 AM", "start": "2014-04-14", "phone": "", "contact": "Romain Teyssier, Norman Murray, Eve Ostriker", "location": "Kavli Institute for Theoretical Physics, University of California, Santa Barbara", "address": "", "keywords": "", "ingested": "Jul 29, 2013 09:23:00 AM", "email": "romain.teyssier@gmail.com"}, {"web": "http://astro.dur.ac.uk/VSTWorkshop", "fax": "44 191 3345823", "bibCode": "", "end": "2014-04-17", "title": "Exploiting VST ATLAS (and its sister surveys)", "meetingNumber": "4265", "modified": "Jan 26, 2014 07:35:00 AM", "start": "2014-04-14", "phone": "44 191 3343721", "contact": "Tom Shanks", "location": "Durham", "address": "Department of Physics, South Road, Durham DH1 3LE, England", "keywords": "ESO  VST ATLAS, KIDS, VHS, VIKING,  extragalactic and Galactic survey astronomy", "ingested": "Jan 26, 2014 07:35:00 AM", "email": "tom.shanks@durham.ac.uk"}, {"web": "http://astro.physics.muni.cz/cz-eso-2014/", "fax": "None", "bibCode": "", "end": "2014-04-16", "title": "Seven Years in Chile: The Accomplishments and Goals of Czech Astronomers at ESO", "meetingNumber": "4277", "modified": "Feb 03, 2014 09:35:00 AM", "start": "2014-04-14", "phone": "None", "contact": "Adela Kawka", "location": "Prague, Czech Republic", "address": "None", "keywords": "", "ingested": "Feb 03, 2014 09:35:00 AM", "email": "kawka@sunstel.asu.cas.cz"}, {"web": "http://cosmology.kasi.re.kr/conf2014/home.html", "fax": "", "bibCode": "", "end": "2014-04-18", "title": "Cosmological Quests for the Next Decade", "meetingNumber": "4175", "modified": "Oct 24, 2013 07:08:00 AM", "start": "2014-04-16", "phone": "", "contact": "Yong-Seon Song", "location": "KASI, Daejeon, South Korea", "address": "", "keywords": "cosmology, large scale structure, dark matter, dark energy, inflation, non-Gaussianity", "ingested": "Oct 24, 2013 07:08:00 AM", "email": "evlinder@lbl.gov"}, {"web": "http://ism2014.strw.leidenuniv.nl", "fax": "", "bibCode": "", "end": "2014-04-25", "title": "Advanced School: \"The interaction of stars with the interstellar medium of galaxies\"", "meetingNumber": "4080", "modified": "Sep 12, 2013 06:31:00 AM", "start": "2014-04-20", "GoogleMapsResponse": {"status": "OK", "results": [{"geometry": {"location_type": "APPROXIMATE", "bounds": {"northeast": {"lat": 45.94121, "lng": 6.855463899999999}, "southwest": {"lat": 45.842589, "lng": 6.7426659}}, "viewport": {"northeast": {"lat": 45.94121, "lng": 6.855463899999999}, "southwest": {"lat": 45.842589, "lng": 6.7426659}}, "location": {"lat": 45.89038799999999, "lng": 6.798735}}, "address_components": [{"long_name": "Les Houches", "types": ["locality", "political"], "short_name": "Les Houches"}, {"long_name": "Haute-Savoie", "types": ["administrative_area_level_2", "political"], "short_name": "74"}, {"long_name": "Rhone-Alpes", "types": ["administrative_area_level_1", "political"], "short_name": "RA"}, {"long_name": "France", "types": ["country", "political"], "short_name": "FR"}], "partial_match": true, "formatted_address": "Les Houches, France", "types": ["locality", "political"]}, {"geometry": {"location": {"lat": 45.95108099999999, "lng": 6.617672}, "viewport": {"northeast": {"lat": 45.9524299802915, "lng": 6.619020980291502}, "southwest": {"lat": 45.9497320197085, "lng": 6.616323019708497}}, "location_type": "APPROXIMATE"}, "address_components": [{"long_name": "Les Houches", "types": ["sublocality", "political"], "short_name": "Les Houches"}, {"long_name": "Sallanches", "types": ["locality", "political"], "short_name": "Sallanches"}, {"long_name": "Haute-Savoie", "types": ["administrative_area_level_2", "political"], "short_name": "74"}, {"long_name": "Rhone-Alpes", "types": ["administrative_area_level_1", "political"], "short_name": "RA"}, {"long_name": "France", "types": ["country", "political"], "short_name": "FR"}, {"long_name": "74700", "types": ["postal_code"], "short_name": "74700"}], "partial_match": true, "formatted_address": "Les Houches, 74700 Sallanches, France", "types": ["sublocality", "political"]}]}, "phone": "", "contact": "Alessandra Candian", "location": "Les Houches Physics School - France", "address": "", "keywords": "interstellar medium, PDRs, HII regions, shocks", "ingested": "May 29, 2013 06:15:00 AM", "email": "ism2014@strw.leidenuniv.nl"}, {"web": "http://fof.oac.uncor.edu/", "fax": "+54-351-4331066 (Ext. 101)", "bibCode": "", "end": "2014-04-23", "title": "Friends of Friends", "meetingNumber": "4123", "modified": "Feb 06, 2014 02:38:37 PM", "start": "2014-04-21", "GoogleMapsResponse": {"status": "OK", "results": [{"geometry": {"location_type": "APPROXIMATE", "bounds": {"northeast": {"lat": -31.3062938, "lng": -64.0621309}, "southwest": {"lat": -31.4912166, "lng": -64.31158649999999}}, "viewport": {"northeast": {"lat": -31.3062938, "lng": -64.0621309}, "southwest": {"lat": -31.4912166, "lng": -64.31158649999999}}, "location": {"lat": -31.3989296, "lng": -64.1821289}}, "address_components": [{"long_name": "C\u00f3rdoba", "types": ["locality", "political"], "short_name": "C\u00f3rdoba"}, {"long_name": "Capital Department", "types": ["administrative_area_level_2", "political"], "short_name": "Capital Department"}, {"long_name": "Cordoba", "types": ["administrative_area_level_1", "political"], "short_name": "CB"}, {"long_name": "Argentina", "types": ["country", "political"], "short_name": "AR"}], "formatted_address": "C\u00f3rdoba, Cordoba, Argentina", "types": ["locality", "political"]}]}, "phone": "(+54-351)-5353776 (Ext.): 75622", "contact": "David Algorry", "location": "C&oacute;rdoba, Argentina", "address": "Laprida 854, Observatorio neighborhood.", "keywords": "Workshop, C&oacute;rdoba, Argentina", "ingested": "Aug 07, 2013 09:15:00 AM", "email": "fof@oac.uncor.edu"}, {"web": "http://www.ibws.cz", "fax": "None", "bibCode": "", "end": "2014-04-25", "title": "11th IBWS INTEGRAL/BART Workshop", "meetingNumber": "4246", "modified": "Jan 17, 2014 05:11:00 AM", "start": "2014-04-22", "GoogleMapsResponse": {"status": "OK", "results": [{"geometry": {"location_type": "APPROXIMATE", "bounds": {"northeast": {"lat": 50.2667286, "lng": 12.9437083}, "southwest": {"lat": 50.1670623, "lng": 12.7849207}}, "viewport": {"northeast": {"lat": 50.2667286, "lng": 12.9437083}, "southwest": {"lat": 50.1670623, "lng": 12.7849207}}, "location": {"lat": 50.2318521, "lng": 12.8719616}}, "address_components": [{"long_name": "Carlsbad", "types": ["locality", "political"], "short_name": "Carlsbad"}, {"long_name": "Karlovy Vary District", "types": ["administrative_area_level_2", "political"], "short_name": "Karlovy Vary District"}, {"long_name": "Karlovy Vary Region", "types": ["administrative_area_level_1", "political"], "short_name": "Karlovy Vary Region"}, {"long_name": "Czech Republic", "types": ["country", "political"], "short_name": "CZ"}], "formatted_address": "Carlsbad, Czech Republic", "types": ["locality", "political"]}]}, "phone": "None", "contact": "Rene Hudec", "location": "Karlovy Vary, Czech Republic", "address": "Astronomical Institute \r\nCZ-251 65 Ondrejov", "keywords": "high-energy astrophysics, robotic telescopes, picosatellites, space astronomy", "ingested": "Jan 17, 2014 05:11:00 AM", "email": "rene.hudec@gmail.com"}, {"web": "http://graco2.iar.unlp.edu.ar", "fax": "+54-221-425-4909", "bibCode": "", "end": "2014-04-25", "title": "Gravitation, Astrophysics, and Cosmology - II Argentinian-Brazilian Meeting", "meetingNumber": "4159", "modified": "Oct 04, 2013 09:36:00 AM", "start": "2014-04-22", "GoogleMapsResponse": {"status": "OK", "results": [{"geometry": {"location_type": "APPROXIMATE", "bounds": {"northeast": {"lat": -34.5265464, "lng": -58.33514479999999}, "southwest": {"lat": -34.7051589, "lng": -58.5314522}}, "viewport": {"northeast": {"lat": -34.5265464, "lng": -58.33514479999999}, "southwest": {"lat": -34.7051589, "lng": -58.5314522}}, "location": {"lat": -34.6037232, "lng": -58.3815931}}, "address_components": [{"long_name": "Buenos Aires", "types": ["locality", "political"], "short_name": "CF"}, {"long_name": "Argentina", "types": ["country", "political"], "short_name": "AR"}], "formatted_address": "Buenos Aires, Argentina", "types": ["locality", "political"]}, {"geometry": {"location_type": "APPROXIMATE", "bounds": {"northeast": {"lat": -46.2854, "lng": -71.13716}, "southwest": {"lat": -46.60847, "lng": -72.06139999999999}}, "viewport": {"northeast": {"lat": -46.2854, "lng": -71.13716}, "southwest": {"lat": -46.60847, "lng": -72.06139999999999}}, "location": {"lat": -46.46619, "lng": -71.62100629999999}}, "address_components": [{"long_name": "Lake General Carrera/Buenos Aires", "types": ["natural_feature", "establishment"], "short_name": "Lake General Carrera/Buenos Aires"}], "formatted_address": "Lake General Carrera/Buenos Aires", "types": ["natural_feature", "establishment"]}]}, "phone": "+54-221-482-4903", "contact": "Gabriela S. Vila", "location": "Buenos Aires, Argentina", "address": "Instituto Argentino de Radioastronom\u0102\u00ada,\r\nC. C. 5 (1894) Villa Elisa, Pcia. de Buenos Aires, Argentina", "keywords": "Gravitation,  Astrophysics, Cosmology", "ingested": "Sep 30, 2013 12:22:00 PM", "email": "graco2@iar.unlp.edu.ar"}, {"web": "http://www.ice.csic.es/research/forum/2014.html", "fax": "+ 34 93 581 4363", "bibCode": "", "end": "2014-04-25", "title": "Gravitational Wave Astrophysics; 3rd Session of the Sant Cugat Forum on Astrophysics", "meetingNumber": "4136", "modified": "Sep 07, 2013 11:01:00 AM", "start": "2014-04-22", "GoogleMapsResponse": {"status": "OK", "results": [{"geometry": {"location_type": "APPROXIMATE", "bounds": {"northeast": {"lat": 41.4695761, "lng": 2.2280099}, "southwest": {"lat": 41.320004, "lng": 2.0695258}}, "viewport": {"northeast": {"lat": 41.4695761, "lng": 2.2280099}, "southwest": {"lat": 41.320004, "lng": 2.0695258}}, "location": {"lat": 41.3850639, "lng": 2.1734035}}, "address_components": [{"long_name": "Barcelona", "types": ["locality", "political"], "short_name": "Barcelona"}, {"long_name": "Barcelona", "types": ["political"], "short_name": "Barcelona"}, {"long_name": "Barcelona", "types": ["administrative_area_level_2", "political"], "short_name": "B"}, {"long_name": "Catalonia", "types": ["administrative_area_level_1", "political"], "short_name": "CT"}, {"long_name": "Spain", "types": ["country", "political"], "short_name": "ES"}], "formatted_address": "Barcelona, Spain", "types": ["locality", "political"]}]}, "phone": "+ 34 93 586 8040", "contact": "Carlos Sopuerta", "location": "Sant Cugat, Barcelona, Spain", "address": "Institute of Space Sciences (IEEC-CSIC)\r\nCampus UAB, Fac. de Ciencies, Torre C5, parell, 2a planta, 08193 Barcelona", "keywords": "gravitational waves", "ingested": "Sep 07, 2013 11:01:00 AM", "email": "sopuerta@ieec.uab.es"}, {"web": "http://www.cifs-isss.org", "fax": "", "bibCode": "", "end": "2014-04-26", "title": "School: Observing the Universe with the Cosmic Microwave Background", "meetingNumber": "4183", "modified": "Oct 31, 2013 11:35:00 AM", "start": "2014-04-22", "GoogleMapsResponse": {"status": "OK", "results": [{"geometry": {"location_type": "APPROXIMATE", "bounds": {"northeast": {"lat": 42.388588, "lng": 13.4485356}, "southwest": {"lat": 42.3331621, "lng": 13.336641}}, "viewport": {"northeast": {"lat": 42.388588, "lng": 13.4485356}, "southwest": {"lat": 42.3331621, "lng": 13.336641}}, "location": {"lat": 42.3498479, "lng": 13.3995091}}, "address_components": [{"long_name": "L'Aquila", "types": ["locality", "political"], "short_name": "L'Aquila"}, {"long_name": "L'Aquila", "types": ["administrative_area_level_3", "political"], "short_name": "L'Aquila"}, {"long_name": "L'Aquila", "types": ["administrative_area_level_2", "political"], "short_name": "AQ"}, {"long_name": "Abruzzo", "types": ["administrative_area_level_1", "political"], "short_name": "Abruzzo"}, {"long_name": "Italy", "types": ["country", "political"], "short_name": "IT"}, {"long_name": "67100", "types": ["postal_code"], "short_name": "67100"}], "formatted_address": "67100 L'Aquila, Italy", "types": ["locality", "political"]}]}, "phone": "+39.0862.433022", "contact": "Prof. Umberto Villante, Director of the ISSS/University of L'Aquila-Italy; Prof.", "location": "L'Aquila - Italy", "address": "ISSS/International School of Space Science, c/o Dip. Scienze Fisiche e Chimiche, University of L'Aquila - Italy", "keywords": "Planck satellite", "ingested": "Oct 31, 2013 11:35:00 AM", "email": "umberto.villante@aquila.infn.it"}, {"web": "http://transidee-conference.uibk.ac.at/galaxy-evolution-2014/", "fax": "", "bibCode": "", "end": "2014-04-30", "title": "The Formation and Growth of Galaxies in the Young Universe", "meetingNumber": "4161", "modified": "Oct 01, 2013 11:12:01 AM", "start": "2014-04-27", "GoogleMapsResponse": {"status": "OK", "results": [{"geometry": {"location": {"lat": 46.87016, "lng": 11.0273}, "viewport": {"northeast": {"lat": 46.8777877, "lng": 11.0433074}, "southwest": {"lat": 46.8625313, "lng": 11.0112926}}, "location_type": "APPROXIMATE"}, "address_components": [{"long_name": "Obergurgl", "types": ["locality", "political"], "short_name": "Obergurgl"}, {"long_name": "S\u00f6lden", "types": ["administrative_area_level_3", "political"], "short_name": "S\u00f6lden"}, {"long_name": "Imst District", "types": ["administrative_area_level_2", "political"], "short_name": "Imst District"}, {"long_name": "Tyrol", "types": ["administrative_area_level_1", "political"], "short_name": "Tir."}, {"long_name": "Austria", "types": ["country", "political"], "short_name": "AT"}, {"long_name": "6456", "types": ["postal_code"], "short_name": "6456"}], "formatted_address": "6456 Obergurgl, Austria", "types": ["locality", "political"]}, {"geometry": {"location": {"lat": 46.89315, "lng": 11.03999}, "viewport": {"northeast": {"lat": 46.89449898029149, "lng": 11.0413389802915}, "southwest": {"lat": 46.8918010197085, "lng": 11.0386410197085}}, "location_type": "APPROXIMATE"}, "address_components": [{"long_name": "Obergurgl", "types": ["locality", "political"], "short_name": "Obergurgl"}, {"long_name": "S\u00f6lden", "types": ["administrative_area_level_3", "political"], "short_name": "S\u00f6lden"}, {"long_name": "Imst District", "types": ["administrative_area_level_2", "political"], "short_name": "Imst District"}, {"long_name": "Tyrol", "types": ["administrative_area_level_1", "political"], "short_name": "Tir."}, {"long_name": "Austria", "types": ["country", "political"], "short_name": "AT"}, {"long_name": "6456", "types": ["postal_code"], "short_name": "6456"}], "formatted_address": "6456 Obergurgl, Austria", "types": ["locality", "political"]}]}, "phone": "", "contact": "Desika Narayanan", "location": "Obergurgl, Austria", "address": "", "keywords": "galaxy formation; high-z galaxies; starbursts; star formation; reionisation", "ingested": "Oct 01, 2013 11:11:00 AM", "email": "desika.narayanan@gmail.com"}, {"web": "http://www.stsci.edu/institute/conference/habitable-worlds", "fax": "", "bibCode": "", "end": "2014-05-01", "title": "Habitable Worlds Across Time and Space", "meetingNumber": "4203", "modified": "Dec 02, 2013 10:07:00 AM", "start": "2014-04-28", "GoogleMapsResponse": {"status": "OK", "results": [{"geometry": {"location_type": "APPROXIMATE", "bounds": {"northeast": {"lat": 39.3331337, "lng": -76.6227219}, "southwest": {"lat": 39.3323192, "lng": -76.6238451}}, "viewport": {"northeast": {"lat": 39.3340754302915, "lng": -76.6219345197085}, "southwest": {"lat": 39.33137746970851, "lng": -76.62463248029151}}, "location": {"lat": 39.3327755, "lng": -76.6233337}}, "address_components": [{"long_name": "Steven Muller Building Space Telescope Science Institute", "types": ["premise"], "short_name": "Steven Muller Bldg Space Telescope Science Institute"}, {"long_name": "Johns-Hopkins - Homewood", "types": ["neighborhood", "political"], "short_name": "Johns-Hopkins - Homewood"}, {"long_name": "Baltimore", "types": ["locality", "political"], "short_name": "Baltimore"}, {"long_name": "Maryland", "types": ["administrative_area_level_1", "political"], "short_name": "MD"}, {"long_name": "United States", "types": ["country", "political"], "short_name": "US"}, {"long_name": "21210", "types": ["postal_code"], "short_name": "21210"}], "partial_match": true, "formatted_address": "Steven Muller Building Space Telescope Science Institute, Baltimore, MD 21210, USA", "types": ["premise"]}]}, "phone": "(410)338-4782", "contact": "John Debes", "location": "Space Telescope Science Institute", "address": "Space Telescope Science Institute\r\n3700 San Martin Dr.\r\nBaltimore, MD 21218", "keywords": "astrobiology, exoplanets, geology, biology", "ingested": "Dec 02, 2013 10:07:00 AM", "email": "hwats14@stsci.edu"}, {"web": "http://ysc.kiev.ua/", "fax": "+380445264507", "bibCode": "", "end": "2014-05-03", "title": "21th Young Scientists' Conference on Astronomy and Space Physics", "meetingNumber": "4160", "modified": "Sep 30, 2013 04:37:00 PM", "start": "2014-04-28", "GoogleMapsResponse": {"status": "OK", "results": [{"geometry": {"location_type": "APPROXIMATE", "bounds": {"northeast": {"lat": 50.590798, "lng": 30.825941}, "southwest": {"lat": 50.213273, "lng": 30.2394401}}, "viewport": {"northeast": {"lat": 50.590798, "lng": 30.825941}, "southwest": {"lat": 50.213273, "lng": 30.2394401}}, "location": {"lat": 50.4501, "lng": 30.5234}}, "address_components": [{"long_name": "Kiev", "types": ["locality", "political"], "short_name": "Kiev"}, {"long_name": "Kyiv City", "types": ["administrative_area_level_2", "political"], "short_name": "Kyiv City"}, {"long_name": "Kyiv city", "types": ["administrative_area_level_1", "political"], "short_name": "Kyiv city"}, {"long_name": "Ukraine", "types": ["country", "political"], "short_name": "UA"}], "formatted_address": "Kiev, Kyiv city, Ukraine", "types": ["locality", "political"]}]}, "phone": "+380445264457", "contact": "Kateryna Frantseva", "location": "Kyiv, Ukraine", "address": "Astronomy and Space Physics Department,\r\nTaras Shevchenko National University of Kyiv,\r\nGlushkova ave., 4, Kyiv, Ukraine", "keywords": "astronomy, astrophysics, space physics, atmospheric studies, young scientists", "ingested": "Sep 30, 2013 04:37:00 PM", "email": "ysc.kyiv@gmail.com"}, {"web": "http://www.oa.uj.edu.pl/jets2014/", "fax": "", "bibCode": "", "end": "2014-05-02", "title": "The Evolving Blazar Paradigm", "meetingNumber": "3938", "modified": "Jan 25, 2013 06:32:00 AM", "start": "2014-04-28", "GoogleMapsResponse": {"status": "OK", "results": [{"geometry": {"location_type": "APPROXIMATE", "bounds": {"northeast": {"lat": 50.1261259, "lng": 20.2174976}, "southwest": {"lat": 49.9674054, "lng": 19.7922485}}, "viewport": {"northeast": {"lat": 50.1261259, "lng": 20.2174976}, "southwest": {"lat": 49.9674054, "lng": 19.7922485}}, "location": {"lat": 50.06465009999999, "lng": 19.9449799}}, "address_components": [{"long_name": "Krakow", "types": ["locality", "political"], "short_name": "Krakow"}, {"long_name": "Krak\u00f3w", "types": ["administrative_area_level_3", "political"], "short_name": "Krak\u00f3w"}, {"long_name": "Krak\u00f3w County", "types": ["administrative_area_level_2", "political"], "short_name": "Krak\u00f3w County"}, {"long_name": "Lesser Poland Voivodeship", "types": ["administrative_area_level_1", "political"], "short_name": "Lesser Poland Voivodeship"}, {"long_name": "Poland", "types": ["country", "political"], "short_name": "PL"}], "formatted_address": "Krakow, Poland", "types": ["locality", "political"]}]}, "phone": "", "contact": "Michal Ostrowski, Lukasz Stawarz", "location": "Krakow, Poland", "address": "", "keywords": "jets, AGN, blazars, particle acceleration, supermassive black holes", "ingested": "Jan 25, 2013 06:32:00 AM", "email": "mio@oa.uj.edu.pl"}, {"web": "http://dub2014.phy.hr", "fax": "", "bibCode": "", "end": "2014-05-16", "title": "Multiwavelength-surveys: Galaxy formation and evolution from the early universe to today", "meetingNumber": "4167", "modified": "Oct 14, 2013 11:22:14 PM", "start": "2014-05-12", "phone": "", "contact": "Vernesa Smolcic", "location": "Dubrovnik, Croatia", "address": "Physics Department, Faculty of Science University of Zagreb, Bijeni\u00c4\u008dka c. 32,, 10002 Zagreb, Croatia", "keywords": "galaxies, galaxy evolution and formation, multi-wavelength surveys", "ingested": "Oct 14, 2013 10:24:00 AM", "email": "vs@phy.hr"}, {"web": "http://asd.gsfc.nasa.gov/conferences/FIR/", "fax": "None", "bibCode": "", "end": "2014-05-13", "title": "Bringing Fundamental Astrophysical Processes Into Focus: A Community Workshop to Plan the Future of Far-Infrared Space Astrophysics", "meetingNumber": "4221", "modified": "Jan 08, 2014 05:15:00 PM", "start": "2014-05-12", "phone": "301-286-0807", "contact": "David Leisawitz", "location": "NASA Goddard Space Flight Center\r\nGreenbelt, Maryland, USA", "address": "None", "keywords": "far-infrared; future space missions; planet formation; protoplanetary disk; debris disk; galaxy formation; galaxy evolution", "ingested": "Jan 08, 2014 05:15:00 PM", "email": "David.T.Leisawitz@nasa.gov"}, {"web": "https://science.nrao.edu/science/meetings/2014/14th-synthesis-imaging-workshop", "fax": "None", "bibCode": "", "end": "2014-05-20", "title": "14th Synthesis Imaging Workshop", "meetingNumber": "4286", "modified": "Feb 05, 2014 09:53:00 AM", "start": "2014-05-13", "phone": "575-835-7263", "contact": "Amy Mioduszewski", "location": "Socorro, NM", "address": "NRAO\r\nP.O. Box O\r\nSocorro, NM 87801", "keywords": "", "ingested": "Feb 05, 2014 09:53:00 AM", "email": "amiodusz@nrao.edu"}, {"web": "https://indico.mpifr-bonn.mpg.de/theFormationOfTheSolarSystem", "fax": "(49)228525229", "bibCode": "", "end": "2014-05-15", "title": "Workshop: The Formation of the Solar System", "meetingNumber": "4202", "modified": "Dec 02, 2013 10:07:00 AM", "start": "2014-05-13", "phone": "(49)228525126", "contact": "Susanne Pfalzner", "location": "Max-Planck-Institute for Radioastronomy", "address": "MPIfR\r\nAuf dem H\u0102\u017agel 69\r\n53121 Bonn\r\nGermany", "keywords": "", "ingested": "Dec 02, 2013 10:07:00 AM", "email": "spfalzner@mpifr.de"}, {"web": "http://astro.nuigalway.ie/speedandsensitivity/", "fax": "", "bibCode": "", "end": "2014-05-16", "title": "Speed & Sensitivity: Expanding Astronomical Horizons with ELTs", "meetingNumber": "4093", "modified": "Nov 27, 2013 04:45:00 PM", "start": "2014-05-13", "phone": "+35391493114", "contact": "Andy Shearer", "location": "National University of Ireland Galway\r\nGalway, Ireland", "address": "Centre for Astronomy\r\nSchool of Physics\r\nNational University of Ireland Galway\r\nGalway\r\nIreland", "keywords": "Instrumentation\r\nPhoton Counting Detectors\r\nExtremely Large Telescopes\r\nAdaptive Optics", "ingested": "Jun 16, 2013 06:44:00 AM", "email": "andy.shearer@nuigalway.ie"}, {"web": "http://gc2014.csp.escience.cn", "fax": "", "bibCode": "", "end": "2014-05-23", "title": "From dark matter to galaxies", "meetingNumber": "4151", "modified": "Oct 28, 2013 07:57:00 AM", "start": "2014-05-18", "phone": "0086-25-83332100", "contact": "Dr. Xi Kang", "location": "Xi'an, China", "address": "Purple Mountain Observatory,\r\n2 West Beijing Road,Nanjing, 210008, China", "keywords": "cosmology, large-scale structures, galaxy formation, AGN, numerical simulation", "ingested": "Sep 22, 2013 05:25:00 PM", "email": "kangxi@pmo.ac.cn"}, {"web": "http://www.phys.ufl.edu/lisasymposiumx/", "fax": "352 392 3591", "bibCode": "", "end": "2014-05-23", "title": "10th LISA Symposium", "meetingNumber": "4172", "modified": "Oct 22, 2013 01:30:00 PM", "start": "2014-05-18", "phone": "352 392 8521", "contact": "Guido Mueller", "location": "University of Florida, Gainesville, Florida", "address": "Department of Physics\r\nUniversity of Florida\r\nPO Box 118440\r\nGainesville, FL 32611\r\nUSA", "keywords": "LISA Symposium Gravitational waves", "ingested": "Oct 22, 2013 01:30:00 PM", "email": "mueller@phys.ufl.edu"}, {"web": "http://www.lnf.infn.it/conference/vulcano2014/", "fax": "+39 06 9403 2475", "bibCode": "", "end": "2014-05-24", "title": "Frontier Objects in Astrophysics and Particle Physics", "meetingNumber": "4243", "modified": "Jan 15, 2014 04:38:00 AM", "start": "2014-05-18", "phone": "+39 06 9403 2373 / 2552", "contact": "Maria Cristina D'Amato, Lia Sabatini", "location": "Vulcano Island, Sicily, Italy", "address": "INFN - Laboratori Nazionali di Frascati\r\nVia Enrico Fermi, 40\r\n00044 Frascati (Rome) Italy", "keywords": "Astrophysics/Cosmology\r\nAstrophysics/Gravity\r\nDark Matter\r\nParticle Physics\r\nCosmic Rays\r\nGamma/Neutrino Astronomy\r\nNeutrinos", "ingested": "Jan 15, 2014 04:38:00 AM", "email": "vulc14_soc@lists.lnf.infn.it"}, {"web": "https://science.nrao.edu/science/meetings/2014/3rd-china-us-workshop/", "fax": "", "bibCode": "", "end": "2014-05-21", "title": "Third China-U.S. Workshop on Radio Astronomy Science and Technology:  Emerging Opportunities", "meetingNumber": "4181", "modified": "Nov 25, 2013 02:47:00 PM", "start": "2014-05-19", "phone": "+1 434 296 0240", "contact": "Ken Kellermann or Xiaoyu Hong", "location": "Green Bank, West Virginia, USA", "address": "NRAO, 520 Edgemont Road, Charlottesville, VA, USA,          or, Shanghai Astronomical Observatory, 80 Nandan Rd, Shanghai 200030, China, , ,", "keywords": "radio telescopes, radio astronomy, SHAO, NRAO", "ingested": "Oct 30, 2013 09:35:00 AM", "email": "kkellerm@nrao.edu,xhong@shao.ac.cn"}, {"web": "http://www.cfa.harvard.edu/events/2014/sackler/", "fax": "617-495-7093", "bibCode": "", "end": "2014-05-22", "title": "The Eighth Harvard-Smithsonian Conference on Theoretical Astrophysics, sponsored by Raymond and Beverly Sackler and Irwin Shapiro: Debates on the Nature of Dark Matter", "meetingNumber": "4194", "modified": "Nov 14, 2013 09:21:00 AM", "start": "2014-05-19", "phone": "617-495-7962", "contact": "Nina Zonnevylle", "location": "Sheraton Commander Hotel, Cambridge, Massachusetts", "address": "60 Garden Street\r\nMS-51\r\nCambridge, MA 02138", "keywords": "astronomy, astrophysics, physics, dark matter, WIMPs, axions, baryons, xenon, GeV, galaxy, galactic center", "ingested": "Nov 14, 2013 09:21:00 AM", "email": "nzonnevylle@cfa.harvard.edu"}, {"web": "", "fax": "", "bibCode": "", "end": "2014-05-21", "title": "Nederlands Astronomen Conferentie/Dutch Astronomy Conference 2014", "meetingNumber": "4173", "modified": "Oct 23, 2013 10:03:00 AM", "start": "2014-05-19", "phone": "+31 71 5278470", "contact": "Jarle Brinchmann", "location": "NH Leeuwenhorst, Noordwijkerhout", "address": "", "keywords": "", "ingested": "Oct 23, 2013 10:03:00 AM", "email": "nac2014@strw.leidenuniv.nl"}, {"web": "http://www3.mpifr-bonn.mpg.de/div/meetings/potsdam/index.html", "fax": "None", "bibCode": "", "end": "2014-05-22", "title": "COST conference \r\n\"99 years of Black Holes - from Astronomy to Quantum Gravity\"", "meetingNumber": "4220", "modified": "Jan 08, 2014 05:14:00 PM", "start": "2014-05-20", "phone": "None", "contact": "Dr. Silke Britzen", "location": "Steigenberger Hotel Sanssouci, Potsdam, Germany", "address": "None", "keywords": "", "ingested": "Jan 08, 2014 05:14:00 PM", "email": "sbritzen@mpifr.de"}, {"web": "http://www.nordicastrobiology.net/Biosignatures2014/", "fax": "0046855378601", "bibCode": "", "end": "2014-05-22", "title": "Biosignatures across space and time", "meetingNumber": "4171", "modified": "Oct 16, 2013 12:01:00 PM", "start": "2014-05-20", "GoogleMapsResponse": {"status": "OK", "results": [{"geometry": {"location_type": "APPROXIMATE", "bounds": {"northeast": {"lat": 60.52683889999999, "lng": 5.6877642}, "southwest": {"lat": 60.2035413, "lng": 5.170590199999999}}, "viewport": {"northeast": {"lat": 60.52683889999999, "lng": 5.6877642}, "southwest": {"lat": 60.2035413, "lng": 5.170590199999999}}, "location": {"lat": 60.39126279999999, "lng": 5.3220544}}, "address_components": [{"long_name": "Bergen", "types": ["locality", "political"], "short_name": "Bergen"}, {"long_name": "Bergen", "types": ["administrative_area_level_2", "political"], "short_name": "Bergen"}, {"long_name": "Hordaland", "types": ["administrative_area_level_1", "political"], "short_name": "Hordaland"}, {"long_name": "Norway", "types": ["country", "political"], "short_name": "NO"}], "formatted_address": "Bergen, Norway", "types": ["locality", "political"]}]}, "phone": "0046855378649", "contact": "Wolf Geppert", "location": "Bergen, Norway", "address": "AlbaNova \r\nStockholm University/Stockholms universitet \r\nRoslagstullbacken 21 \r\nS-10691 Stockholm \r\nSweden/Sverige \r\n", "keywords": "Astrobiology, exoplanets, Life on other planets, astrochemistry", "ingested": "Oct 16, 2013 12:01:00 PM", "email": "wgeppert@hotmail.com"}, {"web": "http://www.as.utexas.edu/decoding_the_universe", "fax": "", "bibCode": "", "end": "2014-05-22", "title": "Decoding the Universe: A Science Symposium Celebrating 75 Years of McDonald Observatory and a Look at its Future (cancelled)", "meetingNumber": "4069", "modified": "Dec 16, 2013 09:30:00 AM", "start": "2014-05-20", "GoogleMapsResponse": {"status": "OK", "results": [{"geometry": {"location_type": "APPROXIMATE", "bounds": {"northeast": {"lat": 30.367462, "lng": -103.6438098}, "southwest": {"lat": 30.3608523, "lng": -103.6539751}}, "viewport": {"northeast": {"lat": 30.367462, "lng": -103.6438098}, "southwest": {"lat": 30.3608523, "lng": -103.6539751}}, "location": {"lat": 30.3634426, "lng": -103.6500194}}, "address_components": [{"long_name": "Sul Ross State University", "types": ["establishment"], "short_name": "Sul Ross State University"}, {"long_name": "Alpine", "types": ["locality", "political"], "short_name": "Alpine"}, {"long_name": "Brewster County", "types": ["administrative_area_level_2", "political"], "short_name": "Brewster County"}, {"long_name": "Texas", "types": ["administrative_area_level_1", "political"], "short_name": "TX"}, {"long_name": "United States", "types": ["country", "political"], "short_name": "US"}, {"long_name": "79832", "types": ["postal_code"], "short_name": "79832"}], "formatted_address": "Sul Ross State University, Alpine, TX 79832, USA", "types": ["university", "establishment"]}]}, "phone": "(512) 471-3338", "contact": "Jim Umbarger", "location": "Sul Ross State University, Alpine, Texas", "address": "The University of Texas\r\nDepartment of Astronomy\r\n2515 Speedway, Stop C1400\r\nAustin, Texas 78712-1205", "keywords": "", "ingested": "May 07, 2013 01:12:00 PM", "email": "jimum@astro.as.utexas.edu"}, {"web": "http://www.sron.nl/registration-spica2014", "fax": "", "bibCode": "", "end": "2014-05-23", "title": "SPICA science workshop", "meetingNumber": "4307", "modified": "Mar 04, 2014 06:40:00 AM", "start": "2014-05-21", "GoogleMapsResponse": {"status": "OK", "results": [{"geometry": {"location_type": "APPROXIMATE", "bounds": {"northeast": {"lat": 52.1846511, "lng": 4.5240515}, "southwest": {"lat": 52.1188225, "lng": 4.439287999999999}}, "viewport": {"northeast": {"lat": 52.1846511, "lng": 4.5240515}, "southwest": {"lat": 52.1188225, "lng": 4.439287999999999}}, "location": {"lat": 52.158494, "lng": 4.496199}}, "address_components": [{"long_name": "Leiden", "types": ["locality", "political"], "short_name": "Leiden"}, {"long_name": "Leiden", "types": ["administrative_area_level_2", "political"], "short_name": "Leiden"}, {"long_name": "South Holland", "types": ["administrative_area_level_1", "political"], "short_name": "ZH"}, {"long_name": "The Netherlands", "types": ["country", "political"], "short_name": "NL"}], "formatted_address": "Leiden, The Netherlands", "types": ["locality", "political"]}]}, "phone": "", "contact": "Bruce Sibthorpe", "location": "Leiden, Netherlands", "address": "", "keywords": "SPICA,  far infrared, galaxy evolution, star formation, ISM, protoplanetary discs", "ingested": "Mar 04, 2014 06:40:00 AM", "email": "b.sibthorpe@sron.nl"}, {"web": "http://www.aspenphys.org/physicists/summer/program/summer2014.html#_three", "fax": "", "bibCode": "", "end": "2014-06-15", "title": "Dwarf Galaxies as Cosmological Probes", "meetingNumber": "4157", "modified": "Sep 28, 2013 12:59:00 PM", "start": "2014-05-25", "GoogleMapsResponse": {"status": "OK", "results": [{"geometry": {"location_type": "APPROXIMATE", "bounds": {"northeast": {"lat": 39.21978500000001, "lng": -106.8013911}, "southwest": {"lat": 39.1771779, "lng": -106.8720581}}, "viewport": {"northeast": {"lat": 39.21978500000001, "lng": -106.8013911}, "southwest": {"lat": 39.1771779, "lng": -106.8720581}}, "location": {"lat": 39.1910983, "lng": -106.8175387}}, "address_components": [{"long_name": "Aspen", "types": ["locality", "political"], "short_name": "Aspen"}, {"long_name": "Pitkin County", "types": ["administrative_area_level_2", "political"], "short_name": "Pitkin County"}, {"long_name": "Colorado", "types": ["administrative_area_level_1", "political"], "short_name": "CO"}, {"long_name": "United States", "types": ["country", "political"], "short_name": "US"}], "partial_match": true, "formatted_address": "Aspen, CO, USA", "types": ["locality", "political"]}]}, "phone": "", "contact": "Elena D'Onghia", "location": "Aspen Center for Physics - Aspen, Colorado (USA)", "address": "University of Wisconsin", "keywords": "Dwarf galaxies, galaxy formation, cosmology, dark matter, Local Group", "ingested": "Sep 28, 2013 12:59:00 PM", "email": ""}, {"web": "http://sccc21.sim.ul.pt/", "fax": "+33169086577", "bibCode": "", "end": "2014-05-29", "title": "Statistical Challenges in 21st  Century Cosmology (IAU Symposium 306)", "meetingNumber": "4111", "modified": "Jul 12, 2013 04:28:00 AM", "start": "2014-05-25", "GoogleMapsResponse": {"status": "OK", "results": [{"geometry": {"location_type": "APPROXIMATE", "bounds": {"northeast": {"lat": 38.7958538, "lng": -9.090571899999999}, "southwest": {"lat": 38.6913994, "lng": -9.2298356}}, "viewport": {"northeast": {"lat": 38.7958538, "lng": -9.090571899999999}, "southwest": {"lat": 38.6913994, "lng": -9.2298356}}, "location": {"lat": 38.7222524, "lng": -9.1393366}}, "address_components": [{"long_name": "Lisbon", "types": ["locality", "political"], "short_name": "Lisbon"}, {"long_name": "Lisbon", "types": ["administrative_area_level_1", "political"], "short_name": "Lisbon"}, {"long_name": "Portugal", "types": ["country", "political"], "short_name": "PT"}], "formatted_address": "Lisbon, Portugal", "types": ["locality", "political"]}]}, "phone": "+33169085764", "contact": "Alan Heavens and Jean-Luc Starck", "location": "Lisbon, Portugal", "address": "Jean-Luc Starck,\r\nService d'Astrophysique, CEA Saclay, 91191 Gif-sur-Yvette. France", "keywords": "CMB, weak lensing, large scale structures, high redshift supernovae, lyman-alpha forest, large data set , statistical methods", "ingested": "Jul 12, 2013 04:28:00 AM", "email": "jstarck@cea.fr"}, {"web": "http://www.munich-iapp.de", "fax": "+49.89.3299.4002", "bibCode": "", "end": "2014-06-20", "title": "The Extragalactic Distance Scale", "meetingNumber": "4142", "modified": "Sep 11, 2013 09:56:00 AM", "start": "2014-05-26", "GoogleMapsResponse": {"status": "OK", "results": [{"geometry": {"location_type": "APPROXIMATE", "bounds": {"northeast": {"lat": 48.2732261, "lng": 11.6851891}, "southwest": {"lat": 48.2167624, "lng": 11.5971975}}, "viewport": {"northeast": {"lat": 48.2732261, "lng": 11.6851891}, "southwest": {"lat": 48.2167624, "lng": 11.5971975}}, "location": {"lat": 48.2488721, "lng": 11.6532477}}, "address_components": [{"long_name": "Garching", "types": ["locality", "political"], "short_name": "Garching"}, {"long_name": "Munich", "types": ["administrative_area_level_3", "political"], "short_name": "M"}, {"long_name": "Upper Bavaria", "types": ["administrative_area_level_2", "political"], "short_name": "Upper Bavaria"}, {"long_name": "Bavaria", "types": ["administrative_area_level_1", "political"], "short_name": "BY"}, {"long_name": "Germany", "types": ["country", "political"], "short_name": "DE"}], "formatted_address": "Garching, Germany", "types": ["locality", "political"]}]}, "phone": "+49.89.35831.7106", "contact": "Munich Institute for Astro- and Particle Physics (MIAPP)", "location": "Garching bei Muenchen, Germany", "address": "Technische Universit\u0102\u00a4t M\u0102\u017anchen, Excellence Cluster Universe\r\nMIAPP\r\nBoltzmannstra\u0102\u009fe 2\r\n85748 Garching\r\nGermany", "keywords": "Extragalactic\r\nCosmology\r\nMIAPP", "ingested": "Sep 11, 2013 09:56:00 AM", "email": "info@munich-iapp.de"}, {"web": "http://www.polarisation.eu/index.php/astropol-2014", "fax": "Fax:  +33 (0)4 76 51 41 46", "bibCode": "", "end": "2014-05-30", "title": "ASTRONOMICAL POLARIMETRY 2014", "meetingNumber": "4269", "modified": "Jan 27, 2014 04:55:00 PM", "start": "2014-05-26", "GoogleMapsResponse": {"status": "OK", "results": [{"geometry": {"location_type": "APPROXIMATE", "bounds": {"northeast": {"lat": 45.2143261, "lng": 5.753081}, "southwest": {"lat": 45.154005, "lng": 5.678003899999999}}, "viewport": {"northeast": {"lat": 45.2143261, "lng": 5.753081}, "southwest": {"lat": 45.154005, "lng": 5.678003899999999}}, "location": {"lat": 45.188529, "lng": 5.724524}}, "address_components": [{"long_name": "Grenoble", "types": ["locality", "political"], "short_name": "Grenoble"}, {"long_name": "Isere", "types": ["administrative_area_level_2", "political"], "short_name": "38"}, {"long_name": "Rhone-Alpes", "types": ["administrative_area_level_1", "political"], "short_name": "RA"}, {"long_name": "France", "types": ["country", "political"], "short_name": "FR"}], "formatted_address": "Grenoble, France", "types": ["locality", "political"]}]}, "phone": "Tel : +33 (0)4 76 51 41 54", "contact": "Francois Menard (SOC)/Mathieu Barthelemy (LOC)", "location": "Grenoble, France", "address": "IPAG\r\n414 rue de la piscine\r\nBP 53\r\n38041 Grenoble cedex 9\r\nFrance", "keywords": "Astrophysics\r\nObservations: results & data\r\nInstrumentation\r\nPolarisation\r\nLight scattering", "ingested": "May 29, 2013 06:14:00 AM", "email": "astropol2014@gmail.com"}, {"web": "http://zuserver2.star.ucl.ac.uk/~ossf14/", "fax": "", "bibCode": "", "end": "2014-05-30", "title": "An Olympian Symposium for Star Formation", "meetingNumber": "4078", "modified": "Jun 11, 2013 09:26:00 AM", "start": "2014-05-26", "phone": "+447896310111", "contact": "Thomas Bisbas", "location": "Paralia Katerini's, Mount Olympus, Greece", "address": "University College London, \r\nDepartment of Physics and Astronomy, \r\nKathleen Lonsdale Building, \r\nGower Place, WC1E 6BT, \r\nLondon U.K.", "keywords": "Triggered Star Formation\r\nIonized nebulae\r\nPhotodissociation Regions\r\nArtificial Observations", "ingested": "May 27, 2013 07:16:00 AM", "email": "ossf14@star.ucl.ac.uk"}, {"web": "http://great3challenge.info/?q=finalmeeting", "fax": "", "bibCode": "", "end": "2014-05-29", "title": "The GREAT3 Final Meeting", "meetingNumber": "4309", "modified": "Mar 05, 2014 09:53:00 AM", "start": "2014-05-27", "GoogleMapsResponse": {"status": "OK", "results": [{"geometry": {"location_type": "APPROXIMATE", "bounds": {"northeast": {"lat": 40.474248, "lng": -79.91220299999999}, "southwest": {"lat": 40.4322636, "lng": -79.9665259}}, "viewport": {"northeast": {"lat": 40.4490303, "lng": -79.9374246}, "southwest": {"lat": 40.4402484, "lng": -79.9518791}}, "location": {"lat": 40.4424925, "lng": -79.9425528}}, "address_components": [{"long_name": "Carnegie Mellon University", "types": ["establishment"], "short_name": "Carnegie Mellon University"}, {"long_name": "5000", "types": ["street_number"], "short_name": "5000"}, {"long_name": "Forbes Avenue", "types": ["route"], "short_name": "Forbes Ave"}, {"long_name": "Pittsburgh", "types": ["locality", "political"], "short_name": "Pittsburgh"}, {"long_name": "Allegheny County", "types": ["administrative_area_level_2", "political"], "short_name": "Allegheny County"}, {"long_name": "Pennsylvania", "types": ["administrative_area_level_1", "political"], "short_name": "Pennsylvania"}, {"long_name": "United States", "types": ["country", "political"], "short_name": "US"}, {"long_name": "15213", "types": ["postal_code"], "short_name": "15213"}], "formatted_address": "Carnegie Mellon University, 5000 Forbes Avenue, Pittsburgh, Pennsylvania 15213", "types": ["university", "establishment"]}]}, "phone": "", "contact": "Barnaby Rowe", "location": "Carnegie Mellon University, Pittsburgh, PA, USA", "address": "Department of Physics & Astronomy\r\nUniversity College London\r\nGower Street\r\nLondon WC1E 6BT\r\nUnited Kingdom", "keywords": "", "ingested": "Mar 05, 2014 09:53:00 AM", "email": "workshop@great3challenge.info"}, {"web": "http://www.astro.up.pt/azores14/", "fax": "+351-226089830", "bibCode": "", "end": "2014-06-07", "title": "Second Azores School on Observational Cosmology", "meetingNumber": "4185", "modified": "Oct 31, 2013 11:38:00 AM", "start": "2014-06-01", "GoogleMapsResponse": {"status": "OK", "results": [{"geometry": {"location_type": "APPROXIMATE", "bounds": {"northeast": {"lat": 38.669006, "lng": -27.2058177}, "southwest": {"lat": 38.6499487, "lng": -27.254483}}, "viewport": {"northeast": {"lat": 38.669006, "lng": -27.2058177}, "southwest": {"lat": 38.6499487, "lng": -27.254483}}, "location": {"lat": 38.658565, "lng": -27.215859}}, "address_components": [{"long_name": "Angra do Hero\u00edsmo", "types": ["locality", "political"], "short_name": "Angra do Hero\u00edsmo"}, {"long_name": "Terceira", "types": ["administrative_area_level_2", "political"], "short_name": "Terceira"}, {"long_name": "Azores", "types": ["administrative_area_level_1", "political"], "short_name": "Azores"}, {"long_name": "Portugal", "types": ["country", "political"], "short_name": "PT"}], "partial_match": true, "formatted_address": "Angra do Hero\u00edsmo, Portugal", "types": ["locality", "political"]}]}, "phone": "+351-226089891", "contact": "Carlos Martins", "location": "Angra do Heroismo, Azores Islands, Portugal", "address": "CAUP, Rua das Estrelas, 4150-762 Porto, Portugal", "keywords": "Observational cosmology, theoretical cosmology, fundamental physics, astrophysics, Euclid", "ingested": "Oct 31, 2013 11:38:00 AM", "email": "azores14@astro.up.pt"}, {"web": "http://www.mpia-hd.mpg.de/homes/stein/EPoS/epos.php", "fax": "", "bibCode": "", "end": "2014-06-06", "title": "EPoS2014 The Early Phase of Star Formation", "meetingNumber": "4045", "modified": "Apr 09, 2013 07:17:00 AM", "start": "2014-06-01", "phone": "", "contact": "Juergen Steinacker", "location": "Ringberg Castle, Tegernsee, Germany", "address": "IPAG (UMR 5274), BP 53, F-38041 Grenoble, C\u0102\u0160dex 9, France / MPIA, Koenigstuhl 17, 69117 Heidelberg, Germany", "keywords": "star formation, paradigm, molecular clouds, cores, early disks, turbulence, magnetic fields, multiplicity", "ingested": "Apr 09, 2013 07:17:00 AM", "email": "stein@mpia.de"}, {"web": "http://aas.org/aas-224th-meeting/224th-meeting-laboratory-astrophysics-division-sessions", "fax": "1-650-604-6779", "bibCode": "", "end": "2014-06-05", "title": "Second Annual Laboratory Astrophysics Division Meeting: LAD 2014", "meetingNumber": "4280", "modified": "Feb 03, 2014 05:26:03 PM", "start": "2014-06-02", "phone": "1-650-604-3384", "contact": "Farid Salama", "location": "Westin Copley Place, 10 Huntington Avenue, Boston, Massachusetts, USA", "address": "NASA-Ames Research Center, Space Science & Astrobiology Division , MS: 245-6, Moffett Field, California 94035-1000", "keywords": "Astronomy, Laboratory Astrophysics, planetary, atoms, molecules, dust, ices, plasmas,  nuclear, particles", "ingested": "Feb 03, 2014 05:25:00 PM", "email": "farid.salama@nasa.gov"}, {"web": "http://www.oa-roma.inaf.it/meetings/cefalu/2014", "fax": "+3906-94286406", "bibCode": "", "end": "2014-06-13", "title": "The Unquiet Universe: celebrating the 10th Anniversary of Astronomy Workshops in Cefal&ugrave; - Week One: The Distant Universe - Week Two: The Local Universe", "meetingNumber": "4110", "modified": "Feb 06, 2014 02:41:43 PM", "start": "2014-06-02", "phone": "+3906-94286427", "contact": "Giuliana Giobbi", "location": "Cefal&ugrave; (Italy)", "address": "Scientific Secretary, INAF-OAR Astronomical Observatory of Rome, Via di Frascati, 33, 00040 Monte Porzio Catone (Rome, Italy)", "keywords": "Interacting Binaries, accretion, evolution and otucomes, Investigating the distant Universe with GRBs, AGN and Galaxies", "ingested": "Jul 09, 2013 09:44:00 AM", "email": "giuliana.giobbi@oa-roma.inaf.it"}, {"web": "http://www.astro.uni-bonn.de/~sambaran/DS2014/index.html", "fax": "+49 (0)228 731775", "bibCode": "", "end": "2014-06-06", "title": "The dance of stars: dense stellar systems from infant to old", "meetingNumber": "3876", "modified": "Mar 07, 2013 09:03:00 AM", "start": "2014-06-02", "phone": "+49 (0)228 733461", "contact": "Sambaran Banerjee", "location": "Bad Honnef, Germany", "address": "Argelander Institute for Astronomy, University of Bonn.\r\nAuf dem Huegel 71,\r\nD-53121 Bonn,\r\nGermany", "keywords": "globular clusters, young massive clusters, dwarf galaxies, stellar dynamics, compact stellar remnants", "ingested": "Nov 28, 2012 06:36:00 AM", "email": "sambaran@astro.uni-bonn.de"}, {"web": "http://www.lip.pt/scineghe2014", "fax": "None", "bibCode": "", "end": "2014-06-06", "title": "SciNeGHE2014 - 10th Workshop on Science with the New Generation of High Energy Gamma-rays Experiments", "meetingNumber": "4285", "modified": "Feb 05, 2014 06:44:00 AM", "start": "2014-06-04", "phone": "None", "contact": "Pedro Abreu", "location": "Lisboa, Portugal", "address": "Av. Elias Garcia, 14, 1st, 1000-149 Lisboa, Portugal", "keywords": "", "ingested": "Feb 05, 2014 06:44:00 AM", "email": "abreu@lip.pt"}, {"web": "http://chalonge.obspm.fr/Cias_Meudon2014.html", "fax": "None", "bibCode": "", "end": "2014-06-06", "title": "The Chalonge School Meudon Workshop 2014 \"From Large to Small scale structures in Agreement with Observations: CMB, WDM, Galaxies, Black holes, Neutrinos and Sterile Neutrinos\"", "meetingNumber": "4283", "modified": "Feb 05, 2014 06:43:00 AM", "start": "2014-06-04", "phone": "None", "contact": "Prof Dr Norma G. Sanchez", "location": "Meudon Castle-CIAS, Observatoire de Paris, Meudon, France", "address": "Observatoire de Paris  CNRS LERMA \r\n61, Avenue de l'Observatoire,\r\n75014 Paris, \r\nFRANCE", "keywords": "", "ingested": "Feb 05, 2014 06:43:00 AM", "email": "Norma.Sanchez@obspm.fr"}, {"web": "https://indico.skatelescope.org/conferenceDisplay.py?confId=270", "fax": "", "bibCode": "", "end": "2014-06-14", "title": "Advancing Astrophysics with the Square Kilometre Array", "meetingNumber": "4204", "modified": "Dec 05, 2013 09:37:00 AM", "start": "2014-06-08", "phone": "+44 1613069665", "contact": "Robert Braun", "location": "Giardini Naxos, Sicily, Italy", "address": "SKA Organisation\r\nJodrell Bank Observatory\r\nLower Withington\r\nMacclesfield\r\nCheshire SK11 9DL\r\nUK\r\n", "keywords": "radio astronomy, cosmology, EoR, pulsars, astrobiology, transients", "ingested": "Dec 05, 2013 09:37:00 AM", "email": "r.braun@skatelescope.org"}, {"web": "http://www2.lowell.edu/workshops/coolstars18/", "fax": "928-774-6296", "bibCode": "", "end": "2014-06-13", "title": "The 18th Cambridge Workshop on Cool Stars, Stellar Systems and the Sun", "meetingNumber": "3770", "modified": "Jul 09, 2012 10:16:00 AM", "start": "2014-06-09", "phone": "928-233-3207", "contact": "Gerard van Belle", "location": "Flagstaff, Arizona, USA", "address": "Lowell Observatory,\r\n1400 West Mars Hill Road,\r\nFlagstaff, Arizona 86001,\r\nUSA", "keywords": "stars, stellar evolution, brown dwarfs, exoplanets, stellar activity", "ingested": "Jul 09, 2012 10:16:00 AM", "email": "gerard@lowell.edu"}, {"web": "http://www.cfa.harvard.edu/sma/events/smaConf/", "fax": "617-495-7345", "bibCode": "", "end": "2014-06-10", "title": "The  Submillimeter Array: First Decade of Discovery", "meetingNumber": "4255", "modified": "Jan 22, 2014 06:40:00 AM", "start": "2014-06-09", "GoogleMapsResponse": {"status": "OK", "results": [{"geometry": {"location_type": "APPROXIMATE", "bounds": {"northeast": {"lat": 42.4043839, "lng": -71.06548719999999}, "southwest": {"lat": 42.3523968, "lng": -71.16033209999999}}, "viewport": {"northeast": {"lat": 42.4043839, "lng": -71.06548719999999}, "southwest": {"lat": 42.3523968, "lng": -71.16033209999999}}, "location": {"lat": 42.3736158, "lng": -71.10973349999999}}, "address_components": [{"long_name": "Cambridge", "types": ["locality", "political"], "short_name": "Cambridge"}, {"long_name": "Middlesex County", "types": ["administrative_area_level_2", "political"], "short_name": "Middlesex County"}, {"long_name": "Massachusetts", "types": ["administrative_area_level_1", "political"], "short_name": "MA"}, {"long_name": "United States", "types": ["country", "political"], "short_name": "US"}], "formatted_address": "Cambridge, MA, USA", "types": ["locality", "political"]}]}, "phone": "617-495-7477", "contact": "James Moran", "location": "Cambridge, MA, USA", "address": "Harvard-Smithsonian Center for Astrophysics, 60 Garden St., Cambridge, MA 02138 USA", "keywords": "star formation, magnetic fields, disks, the Galactic Center; nearby galaxies, submillimeter galaxies, time domain astronomy, the solar system and instrumentation.", "ingested": "Dec 06, 2013 01:01:00 PM", "email": "jmoran@cfa.harvard.edu"}, {"web": "https://higgs.ph.ed.ac.uk/workshops/physics-first-star-and-galaxy-formation", "fax": "None", "bibCode": "", "end": "2014-06-12", "title": "The physics of first star and galaxy formation", "meetingNumber": "4244", "modified": "Jan 16, 2014 04:38:00 AM", "start": "2014-06-10", "GoogleMapsResponse": {"status": "OK", "results": [{"geometry": {"location_type": "APPROXIMATE", "bounds": {"northeast": {"lat": 55.9917083, "lng": -3.0777484}, "southwest": {"lat": 55.8904228, "lng": -3.3330187}}, "viewport": {"northeast": {"lat": 55.9917083, "lng": -3.0777484}, "southwest": {"lat": 55.8904228, "lng": -3.3330187}}, "location": {"lat": 55.953252, "lng": -3.188267}}, "address_components": [{"long_name": "Edinburgh", "types": ["locality", "political"], "short_name": "Edinburgh"}, {"long_name": "City of Edinburgh", "types": ["administrative_area_level_2", "political"], "short_name": "City of Edinburgh"}, {"long_name": "Scotland", "types": ["administrative_area_level_1", "political"], "short_name": "Scotland"}, {"long_name": "United Kingdom", "types": ["country", "political"], "short_name": "GB"}], "formatted_address": "Edinburgh, City of Edinburgh, UK", "types": ["locality", "political"]}]}, "phone": "+ 44 - 131 - 6688 353", "contact": "Sadegh Khochfar", "location": "Edinburgh, UK", "address": "Institute for Astronomy\r\nUniversity of Edinburgh\r\nRoyal Observatory\r\nBlackford Hill\r\nEdinburgh EH9 3HJ", "keywords": "First Stars, First Galaxies, Black holes", "ingested": "Jan 16, 2014 04:38:00 AM", "email": "sadeghk@roe.ac.uk"}, {"web": "http://www.mpia-hd.mpg.de/homes/igm14/", "fax": "", "bibCode": "", "end": "2014-06-20", "title": "Intergalactic Matters", "meetingNumber": "4299", "modified": "Feb 25, 2014 05:17:00 AM", "start": "2014-06-16", "GoogleMapsResponse": {"status": "OK", "results": [{"geometry": {"location_type": "APPROXIMATE", "bounds": {"northeast": {"lat": 49.4596927, "lng": 8.7940495}, "southwest": {"lat": 49.3517641, "lng": 8.573178799999999}}, "viewport": {"northeast": {"lat": 49.4596927, "lng": 8.7940495}, "southwest": {"lat": 49.3517641, "lng": 8.573178799999999}}, "location": {"lat": 49.3987524, "lng": 8.6724335}}, "address_components": [{"long_name": "Heidelberg", "types": ["locality", "political"], "short_name": "Heidelberg"}, {"long_name": "Rhein-Neckar-Kreis", "types": ["administrative_area_level_3", "political"], "short_name": "Rhein-Neckar-Kreis"}, {"long_name": "Karlsruhe", "types": ["administrative_area_level_2", "political"], "short_name": "KA"}, {"long_name": "Baden-Wurttemberg", "types": ["administrative_area_level_1", "political"], "short_name": "BW"}, {"long_name": "Germany", "types": ["country", "political"], "short_name": "DE"}], "formatted_address": "Heidelberg, Germany", "types": ["locality", "political"]}]}, "phone": "", "contact": "Joseph Hennawi", "location": "Heidelberg, Germany", "address": "", "keywords": "intergalactic medium; absorption lines, reionization; high-redshift universe; circumgalactic medium; large-scale structure; cosmology", "ingested": "Feb 25, 2014 05:17:00 AM", "email": "igm14@mpia-hd.mpg.de"}, {"web": "http://www.atnf.csiro.au/research/workshops/2014/SouthernCrossVII/index.html", "fax": "", "bibCode": "", "end": "2014-06-20", "title": "Powerful AGN and Their Host Galaxies Across Cosmic Time", "meetingNumber": "4149", "modified": "Sep 20, 2013 10:36:00 AM", "start": "2014-06-16", "GoogleMapsResponse": {"status": "OK", "results": [{"geometry": {"location_type": "APPROXIMATE", "bounds": {"northeast": {"lat": -16.4777751, "lng": 145.4752944}, "southwest": {"lat": -16.5300932, "lng": 145.4426604}}, "viewport": {"northeast": {"lat": -16.4777751, "lng": 145.4752944}, "southwest": {"lat": -16.5300932, "lng": 145.4426604}}, "location": {"lat": -16.4839785, "lng": 145.4658327}}, "address_components": [{"long_name": "Port Douglas", "types": ["locality", "political"], "short_name": "Port Douglas"}, {"long_name": "Queensland", "types": ["administrative_area_level_1", "political"], "short_name": "QLD"}, {"long_name": "Australia", "types": ["country", "political"], "short_name": "AU"}, {"long_name": "4877", "types": ["postal_code"], "short_name": "4877"}], "formatted_address": "Port Douglas QLD 4877, Australia", "types": ["locality", "political"]}]}, "phone": "+61 2 9372 4284", "contact": "Nick Seymour", "location": "Port Douglas, QLD, Australia", "address": "PO Box 76\r\nEpping NSW 1710\r\nAustralia", "keywords": "AGN, Galaxy Evolution", "ingested": "Sep 20, 2013 10:36:00 AM", "email": "nicholas.seymour@csiro.au"}, {"web": "http://xmm.esac.esa.int/external/xmm_science/workshops/2014symposium/", "fax": "+34918131250", "bibCode": "", "end": "2014-06-19", "title": "The X-ray Universe 2014", "meetingNumber": "4091", "modified": "Jun 18, 2013 06:21:00 AM", "start": "2014-06-16", "GoogleMapsResponse": {"status": "OK", "results": [{"geometry": {"location_type": "APPROXIMATE", "bounds": {"northeast": {"lat": 53.42521010000001, "lng": -6.05255}, "southwest": {"lat": 53.22343009999999, "lng": -6.450839999999999}}, "viewport": {"northeast": {"lat": 53.42521010000001, "lng": -6.05255}, "southwest": {"lat": 53.22343009999999, "lng": -6.450839999999999}}, "location": {"lat": 53.3498053, "lng": -6.2603097}}, "address_components": [{"long_name": "Dublin", "types": ["locality", "political"], "short_name": "Dublin"}, {"long_name": "Dublin City", "types": ["administrative_area_level_2", "political"], "short_name": "Dublin City"}, {"long_name": "Dublin", "types": ["administrative_area_level_1", "political"], "short_name": "Dublin"}, {"long_name": "Ireland", "types": ["country", "political"], "short_name": "IE"}], "formatted_address": "Dublin, Ireland", "types": ["locality", "political"]}]}, "phone": "+34-918131436", "contact": "XMM-Newton Science Operations Centre", "location": "Dublin, Ireland", "address": "ESA, European Space Astronomy Centre, Apartado 78, 28691 Villanueva de la Canada Madrid, Spain", "keywords": "X-ray, XMM-Newton", "ingested": "Jun 14, 2013 05:24:00 AM", "email": "xru2014@sciops.esa.int"}, {"web": "http://www3.mpifr-bonn.mpg.de/div/jhs/", "fax": "+49228525229", "bibCode": "", "end": "2014-06-20", "title": "Extreme Astrophysics in an Ever-Changing Universe - Time Domain Astronomy in the 21st\r\nCentury | Celebrating John Seiradakis' 40-year career", "meetingNumber": "4268", "modified": "Jan 27, 2014 06:45:00 AM", "start": "2014-06-16", "GoogleMapsResponse": {"status": "OK", "results": [{"geometry": {"location_type": "APPROXIMATE", "bounds": {"northeast": {"lat": 35.0224348, "lng": 25.7644874}, "southwest": {"lat": 35.002269, "lng": 25.7261152}}, "viewport": {"northeast": {"lat": 35.0224348, "lng": 25.7644874}, "southwest": {"lat": 35.002269, "lng": 25.7261152}}, "location": {"lat": 35.0118955, "lng": 25.7407452}}, "address_components": [{"long_name": "Ierapetra", "types": ["locality", "political"], "short_name": "Ierapetra"}, {"long_name": "Ierapetra", "types": ["political"], "short_name": "Ierapetra"}, {"long_name": "Ierapetra", "types": ["political"], "short_name": "Ierapetra"}, {"long_name": "Lasithi", "types": ["administrative_area_level_3", "political"], "short_name": "Lasithi"}, {"long_name": "Crete", "types": ["administrative_area_level_2", "political"], "short_name": "Crete"}, {"long_name": "Crete", "types": ["administrative_area_level_1", "political"], "short_name": "Crete"}, {"long_name": "Greece", "types": ["country", "political"], "short_name": "GR"}], "formatted_address": "Ierapetra, Greece", "types": ["locality", "political"]}]},