[{"web": "", "fax": "+886-3-426-2304", "bibCode": "2001stag.conf.....P", "end": "2001-01-08", "title": "Small-Telescope Astronomy on Global Scales, IAU Colloquium No.183", "meetingNumber": "709", "modified": "Jun 10, 2009 12:00:00 AM", "start": "2001-01-04", "GoogleMapsResponse": {"status": "OK", "results": [{"geometry": {"location": {"lat": 21.9483307, "lng": 120.7797516}, "viewport": {"northeast": {"lat": 21.9496796802915, "lng": 120.7811005802915}, "southwest": {"lat": 21.9469817197085, "lng": 120.7784026197085}}, "location_type": "APPROXIMATE"}, "address_components": [{"long_name": "Kenting National Park", "types": ["point_of_interest", "establishment"], "short_name": "Kenting National Park"}, {"long_name": "596", "types": ["street_number"], "short_name": "596"}, {"long_name": "K\u011bnd\u012bng Road", "types": ["route"], "short_name": "K\u011bnd\u012bng Road"}, {"long_name": "\u58be\u4e01\u91cc", "types": ["sublocality", "political"], "short_name": "\u58be\u4e01\u91cc"}, {"long_name": "Hengchun Township", "types": ["locality", "political"], "short_name": "Hengchun Twp"}, {"long_name": "Pingtung County", "types": ["administrative_area_level_2", "political"], "short_name": "Pingtung County"}, {"long_name": "Taiwan", "types": ["country", "political"], "short_name": "TW"}, {"long_name": "94644", "types": ["postal_code"], "short_name": "94644"}], "formatted_address": "Kenting National Park, No. 596, K\u011bnd\u012bng Road, Hengchun Township, Pingtung County, Taiwan 94644", "types": ["point_of_interest", "natural_feature", "park", "establishment"]}]}, "phone": "", "contact": "Wen Ping Chen", "location": "Kenting National Park, Taiwan", "address": "Ms Kelly Chen, c/o IAUC183, Graduate Institute of Astronomy, National Central University, Chung-Li, 32054 Taiwan", "keywords": "small-telescope astronomy, iau 183, telescope networks, transient events, telescope hardware design", "ingested": "Mar 28, 2000 12:00:00 AM", "email": "wchen@joule.phy.ncu.edu.tw"}, {"web": "", "fax": "+972-8-9344128", "bibCode": "", "end": "2001-01-13", "title": "Particle Astrophysics Winter School", "meetingNumber": "772", "modified": "Jun 10, 2009 12:00:00 AM", "start": "2001-01-06", "GoogleMapsResponse": {"status": "OK", "results": [{"geometry": {"location_type": "APPROXIMATE", "bounds": {"northeast": {"lat": 31.7656458, "lng": 35.5924507}, "southwest": {"lat": 31.3100426, "lng": 35.3893218}}, "viewport": {"northeast": {"lat": 31.7656458, "lng": 35.5924507}, "southwest": {"lat": 31.3100426, "lng": 35.3893218}}, "location": {"lat": 31.5590254, "lng": 35.4731878}}, "address_components": [{"long_name": "Dead Sea", "types": ["natural_feature", "establishment"], "short_name": "Dead Sea"}], "formatted_address": "Dead Sea", "types": ["natural_feature", "establishment"]}]}, "phone": "+972-8-9343897", "contact": "Roberta (Roby) Tsabary", "location": "Dead Sea, Israel", "address": "Weizmann Institute of Science, Herzl St., Rehovot, Israel, 76100", "keywords": "Neutrinos, Dark Matter, Cosmic Rays, Gamma Rays, Cosmology", "ingested": "Aug 21, 2000 12:00:00 AM", "email": "htsabary@wisemail.weizmann.ac.il"}, {"web": "", "fax": "", "bibCode": "", "end": "2001-01-08", "title": "Historical Astronomy Division (with AAS)", "meetingNumber": "798", "modified": "Oct 16, 2000 12:00:00 AM", "start": "2001-01-07", "GoogleMapsResponse": {"status": "OK", "results": [{"geometry": {"location_type": "APPROXIMATE", "bounds": {"northeast": {"lat": 33.114249, "lng": -116.90816}, "southwest": {"lat": 32.534856, "lng": -117.2821665}}, "viewport": {"northeast": {"lat": 33.114249, "lng": -116.90816}, "southwest": {"lat": 32.534856, "lng": -117.2821665}}, "location": {"lat": 32.7153292, "lng": -117.1572551}}, "address_components": [{"long_name": "San Diego", "types": ["locality", "political"], "short_name": "San Diego"}, {"long_name": "San Diego County", "types": ["administrative_area_level_2", "political"], "short_name": "San Diego County"}, {"long_name": "California", "types": ["administrative_area_level_1", "political"], "short_name": "CA"}, {"long_name": "United States", "types": ["country", "political"], "short_name": "US"}], "formatted_address": "San Diego, CA, USA", "types": ["locality", "political"]}]}, "phone": "", "contact": "Barvara Welther", "location": "San Diego, CA.", "address": "", "keywords": "", "ingested": "Oct 16, 2000 12:00:00 AM", "email": "bwelther@cfa.harvard.edu"}, {"web": "", "fax": "", "bibCode": " 2001BAAS...33..709.", "end": "2001-01-11", "title": "197th. AAS Meeting (w AAPT)", "meetingNumber": "571", "modified": "Jul 08, 2009 12:00:00 AM", "start": "2001-01-07", "GoogleMapsResponse": {"status": "OK", "results": [{"geometry": {"location_type": "APPROXIMATE", "bounds": {"northeast": {"lat": 33.114249, "lng": -116.90816}, "southwest": {"lat": 32.534856, "lng": -117.2821665}}, "viewport": {"northeast": {"lat": 33.114249, "lng": -116.90816}, "southwest": {"lat": 32.534856, "lng": -117.2821665}}, "location": {"lat": 32.7153292, "lng": -117.1572551}}, "address_components": [{"long_name": "San Diego", "types": ["locality", "political"], "short_name": "San Diego"}, {"long_name": "San Diego County", "types": ["administrative_area_level_2", "political"], "short_name": "San Diego County"}, {"long_name": "California", "types": ["administrative_area_level_1", "political"], "short_name": "CA"}, {"long_name": "United States", "types": ["country", "political"], "short_name": "US"}], "formatted_address": "San Diego, CA, USA", "types": ["locality", "political"]}]}, "phone": "", "contact": "AAS Executive Office", "location": "San Diego, CA.", "address": "", "keywords": "aas", "ingested": "Aug 25, 1999 12:00:00 AM", "email": "aas@aas.org"}, {"web": "", "fax": "", "bibCode": " 2008HEAD...10......", "end": "2001-01-11", "title": "High Energy Astrophysics Division (with AAS)", "meetingNumber": "799", "modified": "Jul 08, 2009 12:00:00 AM", "start": "2001-01-07", "phone": "", "contact": "Jonathan Grindlay", "location": "San Diego, CA.", "address": "", "keywords": "", "ingested": "Oct 16, 2000 12:00:00 AM", "email": "josh@cfa.harvard.edu"}, {"web": "", "fax": "805-893-2431", "bibCode": "", "end": "2001-01-26", "title": "Physics at High Pressures: Interiors of Giant Planets, Extrasolar Planets and Brown Dwarfs (mini-program)", "meetingNumber": "789", "modified": "Jun 10, 2009 12:00:00 AM", "start": "2001-01-08", "phone": "805-893-3272", "contact": "Deborah Storm", "location": "Institute for Theoretical Physics, University of California, Santa Barbara, CA", "address": "ITP, University of California, Santa Barbara, CA, 93106", "keywords": "high pressure, brown dwarfs, extrasolar planets", "ingested": "Sep 28, 2000 12:00:00 AM", "email": "storm@itp.ucsb.edu"}, {"web": "", "fax": "+34 958 81 45 30", "bibCode": " 2001qhte.conf.....M", "end": "2001-01-12", "title": "QSO hosts and their environments", "meetingNumber": "644", "modified": "Aug 11, 2003 12:00:00 AM", "start": "2001-01-10", "phone": "+34 958 12 13 11", "contact": " Isabel Marquez", "location": "Instituto de Astrofisica De Andalucia (CSIC),Granada (SPAIN)", "address": "Instituto de Astrofisica De Andalucia (CSIC)         Camino Bajo de Huetor 24, Granada, SPAIN, 18008", "keywords": "quasars, host galaxy", "ingested": "Dec 23, 1999 12:00:00 AM", "email": "isabel@iaa.es"}, {"web": "http://www.eso.org/magfields2001", "fax": "(56 2)228-5132", "bibCode": "2001mfah.conf....3M", "end": "2001-01-19", "title": "Magnetic fields across the H-R diagram", "meetingNumber": "727", "modified": "Aug 11, 2003 12:00:00 AM", "start": "2001-01-15", "phone": "(56 2)228-5006", "contact": "Gauthier Mathys", "location": "SANTIAGO, CHILE", "address": "European Southern Observatory, Alonso de Cordova 3107, Santiago, Chile, 19000", "keywords": "", "ingested": "May 04, 2000 12:00:00 AM", "email": "magfield@eso.org"}, {"web": "http://www.tau.ac.il/~eilat01", "fax": "+972-3-640-7964 (or +972-3-642-9306)", "bibCode": "", "end": "2001-01-19", "title": "Nuclear Physics in Astrophysics", "meetingNumber": "771", "modified": "Aug 21, 2000 12:00:00 AM", "start": "2001-01-15", "GoogleMapsResponse": {"status": "OK", "results": [{"geometry": {"location_type": "APPROXIMATE", "bounds": {"northeast": {"lat": 29.7630079, "lng": 35.0087689}, "southwest": {"lat": 29.491846, "lng": 34.899364}}, "viewport": {"northeast": {"lat": 29.687695, "lng": 35.0087689}, "southwest": {"lat": 29.491846, "lng": 34.899364}}, "location": {"lat": 29.557669, "lng": 34.951925}}, "address_components": [{"long_name": "Eilat", "types": ["locality", "political"], "short_name": "Eilat"}, {"long_name": "Israel", "types": ["country", "political"], "short_name": "IL"}], "formatted_address": "Eilat, Israel", "types": ["locality", "political"]}]}, "phone": "+972-3-640-7215", "contact": "N.Auerbach", "location": "Eilat , Israel", "address": "Tel Aviv University, School of Physics and Astronomy, Tel Aviv, Israel, 69978", "keywords": "Nuclear Physics, Astrophysics", "ingested": "Aug 21, 2000 12:00:00 AM", "email": "auerbach@post.tau.ac.il"}, {"web": "http://moriond.in2p3.fr/J01/", "fax": "33 (0)1 69 28 86 59", "bibCode": "", "end": "2001-01-27", "title": "Very High Energy Phenomena in the Universe", "meetingNumber": "790", "modified": "Sep 28, 2000 12:00:00 AM", "start": "2001-01-20", "GoogleMapsResponse": {"status": "OK", "results": [{"geometry": {"location_type": "APPROXIMATE", "bounds": {"northeast": {"lat": 43.501788, "lng": 6.538443099999999}, "southwest": {"lat": 43.40484499999999, "lng": 6.4338681}}, "viewport": {"northeast": {"lat": 43.501788, "lng": 6.538443099999999}, "southwest": {"lat": 43.40484499999999, "lng": 6.4338681}}, "location": {"lat": 43.462876, "lng": 6.478446000000001}}, "address_components": [{"long_name": "Les Arcs", "types": ["locality", "political"], "short_name": "Les Arcs"}, {"long_name": "Var", "types": ["administrative_area_level_2", "political"], "short_name": "83"}, {"long_name": "Provence-Alpes-C\u00f4te d'Azur", "types": ["administrative_area_level_1", "political"], "short_name": "PACA"}, {"long_name": "France", "types": ["country", "political"], "short_name": "FR"}], "formatted_address": "Les Arcs, France", "types": ["locality", "political"]}]}, "phone": "33 (0)1 69 29 05 50", "contact": "Ms Claire Wrzesinski", "location": "Les Arcs, France", "address": "Rencontres de Moriond BP 33, , F-91192 GIF SUR YVETTE CEDEX , France", "keywords": "high energy astronomy, cosmic rays, neutrnio astrophysics", "ingested": "Sep 28, 2000 12:00:00 AM", "email": "wrzesins@lal.in2p3.fr"}, {"web": "", "fax": "+49-228-733672", "bibCode": "", "end": "2001-01-27", "title": " Dwarf Galaxies and their Environment", "meetingNumber": "785", "modified": "Jun 10, 2009 12:00:00 AM", "start": "2001-01-23", "GoogleMapsResponse": {"status": "OK", "results": [{"geometry": {"location_type": "APPROXIMATE", "bounds": {"northeast": {"lat": 50.6873321, "lng": 7.363996900000001}, "southwest": {"lat": 50.6234231, "lng": 7.1995814}}, "viewport": {"northeast": {"lat": 50.6873321, "lng": 7.363996900000001}, "southwest": {"lat": 50.6234231, "lng": 7.1995814}}, "location": {"lat": 50.6426173, "lng": 7.226244599999999}}, "address_components": [{"long_name": "Bad Honnef", "types": ["locality", "political"], "short_name": "Bad Honnef"}, {"long_name": "Rhein-Sieg-Kreis", "types": ["administrative_area_level_3", "political"], "short_name": "Rhein-Sieg-Kreis"}, {"long_name": "Cologne", "types": ["administrative_area_level_2", "political"], "short_name": "K"}, {"long_name": "North Rhine-Westphalia", "types": ["administrative_area_level_1", "political"], "short_name": "NRW"}, {"long_name": "Germany", "types": ["country", "political"], "short_name": "DE"}], "partial_match": true, "formatted_address": "Bad Honnef, Germany", "types": ["locality", "political"]}]}, "phone": "+49-228-733656", "contact": " Prof. Dr. Klaas de Boer", "location": " Physikzentrum in Bad Honnef near Bonn", "address": "Prof. Dr. Klaas de Boer, Observatory, Bonn University, Auf dem Huegel 71, Bonn, Germany, D-53121", "keywords": "Magellanic Clouds, dwarf galaxies", "ingested": "Sep 25, 2000 12:00:00 AM", "email": "deboer@astro.uni-bonn.de"}, {"web": "http://www.iso.vilspa.esa.es/meetings/calibration/2nd_announcement.html", "fax": "34-91-8131322", "bibCode": " 2003ESASP.481.....M", "end": "2001-02-09", "title": "The Calibration Legacy of the ISO Mission", "meetingNumber": "746", "modified": "Jul 08, 2009 12:00:00 AM", "start": "2001-02-05", "GoogleMapsResponse": {"status": "OK", "results": [{"geometry": {"location_type": "APPROXIMATE", "bounds": {"northeast": {"lat": 40.4847016, "lng": -3.9371736}, "southwest": {"lat": 40.458099, "lng": -3.960117399999999}}, "viewport": {"northeast": {"lat": 40.4847016, "lng": -3.9371736}, "southwest": {"lat": 40.458099, "lng": -3.960117399999999}}, "location": {"lat": 40.46871470000001, "lng": -3.9438336}}, "address_components": [{"long_name": "Villafranca del Castillo", "types": ["locality", "political"], "short_name": "Villafranca del Castillo"}, {"long_name": "Villanueva de la Ca\u00f1ada", "types": ["political"], "short_name": "Villanueva de la Ca\u00f1ada"}, {"long_name": "Madrid", "types": ["administrative_area_level_2", "political"], "short_name": "M"}, {"long_name": "Community of Madrid", "types": ["administrative_area_level_1", "political"], "short_name": "Community of Madrid"}, {"long_name": "Spain", "types": ["country", "political"], "short_name": "ES"}], "partial_match": true, "formatted_address": "Villafranca del Castillo, Madrid, Spain", "types": ["locality", "political"]}]}, "phone": "34-91-8131372", "contact": "General: helpdesk. Detail: Leo Metcalfe", "location": "ISO Data Centre, Villafranca del Castillo,Madrid, Spain", "address": "European Space Agency, Apartado 50727, Madrid, Spain, 28080", "keywords": "Calibration, Instrumentation, Infrared Detectors, Detector Arrays, Space Science, Orbital Observatory, Infrared Astronomy,Photometers, Spectrometers", "ingested": "Jun 08, 2000 12:00:00 AM", "email": "helpdesk@iso.vilspa.esa.es"}, {"web": "http://www.gemini.edu/science/timescales/", "fax": "(808) 935-9650", "bibCode": "2001aats.conf.....V", "end": "2001-02-09", "title": "Astrophysical Ages and Time Scales", "meetingNumber": "723", "modified": "Aug 11, 2003 12:00:00 AM", "start": "2001-02-05", "GoogleMapsResponse": {"status": "OK", "results": [{"geometry": {"location_type": "APPROXIMATE", "bounds": {"northeast": {"lat": 19.7438017, "lng": -154.9925729}, "southwest": {"lat": 19.6240661, "lng": -155.1872961}}, "viewport": {"northeast": {"lat": 19.7438017, "lng": -154.9925729}, "southwest": {"lat": 19.6240661, "lng": -155.1872961}}, "location": {"lat": 19.7297222, "lng": -155.09}}, "address_components": [{"long_name": "Hilo", "types": ["locality", "political"], "short_name": "Hilo"}, {"long_name": "Hawaii County", "types": ["administrative_area_level_2", "political"], "short_name": "Hawaii County"}, {"long_name": "Hawaii", "types": ["administrative_area_level_1", "political"], "short_name": "HI"}, {"long_name": "United States", "types": ["country", "political"], "short_name": "US"}], "formatted_address": "Hilo, HI, USA", "types": ["locality", "political"]}]}, "phone": "(808) 974-2500", "contact": "Ted von Hippel", "location": "Hilo, Hawaii", "address": "Gemini Observatory, 670 North A'ohoku Place, Hilo, HI, 96720", "keywords": "", "ingested": "Apr 25, 2000 12:00:00 AM", "email": "timescales@gemini.edu"}, {"web": "http://www3.tsl.uu.se/~damet/neutrino/snow.html", "fax": "+46-18-471 35 13", "bibCode": "2001clim.confE..62P", "end": "2001-02-10", "title": "Scandinavian NeutrinO Workshop", "meetingNumber": "849", "modified": "Aug 11, 2003 12:00:00 AM", "start": "2001-02-08", "GoogleMapsResponse": {"status": "OK", "results": [{"geometry": {"location_type": "APPROXIMATE", "bounds": {"northeast": {"lat": 59.904146, "lng": 17.7709899}, "southwest": {"lat": 59.7624129, "lng": 17.5459043}}, "viewport": {"northeast": {"lat": 59.904146, "lng": 17.7709899}, "southwest": {"lat": 59.7624129, "lng": 17.5459043}}, "location": {"lat": 59.85856380000001, "lng": 17.6389267}}, "address_components": [{"long_name": "Uppsala", "types": ["locality", "political"], "short_name": "Uppsala"}, {"long_name": "Uppsala", "types": ["administrative_area_level_2", "political"], "short_name": "Uppsala"}, {"long_name": "Uppsala County", "types": ["administrative_area_level_1", "political"], "short_name": "Uppsala County"}, {"long_name": "Sweden", "types": ["country", "political"], "short_name": "SE"}], "formatted_address": "Uppsala, Sweden", "types": ["locality", "political"]}, {"geometry": {"location": {"lat": 58.816667, "lng": 15.033333}, "viewport": {"northeast": {"lat": 58.8180159802915, "lng": 15.0346819802915}, "southwest": {"lat": 58.81531801970849, "lng": 15.0319840197085}}, "location_type": "APPROXIMATE"}, "address_components": [{"long_name": "Uppsala", "types": ["locality", "political"], "short_name": "Uppsala"}, {"long_name": "\u00d6rebro County", "types": ["administrative_area_level_1", "political"], "short_name": "\u00d6rebro County"}, {"long_name": "Sweden", "types": ["country", "political"], "short_name": "SE"}, {"long_name": "69695", "types": ["postal_code"], "short_name": "69695"}, {"long_name": "\u00c5mmeberg", "types": ["postal_town"], "short_name": "\u00c5mmeberg"}], "formatted_address": "696 95 Uppsala, Sweden", "types": ["locality", "political"]}, {"geometry": {"location": {"lat": 56.55, "lng": 13.483333}, "viewport": {"northeast": {"lat": 56.5513489802915, "lng": 13.4846819802915}, "southwest": {"lat": 56.5486510197085, "lng": 13.4819840197085}}, "location_type": "APPROXIMATE"}, "address_components": [{"long_name": "Uppsala", "types": ["locality", "political"], "short_name": "Uppsala"}, {"long_name": "Kronoberg County", "types": ["administrative_area_level_1", "political"], "short_name": "Kronoberg County"}, {"long_name": "Sweden", "types": ["country", "political"], "short_name": "SE"}, {"long_name": "28593", "types": ["postal_code"], "short_name": "28593"}, {"long_name": "Markaryd", "types": ["postal_town"], "short_name": "Markaryd"}], "formatted_address": "285 93 Uppsala, Sweden", "types": ["locality", "political"]}]}, "phone": "+46-18-471 58 27", "contact": "Jerome Damet", "location": "Uppsala, Sweden", "address": "Department of Radiation Sciences, L\u00e4gerhyddsv\u00e4gen 1, Uppsala , Sweden, S-751 21", "keywords": "Neutrino, astrophysics, high-energy physics", "ingested": "Jan 10, 2001 12:00:00 AM", "email": "damet@tsl.uu.se"}, {"web": "", "fax": "818 393 4053", "bibCode": "", "end": "2001-02-13", "title": "FIRST Science Workshop", "meetingNumber": "767", "modified": "Jul 27, 2000 12:00:00 AM", "start": "2001-02-12", "GoogleMapsResponse": {"status": "OK", "results": [{"geometry": {"location": {"lat": 32.7128287, "lng": -117.2344804}, "viewport": {"northeast": {"lat": 32.7222164, "lng": -117.218473}, "southwest": {"lat": 32.70344, "lng": -117.2504878}}, "location_type": "APPROXIMATE"}, "address_components": [{"long_name": "Shelter Island", "types": ["natural_feature", "establishment"], "short_name": "Shelter Island"}, {"long_name": "San Diego", "types": ["locality", "political"], "short_name": "San Diego"}, {"long_name": "San Diego County", "types": ["administrative_area_level_2", "political"], "short_name": "San Diego County"}, {"long_name": "California", "types": ["administrative_area_level_1", "political"], "short_name": "CA"}, {"long_name": "United States", "types": ["country", "political"], "short_name": "US"}], "partial_match": true, "formatted_address": "Shelter Island, San Diego, CA, USA", "types": ["natural_feature", "establishment"]}]}, "phone": "818 393 1397", "contact": "Charmaine Mayes", "location": "Humphrey's Half Moon Inn, Shelter Island, San Diego", "address": "JPL/California Institute of Technology, 4800 Oak Grove Drive, Pasadena, CA, 91109", "keywords": "Submillimeter Infrared", "ingested": "Jul 27, 2000 12:00:00 AM", "email": "charmaine.d.mayes@jpl.nasa.gov"}, {"web": "", "fax": "", "bibCode": "", "end": "2001-02-16", "title": "Physics Potential of Supernova II Neutrino Detection", "meetingNumber": "806", "modified": "Jun 10, 2009 12:00:00 AM", "start": "2001-02-15", "GoogleMapsResponse": {"status": "OK", "results": [{"geometry": {"location_type": "APPROXIMATE", "bounds": {"northeast": {"lat": 33.986416, "lng": -118.4324508}, "southwest": {"lat": 33.9645637, "lng": -118.46348}}, "viewport": {"northeast": {"lat": 33.986416, "lng": -118.4324508}, "southwest": {"lat": 33.9645637, "lng": -118.46348}}, "location": {"lat": 33.9802893, "lng": -118.4517449}}, "address_components": [{"long_name": "Marina del Rey", "types": ["locality", "political"], "short_name": "Marina Del Rey"}, {"long_name": "Los Angeles County", "types": ["administrative_area_level_2", "political"], "short_name": "Los Angeles County"}, {"long_name": "California", "types": ["administrative_area_level_1", "political"], "short_name": "CA"}, {"long_name": "United States", "types": ["country", "political"], "short_name": "US"}], "formatted_address": "Marina del Rey, CA, USA", "types": ["locality", "political"]}]}, "phone": "", "contact": "Dept. of Physics & Astronomy", "location": "Marina del Rey, CA", "address": "Box 951547:  UCLA: Los Angeles, CA  90095-1547", "keywords": "supernova, neutrino", "ingested": "Oct 24, 2000 12:00:00 AM", "email": "snii@physics.ucla.edu"}, {"web": "http://www.royalsoc.ac.uk/events", "fax": "(0) 20 7451 2693", "bibCode": "", "end": "2001-02-22", "title": "Origin and early evolution of solid matter in the Solar System", "meetingNumber": "819", "modified": "Nov 14, 2000 12:00:00 AM", "start": "2001-02-21", "GoogleMapsResponse": {"status": "OK", "results": [{"geometry": {"location": {"lat": 51.5058629, "lng": -0.132621}, "viewport": {"northeast": {"lat": 51.50721188029151, "lng": -0.131272019708498}, "southwest": {"lat": 51.50451391970851, "lng": -0.133969980291502}}, "location_type": "APPROXIMATE"}, "address_components": [{"long_name": "The Royal Society", "types": ["premise"], "short_name": "The Royal Society"}, {"long_name": "6", "types": ["street_number"], "short_name": "6"}, {"long_name": "Carlton House Terrace", "types": ["route"], "short_name": "Carlton House Terrace"}, {"long_name": "St. James's", "types": ["neighborhood", "political"], "short_name": "St. James's"}, {"long_name": "Greater London", "types": ["administrative_area_level_2", "political"], "short_name": "Gt Lon"}, {"long_name": "United Kingdom", "types": ["country", "political"], "short_name": "GB"}, {"long_name": "SW1Y 5AG", "types": ["postal_code"], "short_name": "SW1Y 5AG"}, {"long_name": "London", "types": ["postal_town"], "short_name": "London"}], "formatted_address": "The Royal Society, 6 Carlton House Terrace, St. James's, London SW1Y 5AG, UK", "types": ["premise"]}, {"geometry": {"location": {"lat": 51.5088786, "lng": -0.1388878}, "viewport": {"northeast": {"lat": 51.5102275802915, "lng": -0.137538819708498}, "southwest": {"lat": 51.5075296197085, "lng": -0.140236780291502}}, "location_type": "APPROXIMATE"}, "address_components": [{"long_name": "Royal Society Of Chemistry", "types": ["point_of_interest", "establishment"], "short_name": "Royal Society Of Chemistry"}, {"long_name": "Burlington House", "types": ["premise"], "short_name": "Burlington House"}, {"long_name": "Piccadilly", "types": ["route"], "short_name": "Piccadilly"}, {"long_name": "Mayfair", "types": ["neighborhood", "political"], "short_name": "Mayfair"}, {"long_name": "Greater London", "types": ["administrative_area_level_2", "political"], "short_name": "Gt Lon"}, {"long_name": "United Kingdom", "types": ["country", "political"], "short_name": "GB"}, {"long_name": "W1J 0BA", "types": ["postal_code"], "short_name": "W1J 0BA"}, {"long_name": "London", "types": ["postal_town"], "short_name": "London"}], "partial_match": true, "formatted_address": "Royal Society Of Chemistry, Burlington House, Piccadilly, Mayfair, London W1J 0BA, UK", "types": ["point_of_interest", "establishment"]}]}, "phone": "  (0) 20 7451 2574", "contact": "The Royal Society, London", "location": "The Royal Society, London", "address": "The Royal Society, 6 Carlton House Terrace, London, UK, SW1Y 5AG", "keywords": "Solar System, meteorite, astrophysics", "ingested": "Nov 14, 2000 12:00:00 AM", "email": "discussion.meetings@royalsoc.ac.uk"}, {"web": "http://aa.usno.navy.mil/waa/", "fax": "202-762-1612", "bibCode": "", "end": "2001-02-22", "title": "Washington Area Astronomers Meeting", "meetingNumber": "706", "modified": "Sep 19, 2000 12:00:00 AM", "start": "2001-02-22", "GoogleMapsResponse": {"status": "OK", "results": [{"geometry": {"location_type": "APPROXIMATE", "bounds": {"northeast": {"lat": 39.0045471, "lng": -76.8340375}, "southwest": {"lat": 38.9908891, "lng": -76.8613317}}, "viewport": {"northeast": {"lat": 39.0045471, "lng": -76.8340375}, "southwest": {"lat": 38.9908891, "lng": -76.8613317}}, "location": {"lat": 38.9911983, "lng": -76.8525724}}, "address_components": [{"long_name": "Goddard Space Flight Center", "types": ["establishment"], "short_name": "Goddard Space Flight Center"}, {"long_name": "8800", "types": ["street_number"], "short_name": "8800"}, {"long_name": "Greenbelt Road", "types": ["route"], "short_name": "Greenbelt Rd"}, {"long_name": "Goddard", "types": ["neighborhood", "political"], "short_name": "Goddard"}, {"long_name": "Greenbelt", "types": ["locality", "political"], "short_name": "Greenbelt"}, {"long_name": "Berwyn", "types": ["administrative_area_level_3", "political"], "short_name": "21, Berwyn"}, {"long_name": "Prince George's County", "types": ["administrative_area_level_2", "political"], "short_name": "Prince George's County"}, {"long_name": "Maryland", "types": ["administrative_area_level_1", "political"], "short_name": "MD"}, {"long_name": "United States", "types": ["country", "political"], "short_name": "US"}, {"long_name": "20771", "types": ["postal_code"], "short_name": "20771"}], "formatted_address": "Goddard Space Flight Center, 8800 Greenbelt Road, Greenbelt, MD 20771, USA", "types": ["museum", "establishment"]}]}, "phone": "202-762-1562", "contact": "George H. Kaplan", "location": "NASA Goddard Space Flight Center, Greenbelt, MD, USA", "address": "U.S. Naval Observatory, 3450 Massachusetts Avenue NW, Washington, DC, Zip Code:       20392-5420", "keywords": "Washington, Baltimore, Maryland, Virginia", "ingested": "Mar 16, 2000 12:00:00 AM", "email": "gkaplan@usno.navy.mil"}, {"web": "http://www.noao.edu/usgp/ao_workshop.html", "fax": "(520) 318-8360", "bibCode": "", "end": "2001-02-27", "title": "NOAO Workshop on the Reduction of Gemini AO Data", "meetingNumber": "826", "modified": "Nov 30, 2000 12:00:00 AM", "start": "2001-02-26", "phone": "(520) 318-8290", "contact": "Dr. Tod R. Lauer", "location": "Tucson, AZ", "address": "National Optical Astronomy Observatory, P.O. Box 26732, Tucson, AZ, 85726-6732", "keywords": "adaptive optics, image processing, data analysis", "ingested": "Nov 30, 2000 12:00:00 AM", "email": "tlauer@noao.edu"}, {"web": "", "fax": "+52 (4) 732-0253", "bibCode": "", "end": "2001-03-10", "title": "IAU Symposium No. 206 : Cosmic Masers: from protostars to blackholes", "meetingNumber": "794", "modified": "Jun 10, 2009 12:00:00 AM", "start": "2001-03-05", "phone": "+52 (4) 732-9607", "contact": " Dr. Victor Migenes", "location": "Angra dos Reis in Rio the Janeiro, Brazil", "address": "University of Guanajuato, Dept. of Astronomy, Apto Poastal 144, Guanajuato, Guanajuato , CP36000, MEXICO", "keywords": "Masers, star forming regions, late-type stars, AGN", "ingested": "Oct 06, 2000 12:00:00 AM", "email": "vmigenes@astro.ugto.mx"}, {"web": "http://www.astro.isas.ac.jp/conference/newcentx/", "fax": "81-42-759-8455", "bibCode": "2001ncxa.conf.....I", "end": "2001-03-08", "title": "New Century of X-ray Astronomy", "meetingNumber": "740", "modified": "Aug 11, 2003 12:00:00 AM", "start": "2001-03-06", "phone": "", "contact": "Hideyo Kunieda", "location": "Yokohama, Japan", "address": "Institute of Space and Astronautical Science, 3-1-1 Yoshinodai,, Sagamihara,, Kanagawa, Japan, 229-8510", "keywords": "Chnadra, Newton, ASCA, SAX, XTE, Future prospects", "ingested": "May 30, 2000 12:00:00 AM", "email": "newcentx@astro.isas.ac.jp"}, {"web": "", "fax": "+ 41 31 631 44 05", "bibCode": "2001sgc..conf.....W", "end": "2001-03-09", "title": "Joint SOHO-ACE workshop on Solar and Galactic Composition", "meetingNumber": "732", "modified": "Jun 10, 2009 12:00:00 AM", "start": "2001-03-06", "GoogleMapsResponse": {"status": "OK", "results": [{"geometry": {"location": {"lat": 46.9513468, "lng": 7.4384567}, "viewport": {"northeast": {"lat": 46.9526957802915, "lng": 7.439805680291502}, "southwest": {"lat": 46.9499978197085, "lng": 7.437107719708497}}, "location_type": "APPROXIMATE"}, "address_components": [{"long_name": "Physikalisches Institut", "types": ["point_of_interest", "establishment"], "short_name": "Physikalisches Institut"}, {"long_name": "University of Bern", "types": ["establishment"], "short_name": "University of Bern"}, {"long_name": "5", "types": ["street_number"], "short_name": "5"}, {"long_name": "Sidlerstrasse", "types": ["route"], "short_name": "Sidlerstrasse"}, {"long_name": "L\u00e4nggasse", "types": ["sublocality", "political"], "short_name": "L\u00e4nggasse"}, {"long_name": "L\u00e4nggasse-Felsenau", "types": ["sublocality", "political"], "short_name": "L\u00e4nggasse-Felsenau"}, {"long_name": "Berne", "types": ["locality", "political"], "short_name": "Berne"}, {"long_name": "Bern District", "types": ["administrative_area_level_2", "political"], "short_name": "Bern District"}, {"long_name": "Canton of Bern", "types": ["administrative_area_level_1", "political"], "short_name": "BE"}, {"long_name": "Switzerland", "types": ["country", "political"], "short_name": "CH"}, {"long_name": "3012", "types": ["postal_code"], "short_name": "3012"}], "partial_match": true, "formatted_address": "Physikalisches Institut, University of Bern, Sidlerstrasse 5, 3012 Berne, Switzerland", "types": ["university", "point_of_interest", "establishment"]}]}, "phone": "+ 41 31 631 44 20", "contact": "Robert F. Wimmer-Schweingruber", "location": "Physikalisches Institut, University of Bern, Switzerland", "address": "Physikalisches Institut, Univeresity of Bern, Sidlerstrasse 5, Bern, Switzerland, CH-3012", "keywords": "composition, solar, interstellar, galactic, meteorites,corona, SEPs, solar wind, stellar winds and atmospheres", "ingested": "May 15, 2000 12:00:00 AM", "email": "wimmer@phim.unibe.ch"}, {"web": "", "fax": " 301-286-1752", "bibCode": "2002moag.conf.....C", "end": "2001-03-10", "title": "Mass Outflow in Active Galactic Nuclei:New Perspectives", "meetingNumber": "721", "modified": "Aug 11, 2003 12:00:00 AM", "start": "2001-03-08", "GoogleMapsResponse": {"status": "OK", "results": [{"geometry": {"location_type": "APPROXIMATE", "bounds": {"northeast": {"lat": 38.9472017, "lng": -76.9953491}, "southwest": {"lat": 38.9289745, "lng": -77.0048606}}, "viewport": {"northeast": {"lat": 38.9472017, "lng": -76.9953491}, "southwest": {"lat": 38.9289745, "lng": -77.0048606}}, "location": {"lat": 38.9368811, "lng": -76.99869199999999}}, "address_components": [{"long_name": "The Catholic University of America", "types": ["establishment"], "short_name": "The Catholic University of America"}, {"long_name": "620", "types": ["street_number"], "short_name": "620"}, {"long_name": "Michigan Avenue Northeast", "types": ["route"], "short_name": "Michigan Avenue Northeast"}, {"long_name": "Washington", "types": ["locality", "political"], "short_name": "Washington"}, {"long_name": "District of Columbia", "types": ["administrative_area_level_1", "political"], "short_name": "DC"}, {"long_name": "United States", "types": ["country", "political"], "short_name": "US"}, {"long_name": "20064", "types": ["postal_code"], "short_name": "20064"}], "formatted_address": "The Catholic University of America, 620 Michigan Avenue Northeast, Washington, DC 20064, USA", "types": ["university", "establishment"]}]}, "phone": "301-286-0871", "contact": "Mike Crenshaw", "location": "The Catholic University of America, Washington, DC", "address": "Catholic University of America, 200 Hannan Hall, Washington, DC, 20064", "keywords": "active galaxies,quasars", "ingested": "Apr 20, 2000 12:00:00 AM", "email": "crenshaw@buckeye.gsfc.nasa.gov"}, {"web": "", "fax": "+33-1-69-08-65-77", "bibCode": "2001cghr.conf.....N", "end": "2001-01-17", "title": "Clusters and the High-Redshift Universe observed in X-rays", "meetingNumber": "818", "modified": "Jun 10, 2009 12:00:00 AM", "start": "2001-03-10", "GoogleMapsResponse": {"status": "OK", "results": [{"geometry": {"location_type": "APPROXIMATE", "bounds": {"northeast": {"lat": 43.501788, "lng": 6.538443099999999}, "southwest": {"lat": 43.40484499999999, "lng": 6.4338681}}, "viewport": {"northeast": {"lat": 43.501788, "lng": 6.538443099999999}, "southwest": {"lat": 43.40484499999999, "lng": 6.4338681}}, "location": {"lat": 43.462876, "lng": 6.478446000000001}}, "address_components": [{"long_name": "Les Arcs", "types": ["locality", "political"], "short_name": "Les Arcs"}, {"long_name": "Var", "types": ["administrative_area_level_2", "political"], "short_name": "83"}, {"long_name": "Provence-Alpes-C\u00f4te d'Azur", "types": ["administrative_area_level_1", "political"], "short_name": "PACA"}, {"long_name": "France", "types": ["country", "political"], "short_name": "FR"}], "formatted_address": "Les Arcs, France", "types": ["locality", "political"]}]}, "phone": "+33-1-69-08-22-66", "contact": "Doris M. Neumann", "location": "Les Arcs, France", "address": "CEA Saclay, L'Orme des Merisiers bat.709, Gif-sur-Yvette, FRANCE, 91191", "keywords": "Clusters of Galaxies", "ingested": "Nov 13, 2000 12:00:00 AM", "email": "ddon@cea.fr"}, {"web": "http://www.lpi.usra.edu/meetings/lpsc2001/", "fax": "281-486-2160", "bibCode": "2001LPI....32......", "end": "2001-03-16", "title": "32nd Lunar and Planetary Science Conference", "meetingNumber": "779", "modified": "Aug 11, 2003 12:00:00 AM", "start": "2001-03-12", "GoogleMapsResponse": {"status": "OK", "results": [{"geometry": {"location_type": "GEOMETRIC_CENTER", "bounds": {"northeast": {"lat": 29.5755173, "lng": -95.0750703}, "southwest": {"lat": 29.5582265, "lng": -95.09438999999999}}, "viewport": {"northeast": {"lat": 29.5755173, "lng": -95.0750703}, "southwest": {"lat": 29.5582265, "lng": -95.09438999999999}}, "location": {"lat": 29.5677745, "lng": -95.08105359999999}}, "address_components": [{"long_name": "Space Center Boulevard", "types": ["route"], "short_name": "Space Center Blvd"}, {"long_name": "Harris County", "types": ["administrative_area_level_2", "political"], "short_name": "Harris County"}, {"long_name": "Texas", "types": ["administrative_area_level_1", "political"], "short_name": "TX"}, {"long_name": "United States", "types": ["country", "political"], "short_name": "US"}], "partial_match": true, "formatted_address": "Space Center Boulevard, TX, USA", "types": ["route"]}, {"geometry": {"location": {"lat": 29.562222, "lng": -95.09083299999999}, "viewport": {"northeast": {"lat": 29.5635709802915, "lng": -95.08948401970848}, "southwest": {"lat": 29.5608730197085, "lng": -95.09218198029149}}, "location_type": "APPROXIMATE"}, "address_components": [{"long_name": "Johnson Space Center Heliport", "types": ["point_of_interest", "establishment"], "short_name": "Johnson Space Center Heliport"}, {"long_name": "Lyndon B. Johnson Space Center", "types": ["establishment"], "short_name": "Lyndon B. Johnson Space Center"}, {"long_name": "Clear Lake", "types": ["neighborhood", "political"], "short_name": "Clear Lake"}, {"long_name": "Houston", "types": ["locality", "political"], "short_name": "Houston"}, {"long_name": "Harris County", "types": ["administrative_area_level_2", "political"], "short_name": "Harris County"}, {"long_name": "Texas", "types": ["administrative_area_level_1", "political"], "short_name": "TX"}, {"long_name": "United States", "types": ["country", "political"], "short_name": "US"}, {"long_name": "77058", "types": ["postal_code"], "short_name": "77058"}], "partial_match": true, "formatted_address": "Johnson Space Center Heliport, Lyndon B. Johnson Space Center, Houston, TX 77058, USA", "types": ["airport", "transit_station", "point_of_interest", "establishment"]}, {"geometry": {"location_type": "GEOMETRIC_CENTER", "bounds": {"northeast": {"lat": 29.5756664, "lng": -95.07978849999999}, "southwest": {"lat": 29.5653774, "lng": -95.0942419}}, "viewport": {"northeast": {"lat": 29.5756664, "lng": -95.07978849999999}, "southwest": {"lat": 29.5653774, "lng": -95.0942419}}, "location": {"lat": 29.5726408, "lng": -95.08528989999999}}, "address_components": [{"long_name": "Space Center Blvd Bike Path", "types": ["route"], "short_name": "Space Center Blvd Bike Path"}, {"long_name": "Clear Lake", "types": ["neighborhood", "political"], "short_name": "Clear Lake"}, {"long_name": "Houston", "types": ["locality", "political"], "short_name": "Houston"}, {"long_name": "Harris County", "types": ["administrative_area_level_2", "political"], "short_name": "Harris County"}, {"long_name": "Texas", "types": ["administrative_area_level_1", "political"], "short_name": "TX"}, {"long_name": "United States", "types": ["country", "political"], "short_name": "US"}, {"long_name": "77058", "types": ["postal_code"], "short_name": "77058"}], "partial_match": true, "formatted_address": "Space Center Blvd Bike Path, Houston, TX 77058, USA", "types": ["route"]}]}, "phone": "281-486-2158", "contact": "LeBecca Simmons", "location": "NASA Johnson Space Center, Houston, Texas, U.S.A.", "address": "Lunar and Planetary Institute, 3600 Bay Area Boulevard, Houston, TX, 77058", "keywords": "", "ingested": "Sep 19, 2000 12:00:00 AM", "email": "simmons@lpi.usra.edu"}, {"web": "", "fax": "+49 6221 528 246", "bibCode": "2002IAUS..207.....G", "end": "2001-03-16", "title": "IAU Symposium 207: Extragalactic Star Clusters \r\n\r\n", "meetingNumber": "695", "modified": "Aug 11, 2003 12:00:00 AM", "start": "2001-03-12", "GoogleMapsResponse": {"status": "OK", "results": [{"geometry": {"location_type": "APPROXIMATE", "bounds": {"northeast": {"lat": -38.9974138, "lng": -71.5032299}, "southwest": {"lat": -39.50026920000001, "lng": -72.074259}}, "viewport": {"northeast": {"lat": -38.9974138, "lng": -71.5032299}, "southwest": {"lat": -39.50026920000001, "lng": -72.074259}}, "location": {"lat": -39.272254, "lng": -71.977629}}, "address_components": [{"long_name": "Puc\u00f3n", "types": ["locality", "political"], "short_name": "Puc\u00f3n"}, {"long_name": "Puc\u00f3n", "types": ["administrative_area_level_3", "political"], "short_name": "Puc\u00f3n"}, {"long_name": "Caut\u00edn Province", "types": ["administrative_area_level_2", "political"], "short_name": "Caut\u00edn Province"}, {"long_name": "Araucania", "types": ["administrative_area_level_1", "political"], "short_name": "Araucania"}, {"long_name": "Chile", "types": ["country", "political"], "short_name": "CL"}], "partial_match": true, "formatted_address": "Puc\u00f3n, Araucan\u00eda Region, Chile", "types": ["locality", "political"]}]}, "phone": "+49 6221 528 225", "contact": "Eva K. Grebel", "location": "Hotel del Lago, Pucon, Chile", "address": "Max Planck Institute for Astronomy , Koenigstuhl 17, Heidelberg, Germany, D-69117", "keywords": "Globular clusters, open clusters, associations", "ingested": "Feb 29, 2000 12:00:00 AM", "email": "starclus@mpia-hd.mpg.de"}, {"web": "", "fax": "94 1 586499", "bibCode": "", "end": "2001-03-24", "title": "Sri Lankan Skies and Sir Arthur", "meetingNumber": "820", "modified": "Jun 10, 2009 12:00:00 AM", "start": "2001-03-19", "GoogleMapsResponse": {"status": "OK", "results": [{"geometry": {"location_type": "APPROXIMATE", "bounds": {"northeast": {"lat": 9.836001, "lng": 81.8787029}, "southwest": {"lat": 5.9190779, "lng": 79.5219827}}, "viewport": {"northeast": {"lat": 9.836001, "lng": 81.8787029}, "southwest": {"lat": 5.9190779, "lng": 79.5219827}}, "location": {"lat": 7.873053999999999, "lng": 80.77179699999999}}, "address_components": [{"long_name": "Sri Lanka", "types": ["country", "political"], "short_name": "LK"}], "formatted_address": "Sri Lanka", "types": ["country", "political"]}]}, "phone": "94 1 586499", "contact": "Director T.C.Samaranayaka", "location": "Sri Lanka", "address": "Sri Lanka Planetarium, Stanley Wijesundara mawatha, Colombo 7, Western, 007000", "keywords": "Teaching the Universe in the 21st century", "ingested": "Nov 14, 2000 12:00:00 AM", "email": "planetsam2001@yahoo.com"}, {"web": "http://www.inaoep.mx/~costa01/", "fax": "+52 2 2472231", "bibCode": " 2002ASSL..274.....C", "end": "2001-03-30", "title": "New Quests in Stellar Astrophysics: The link between Stars and Cosmology\r\n", "meetingNumber": "793", "modified": "Jul 08, 2009 12:00:00 AM", "start": "2001-03-26", "GoogleMapsResponse": {"status": "OK", "results": [{"geometry": {"location_type": "APPROXIMATE", "bounds": {"northeast": {"lat": 20.6995918, "lng": -105.1786187}, "southwest": {"lat": 20.5814443, "lng": -105.2708258}}, "viewport": {"northeast": {"lat": 20.6995918, "lng": -105.1786187}, "southwest": {"lat": 20.5814443, "lng": -105.2708258}}, "location": {"lat": 20.615845, "lng": -105.230256}}, "address_components": [{"long_name": "Puerto Vallarta", "types": ["locality", "political"], "short_name": "Puerto Vallarta"}, {"long_name": "Jalisco", "types": ["administrative_area_level_1", "political"], "short_name": "JAL"}, {"long_name": "Mexico", "types": ["country", "political"], "short_name": "MX"}], "formatted_address": "Puerto Vallarta, JAL, Mexico", "types": ["locality", "political"]}]}, "phone": "+52 2 2663100, +52 2 2472011", "contact": "Dr. Miguel Chavez", "location": "Puerto Vallarta, Mexico", "address": "INAOE, Luis Enrique Erro 1 / A.P. 51, 216 ., Tonantzintla, Puebla, Mexico., 72840", "keywords": "cosmology: distance scale,cosmology: early universe, stars: abundances, stars: atmospheres, stars: distances, stars: variables: Cepheids", "ingested": "Sep 29, 2000 12:00:00 AM", "email": " costa01@inaoep.mx"}, {"web": "", "fax": "510 642 3411", "bibCode": "2001ysne.conf.....J", "end": "2001-03-30", "title": "Young Stars Near Earth: Progress and Prospects", "meetingNumber": "787", "modified": "Aug 11, 2003 12:00:00 AM", "start": "2001-03-28", "GoogleMapsResponse": {"status": "OK", "results": [{"geometry": {"location_type": "GEOMETRIC_CENTER", "bounds": {"northeast": {"lat": 37.4280593, "lng": -122.0575685}, "southwest": {"lat": 37.4188622, "lng": -122.0681259}}, "viewport": {"northeast": {"lat": 37.4280593, "lng": -122.0575685}, "southwest": {"lat": 37.4188622, "lng": -122.0681259}}, "location": {"lat": 37.42718130000001, "lng": -122.0619054}}, "address_components": [{"long_name": "NASA Ames Research Center Boundary", "types": ["route"], "short_name": "NASA Ames Research Center Boundary"}, {"long_name": "Mountain View", "types": ["locality", "political"], "short_name": "Mountain View"}, {"long_name": "Santa Clara County", "types": ["administrative_area_level_2", "political"], "short_name": "Santa Clara County"}, {"long_name": "California", "types": ["administrative_area_level_1", "political"], "short_name": "CA"}, {"long_name": "United States", "types": ["country", "political"], "short_name": "US"}, {"long_name": "94043", "types": ["postal_code"], "short_name": "94043"}], "partial_match": true, "formatted_address": "NASA Ames Research Center Boundary, Mountain View, CA 94043, USA", "types": ["route"]}]}, "phone": " 510 642 3958", "contact": "Ray Jayawardhana", "location": "NASA Ames Research Center, Mountain View, CA", "address": "University of California, Berkeley, 601 Campbell Hall, Berkeley, CA, 94720", "keywords": "star formation, planet formation,star formation, planet formation,", "ingested": "Sep 25, 2000 12:00:00 AM", "email": "rayjay@astro.berkeley.edu"}, {"web": "http://obswww.unige.ch/saas-fee/", "fax": "", "bibCode": "", "end": "2001-04-07", "title": "Brown Dwarfs and planets", "meetingNumber": "716", "modified": "Oct 17, 2000 12:00:00 AM", "start": "2001-04-02", "GoogleMapsResponse": {"status": "OK", "results": [{"geometry": {"location_type": "APPROXIMATE", "bounds": {"northeast": {"lat": 46.19515, "lng": 7.6120501}, "southwest": {"lat": 46.05462989999999, "lng": 7.5152001}}, "viewport": {"northeast": {"lat": 46.19515, "lng": 7.6120501}, "southwest": {"lat": 46.05462989999999, "lng": 7.5152001}}, "location": {"lat": 46.180878, "lng": 7.5757749}}, "address_components": [{"long_name": "Grimentz", "types": ["locality", "political"], "short_name": "Grimentz"}, {"long_name": "Sierre", "types": ["administrative_area_level_2", "political"], "short_name": "Sierre"}, {"long_name": "Valais", "types": ["administrative_area_level_1", "political"], "short_name": "VS"}, {"long_name": "Switzerland", "types": ["country", "political"], "short_name": "CH"}], "formatted_address": "Grimentz, Switzerland", "types": ["locality", "political"]}]}, "phone": "", "contact": "Didier Queloz", "location": "Grimentz, Switzerland", "address": "Geneva Observatory, Sauverny, Switzerland, 1290", "keywords": "brown dwarfs, extra-solar planets, interferometry", "ingested": "Apr 11, 2000 12:00:00 AM", "email": "saas-fee@obs.unige.ch"}, {"web": "", "fax": "410-338-4485", "bibCode": "", "end": "2001-04-05", "title": "The Dark Universe:  Matter, Energy and Gravity", "meetingNumber": "795", "modified": "Jun 10, 2009 12:00:00 AM", "start": "2001-04-02", "GoogleMapsResponse": {"status": "OK", "results": [{"geometry": {"location_type": "APPROXIMATE", "bounds": {"northeast": {"lat": 39.3331337, "lng": -76.6227219}, "southwest": {"lat": 39.3323192, "lng": -76.6238451}}, "viewport": {"northeast": {"lat": 39.3340754302915, "lng": -76.6219345197085}, "southwest": {"lat": 39.33137746970851, "lng": -76.62463248029151}}, "location": {"lat": 39.3327755, "lng": -76.6233337}}, "address_components": [{"long_name": "Steven Muller Building Space Telescope Science Institute", "types": ["premise"], "short_name": "Steven Muller Bldg Space Telescope Science Institute"}, {"long_name": "Johns-Hopkins - Homewood", "types": ["neighborhood", "political"], "short_name": "Johns-Hopkins - Homewood"}, {"long_name": "Baltimore", "types": ["locality", "political"], "short_name": "Baltimore"}, {"long_name": "Maryland", "types": ["administrative_area_level_1", "political"], "short_name": "MD"}, {"long_name": "United States", "types": ["country", "political"], "short_name": "US"}, {"long_name": "21210", "types": ["postal_code"], "short_name": "21210"}], "partial_match": true, "formatted_address": "Steven Muller Building Space Telescope Science Institute, Baltimore, MD 21210, USA", "types": ["premise"]}]}, "phone": "410-338-4970", "contact": "Space Telescope Science Institute, Baltimore, Maryland", "location": "Space Telescope Science Institute, Baltimore, Maryland", "address": "Space Telescope Science Institute, 3700 San Martin Drive, Baltimore, Maryland, 21218", "keywords": "", "ingested": "Oct 06, 2000 12:00:00 AM", "email": "gryce@stsci.edu"}, {"web": "", "fax": "49 5556 4709", "bibCode": "", "end": "2001-04-06", "title": "European Geophysical Society XXVI General Assembly", "meetingNumber": "761", "modified": "Jun 26, 2000 12:00:00 AM", "start": "2001-04-02", "phone": "49 5556 1440", "contact": "EGS Office", "location": "Vienna, Austria", "address": "Max-Planck-Str. 13, D-37191 Katlenburg-Lindau, Germany", "keywords": "", "ingested": "Jun 26, 2000 12:00:00 AM", "email": "EGS@COPERNICUS.ORG"}, {"web": "http://www.aip.de/groups/DIVA/", "fax": "+49-6221-405-297", "bibCode": "", "end": "2001-04-05", "title": "1st DIVA Thinkshop: The Scientific Data Processing for DIVA", "meetingNumber": "876", "modified": "Feb 23, 2001 12:00:00 AM", "start": "2001-04-03", "phone": "+49-6221-405-125", "contact": "W. Hofmann, K.S. de Boer, W. Pitz, S. Roser", "location": "Heidelberg, Germany", "address": "Astronomisches Recheninstitut (ARI), Monchhofstr. 12, Heidelberg, Germany, 69120", "keywords": "DIVA, Interferometry, Photometry, Astrometry", "ingested": "Feb 23, 2001 12:00:00 AM", "email": "Hofmann@ari.uni-heidelberg.de"}, {"web": "http://solarscience.msfc.nasa.gov/", "fax": "(256) 961-7216", "bibCode": "", "end": "2001-04-05", "title": "High-Resolution Solar Magnetography from Space: Beyond Solar-B\r\n\r\n", "meetingNumber": "871", "modified": "Jun 10, 2009 12:00:00 AM", "start": "2001-04-03", "phone": "(256) 961-7613", "contact": "Ron Moore", "location": "National Space Science and Technology Center, Universtity of Alabama in Huntsvil", "address": "Marshall Space Flight Center, Space Science Department/SD50, Huntsville, Alabama, 35812", "keywords": " sun, magnetic field, solar atmosphere, solar activity", "ingested": "Feb 14, 2001 12:00:00 AM", "email": "ron.moore@msfc.nasa.gov"}, {"web": "", "fax": "626-795-8136", "bibCode": "2002eglr.conf.....M", "end": "2001-04-06", "title": "Extragalactic Gas at Low Redshift", "meetingNumber": "788", "modified": "Jun 10, 2009 12:00:00 AM", "start": "2001-04-04", "phone": "626-304-0257", "contact": "Dr. John S. Mulchaey", "location": "Pasadena, California", "address": "Carnegie Observatories, 813 Santa Barbara St., Pasadena, CA, 91101", "keywords": "QSO absorbers,  High Velocity Clouds", "ingested": "Sep 25, 2000 12:00:00 AM", "email": "mulchaey@ociw.edu"}, {"web": "", "fax": "301-286-1684", "bibCode": "", "end": "2001-04-06", "title": "Sixth Compton Symposium On Gamma Ray Astrophysics 2001", "meetingNumber": "641", "modified": "Jun 10, 2009 12:00:00 AM", "start": "2001-04-04", "phone": "301-286-7780", "contact": "Sandra L. Barnes", "location": "Baltimore, MD", "address": "NASA Goddard Space Flight Center, Code 660, NASA/GSFC, Greenbelt, MD, 20771", "keywords": "gamma-rays, high-energy astrophysics", "ingested": "Dec 13, 1999 12:00:00 AM", "email": "barnes@grossc.gsfc.nasa.gov"}, {"web": "http://www.physics.unc.edu/PASCOS2001/", "fax": "(919) 962 0480", "bibCode": "", "end": "2001-04-15", "title": "PASCOS 2001", "meetingNumber": "841", "modified": "Dec 27, 2000 12:00:00 AM", "start": "2001-04-10", "GoogleMapsResponse": {"status": "OK", "results": [{"geometry": {"location_type": "APPROXIMATE", "bounds": {"northeast": {"lat": 35.972366, "lng": -78.9954109}, "southwest": {"lat": 35.869552, "lng": -79.083171}}, "viewport": {"northeast": {"lat": 35.972366, "lng": -78.9954109}, "southwest": {"lat": 35.869552, "lng": -79.083171}}, "location": {"lat": 35.9131996, "lng": -79.0558445}}, "address_components": [{"long_name": "Chapel Hill", "types": ["locality", "political"], "short_name": "Chapel Hill"}, {"long_name": "Chapel Hill", "types": ["administrative_area_level_3", "political"], "short_name": "Chapel Hill"}, {"long_name": "Orange County", "types": ["administrative_area_level_2", "political"], "short_name": "Orange County"}, {"long_name": "North Carolina", "types": ["administrative_area_level_1", "political"], "short_name": "NC"}, {"long_name": "United States", "types": ["country", "political"], "short_name": "US"}], "formatted_address": "Chapel Hill, NC, USA", "types": ["locality", "political"]}]}, "phone": "(919) 962 7166", "contact": "Marie Englund", "location": "Chapel Hill, NC", "address": "UNC-Chapel Hill, Department of Physics and Astronomy, Chapel Hill, NC, 27599-3255", "keywords": "Particles, Strings, Cosmology", "ingested": "Dec 27, 2000 12:00:00 AM", "email": "PASCOS2001@physics.unc.edu"}, {"web": "http://www.inr.ac.ru/~school/", "fax": "+007 (095) 135 22 68", "bibCode": "", "end": "2001-04-24", "title": "XIth. International School on Particles and Cosmology", "meetingNumber": "867", "modified": "Feb 12, 2001 12:00:00 AM", "start": "2001-04-18", "GoogleMapsResponse": {"status": "OK", "results": [{"geometry": {"location_type": "APPROXIMATE", "bounds": {"northeast": {"lat": 44.022814, "lng": 44.4705508}, "southwest": {"lat": 42.889616, "lng": 42.3981202}}, "viewport": {"northeast": {"lat": 44.022814, "lng": 44.4705508}, "southwest": {"lat": 42.889616, "lng": 42.3981202}}, "location": {"lat": 43.3932469, "lng": 43.5628498}}, "address_components": [{"long_name": "Kabardino-Balkaria", "types": ["administrative_area_level_1", "political"], "short_name": "Kabardino-Balkaria"}, {"long_name": "Russia", "types": ["country", "political"], "short_name": "RU"}], "partial_match": true, "formatted_address": "Kabardino-Balkaria, Russia", "types": ["administrative_area_level_1", "political"]}]}, "phone": "+007 (095) 135 20 51", "contact": "Dr. Khazret S. Nirov", "location": "Baksan Valley, Kabardino-Balkaria, Russian Federation", "address": "Institute for Nuclear Research of the Russian Academy of Sciences 60th. October Anniversary Prospect, 7a, 117312 Moscow, Russian Federation 117312", "keywords": "physics, cosmology, neutrino, dark matter, astrophysics, gravitational waves", "ingested": "Feb 12, 2001 12:00:00 AM", "email": "nivov@ms2.inr.ac.ru, school@ms2.inr.ac.ru"}, {"web": "", "fax": " 353 91 750501", "bibCode": "", "end": "2001-04-19", "title": "The First Galway Workshop on High Time Resolution Astrophysics", "meetingNumber": "822", "modified": "Jun 10, 2009 12:00:00 AM", "start": "2001-04-18", "GoogleMapsResponse": {"status": "OK", "results": [{"geometry": {"location": {"lat": 53.2785391, "lng": -9.0604591}, "viewport": {"northeast": {"lat": 53.2798880802915, "lng": -9.059110119708498}, "southwest": {"lat": 53.2771901197085, "lng": -9.0618080802915}}, "location_type": "APPROXIMATE"}, "address_components": [{"long_name": "National University of Ireland", "types": ["point_of_interest", "establishment"], "short_name": "National University of Ireland"}, {"long_name": "University Road", "types": ["route"], "short_name": "University Road"}, {"long_name": "Galway City", "types": ["administrative_area_level_2", "political"], "short_name": "Galway City"}, {"long_name": "Galway", "types": ["administrative_area_level_1", "political"], "short_name": "Galway"}, {"long_name": "Ireland", "types": ["country", "political"], "short_name": "IE"}, {"long_name": "Galway", "types": ["postal_town"], "short_name": "Galway"}], "formatted_address": "National University of Ireland, University Road, Galway, Ireland", "types": ["university", "point_of_interest", "establishment"]}]}, "phone": "353 91 524411 x3114", "contact": "Dr Andy Shearer", "location": " National University of Ireland, Galway,Galway City, Ireland", "address": "National University of Ireland, Galway, Newcastle Road, Galway", "keywords": "high time resolution astrophysics", "ingested": "Nov 16, 2000 12:00:00 AM", "email": "htra@itc.nuigalway.ie"}, {"web": "http://www.lpi.usra.edu/meetings/dda2001", "fax": "", "bibCode": "", "end": "2001-04-25", "title": "Division for Dynamical Astronomy", "meetingNumber": "800", "modified": "Oct 16, 2000 12:00:00 AM", "start": "2001-04-22", "GoogleMapsResponse": {"status": "OK", "results": [{"geometry": {"location_type": "APPROXIMATE", "bounds": {"northeast": {"lat": 30.1107319, "lng": -95.014496}, "southwest": {"lat": 29.523624, "lng": -95.78808690000001}}, "viewport": {"northeast": {"lat": 30.1107319, "lng": -95.014496}, "southwest": {"lat": 29.523624, "lng": -95.78808690000001}}, "location": {"lat": 29.7601927, "lng": -95.36938959999999}}, "address_components": [{"long_name": "Houston", "types": ["locality", "political"], "short_name": "Houston"}, {"long_name": "Harris County", "types": ["administrative_area_level_2", "political"], "short_name": "Harris County"}, {"long_name": "Texas", "types": ["administrative_area_level_1", "political"], "short_name": "TX"}, {"long_name": "United States", "types": ["country", "political"], "short_name": "US"}], "formatted_address": "Houston, TX, USA", "types": ["locality", "political"]}]}, "phone": "", "contact": "Joe Hahn", "location": "Houston, TX", "address": "", "keywords": "", "ingested": "Oct 16, 2000 12:00:00 AM", "email": "hahn@lpi.jsc.nasa.gov"}, {"web": "http://www.obspm.fr/euroconferences", "fax": "33 - 1 45 07 78 72", "bibCode": "", "end": "2001-04-27", "title": "Hypersonic and Aerothermic Flows and Shocks, and Lasers", "meetingNumber": "877", "modified": "Feb 27, 2001 12:00:00 AM", "start": "2001-04-23", "GoogleMapsResponse": {"status": "OK", "results": [{"geometry": {"location_type": "GEOMETRIC_CENTER", "bounds": {"northeast": {"lat": 48.813298, "lng": 2.2283614}, "southwest": {"lat": 48.8119434, "lng": 2.2258528}}, "viewport": {"northeast": {"lat": 48.81396968029151, "lng": 2.228456080291501}, "southwest": {"lat": 48.81127171970851, "lng": 2.225758119708498}}, "location": {"lat": 48.8122461, "lng": 2.2273909}}, "address_components": [{"long_name": "R\u00e9sidence de l'Observatoire", "types": ["route"], "short_name": "R\u00e9sidence de l'Observatoire"}, {"long_name": "Meudon", "types": ["locality", "political"], "short_name": "Meudon"}, {"long_name": "Hauts-de-Seine", "types": ["administrative_area_level_2", "political"], "short_name": "92"}, {"long_name": "\u00cele-de-France", "types": ["administrative_area_level_1", "political"], "short_name": "IDF"}, {"long_name": "France", "types": ["country", "political"], "short_name": "FR"}, {"long_name": "92190", "types": ["postal_code"], "short_name": "92190"}], "partial_match": true, "formatted_address": "R\u00e9sidence de l'Observatoire, 92190 Meudon, France", "types": ["route"]}]}, "phone": "33 - 1 45 07 78 58", "contact": "Jean-Pierre J. Lafon", "location": "Observatoire de Paris [Meudon]", "address": "Observatoire de Paris - DASGAL, 92195 Meudon Cedex, France", "keywords": "circumstellar media, plasma, hydrodynamics, radiation", "ingested": "Feb 27, 2001 12:00:00 AM", "email": "euro.conf@obspm.fr"}, {"web": "http://www.eso.org/starplanet2001", "fax": "+49-89-3200-6480", "bibCode": "2002osp..conf.....A", "end": "2001-04-27", "title": "The Origin of Stars and Planets: The VLT View", "meetingNumber": "628", "modified": "Aug 11, 2003 12:00:00 AM", "start": "2001-04-24", "GoogleMapsResponse": {"status": "OK", "results": [{"geometry": {"location_type": "APPROXIMATE", "bounds": {"northeast": {"lat": 48.2732261, "lng": 11.6851891}, "southwest": {"lat": 48.2167624, "lng": 11.5971975}}, "viewport": {"northeast": {"lat": 48.2732261, "lng": 11.6851891}, "southwest": {"lat": 48.2167624, "lng": 11.5971975}}, "location": {"lat": 48.2488721, "lng": 11.6532477}}, "address_components": [{"long_name": "Garching", "types": ["locality", "political"], "short_name": "Garching"}, {"long_name": "Munich", "types": ["administrative_area_level_3", "political"], "short_name": "M"}, {"long_name": "Upper Bavaria", "types": ["administrative_area_level_2", "political"], "short_name": "Upper Bavaria"}, {"long_name": "Bavaria", "types": ["administrative_area_level_1", "political"], "short_name": "BY"}, {"long_name": "Germany", "types": ["country", "political"], "short_name": "DE"}], "partial_match": true, "formatted_address": "Garching, Germany", "types": ["locality", "political"]}]}, "phone": "+49-89-3200-6503", "contact": "Joao Alves", "location": "Garching near Munich, Germany", "address": "European Southern Observatory, Karl-Schwarzschild-Str. 2, D-85748 Garching bei Munchen, Germany", "keywords": "Star Formation, Planet Formation,Very Large Telescope (VLT)", "ingested": "Nov 15, 1999 12:00:00 AM", "email": "jalves@eso.org"}, {"web": "", "fax": "33-1-40-51-20-02", "bibCode": "", "end": "2001-05-10", "title": "International school of cosmology and gravitation : the interplay between gravitation and quantum physics", "meetingNumber": "855", "modified": "Jan 25, 2001 12:00:00 AM", "start": "2001-04-30", "GoogleMapsResponse": {"status": "OK", "results": [{"geometry": {"location_type": "APPROXIMATE", "bounds": {"northeast": {"lat": 38.0418624, "lng": 12.5927808}, "southwest": {"lat": 38.0350335, "lng": 12.582947}}, "viewport": {"northeast": {"lat": 38.0418624, "lng": 12.5927808}, "southwest": {"lat": 38.0350335, "lng": 12.582947}}, "location": {"lat": 38.0380892, "lng": 12.5873511}}, "address_components": [{"long_name": "Erice", "types": ["locality", "political"], "short_name": "Erice"}, {"long_name": "Erice", "types": ["administrative_area_level_3", "political"], "short_name": "Erice"}, {"long_name": "Trapani", "types": ["administrative_area_level_2", "political"], "short_name": "TP"}, {"long_name": "Sicilia", "types": ["administrative_area_level_1", "political"], "short_name": "Sicilia"}, {"long_name": "Italy", "types": ["country", "political"], "short_name": "IT"}, {"long_name": "91016", "types": ["postal_code"], "short_name": "91016"}], "formatted_address": "91016 Erice Trapani, Italy", "types": ["locality", "political"]}]}, "phone": "33-1-40-51-22-21", "contact": "Norma Sanchez", "location": "Erice, Italy", "address": "International school of astrophysics d.chalonge", "keywords": "", "ingested": "Jan 25, 2001 12:00:00 AM", "email": "chalonge@mesiob.obspm.fr"}, {"web": "http://www.foothill.fhda.edu", "fax": "", "bibCode": "", "end": "2001-05-02", "title": "AAS Second Century Lecture by Vera Rubin: What's the Matter in the Universe ?", "meetingNumber": "847", "modified": "Jan 03, 2001 12:00:00 AM", "start": "2001-05-02", "phone": "", "contact": "", "location": "", "address": "", "keywords": "universe, aas", "ingested": "Jan 03, 2001 12:00:00 AM", "email": ""}, {"web": "", "fax": "+49-6159-712902", "bibCode": "", "end": "2001-05-04", "title": "International Symposium on Nuclear Astrophysics (NAP2001)", "meetingNumber": "866", "modified": "Jun 10, 2009 12:00:00 AM", "start": "2001-05-03", "GoogleMapsResponse": {"status": "OK", "results": [{"geometry": {"location_type": "APPROXIMATE", "bounds": {"northeast": {"lat": 49.9538799, "lng": 8.7497188}, "southwest": {"lat": 49.7956409, "lng": 8.5599238}}, "viewport": {"northeast": {"lat": 49.9538799, "lng": 8.7497188}, "southwest": {"lat": 49.7956409, "lng": 8.5599238}}, "location": {"lat": 49.8776483, "lng": 8.6517617}}, "address_components": [{"long_name": "Darmstadt", "types": ["locality", "political"], "short_name": "Darmstadt"}, {"long_name": "Darmstadt", "types": ["administrative_area_level_2", "political"], "short_name": "DA"}, {"long_name": "Hesse", "types": ["administrative_area_level_1", "political"], "short_name": "HE"}, {"long_name": "Germany", "types": ["country", "political"], "short_name": "DE"}], "partial_match": true, "formatted_address": "Darmstadt, Germany", "types": ["locality", "political"]}]}, "phone": "+49-6159-712733", "contact": "Prof. Gottfried Muenzenberg", "location": "GSI in Darmstadt, Germany", "address": "Prof. Gottfried Muenzenberg, Institution: GSI - Nuclear Physics II, Planckstrasse 1, Darmstadt, Germany, D-64291", "keywords": "nuclear astrophysics", "ingested": "Feb 12, 2001 12:00:00 AM", "email": "NAP2001@gsi.de"}, {"web": "", "fax": " (608)262-8628", "bibCode": "", "end": "2001-05-09", "title": "PHENO 2001 Symposium", "meetingNumber": "880", "modified": "Jun 10, 2009 12:00:00 AM", "start": "2001-05-07", "GoogleMapsResponse": {"status": "OK", "results": [{"geometry": {"location_type": "APPROXIMATE", "bounds": {"northeast": {"lat": 43.0928874, "lng": -89.3941332}, "southwest": {"lat": 43.0577091, "lng": -89.4459855}}, "viewport": {"northeast": {"lat": 43.0928874, "lng": -89.3941332}, "southwest": {"lat": 43.0663376, "lng": -89.4459855}}, "location": {"lat": 43.076592, "lng": -89.4124875}}, "address_components": [{"long_name": "University of Wisconsin-Madison", "types": ["establishment"], "short_name": "University of Wisconsin-Madison"}, {"long_name": "Madison", "types": ["locality", "political"], "short_name": "Madison"}, {"long_name": "Dane County", "types": ["administrative_area_level_2", "political"], "short_name": "Dane County"}, {"long_name": "WI", "types": ["administrative_area_level_1", "political"], "short_name": "WI"}, {"long_name": "United States", "types": ["country", "political"], "short_name": "US"}, {"long_name": "53706", "types": ["postal_code"], "short_name": "53706"}], "formatted_address": "University of Wisconsin-Madison, Madison, WI 53706", "types": ["university", "establishment"]}]}, "phone": "(608)262-4964", "contact": " Linda Dolan", "location": "University of Wisconsin, Madison", "address": "University of Wisconsin, Physics Department, 1150 University Ave., Madison, WI, 53706", "keywords": "particle physics, phenomenology, astrophysics, cosmology", "ingested": "Mar 02, 2001 12:00:00 AM", "email": "ldolan@pheno.physics.wisc.edu"}, {"web": "http://www.ing.iac.es/conferences/centralkpc/", "fax": "+34 922 425401", "bibCode": " 2002PASP..114..372K", "end": "2001-05-11", "title": "The central kpc of starbursts and AGNs: the La Palma connection", "meetingNumber": "775", "modified": "Jun 10, 2009 12:00:00 AM", "start": "2001-05-07", "GoogleMapsResponse": {"status": "OK", "results": [{"geometry": {"location_type": "APPROXIMATE", "bounds": {"northeast": {"lat": 28.8577197, "lng": -17.7242887}, "southwest": {"lat": 28.4527476, "lng": -18.0072234}}, "viewport": {"northeast": {"lat": 28.8577197, "lng": -17.7242887}, "southwest": {"lat": 28.4527476, "lng": -18.0072234}}, "location": {"lat": 28.7133828, "lng": -17.9057813}}, "address_components": [{"long_name": "La Palma", "types": ["natural_feature", "establishment"], "short_name": "La Palma"}, {"long_name": "Santa Cruz de Tenerife", "types": ["administrative_area_level_2", "political"], "short_name": "TF"}, {"long_name": "Canary Islands", "types": ["administrative_area_level_1", "political"], "short_name": "CN"}, {"long_name": "Spain", "types": ["country", "political"], "short_name": "ES"}], "formatted_address": "La Palma, Santa Cruz de Tenerife, Spain", "types": ["natural_feature", "establishment"]}, {"geometry": {"location_type": "APPROXIMATE", "bounds": {"northeast": {"lat": 28.8555593, "lng": -17.7266248}, "southwest": {"lat": 28.4533853, "lng": -18.0073158}}, "viewport": {"northeast": {"lat": 28.8555593, "lng": -17.7266248}, "southwest": {"lat": 28.4533853, "lng": -18.0073158}}, "location": {"lat": 28.7133828, "lng": -17.9057813}}, "address_components": [{"long_name": "La Palma", "types": ["natural_feature", "establishment"], "short_name": "La Palma"}, {"long_name": "Spain", "types": ["country", "political"], "short_name": "ES"}], "formatted_address": "La Palma, Spain", "types": ["natural_feature", "establishment"]}]}, "phone": "+34 922 425400", "contact": "Johan H. Knapen", "location": "La Palma, Canary Islands, Spain", "address": "Isaac Newton Group of Telescopes, Apartado 321, Santa Cruz de La Palma, SPAIN, E-38700", "keywords": " galaxy centres, starburst galaxies, ring galaxies, barred galaxies, active galaxies", "ingested": "Sep 12, 2000 12:00:00 AM", "email": "centralkpc@ing.iac.es"}, {"web": "", "fax": "", "bibCode": "", "end": "2001-05-12", "title": "Middle Atlantic Planetarium Society Conference", "meetingNumber": "848", "modified": "Jun 10, 2009 12:00:00 AM", "start": "2001-05-09", "phone": "412-237-3397", "contact": "James Hughes", "location": "Carnegie Science Center's Buhl Planetarium, Pittsburgh, PA", "address": "Henry Buhl, Jr. Planetarium & Observatory, One Allegheny Avenue, Pittsburgh, PA, 15212", "keywords": "planetarium,astronomy,education,pittsburgh", "ingested": "Jan 04, 2001 12:00:00 AM", "email": "hughesj@csc.clpgh.org"}, {"web": "", "fax": "", "bibCode": " 2002JHA....33...93G", "end": "2001-05-11", "title": "The Menzel Centennial Symposium - Donald H. Menzel: Scientist, Educator, Builder", "meetingNumber": "853", "modified": "Jul 08, 2009 12:00:00 AM", "start": "2001-05-11", "phone": "", "contact": "Owen Gingerich", "location": "Harvard-Smithsonian Center for Astrophysics, Cambridge, Mass.", "address": "", "keywords": "Menzel", "ingested": "Jan 19, 2001 12:00:00 AM", "email": "ginger@cfa.harvard.edu"}, {"web": "http://astro.u-strasbg.fr/gaia", "fax": "33 3 90 24 24 25", "bibCode": " 2002EAS.....2.....B", "end": "2001-05-18", "title": "GAIA, A European Space Project", "meetingNumber": "833", "modified": "Jul 08, 2009 12:00:00 AM", "start": "2001-05-14", "phone": "33 3 90 24 24 08", "contact": "Olivier Bienaym\\'e", "location": "Les Houches, Savoie, France", "address": "Observatoire Astronomique de Strasbourg, 11 rue de l'Universit\\'e, Strasbourg, France, F-67000", "keywords": "Galactic structure", "ingested": "Dec 06, 2000 12:00:00 AM", "email": "bienayme@astro.u-strasbg.fr"}, {"web": "", "fax": "(734) 763-2213", "bibCode": " 2002sto..conf.....D", "end": "2001-05-25", "title": " 2001: A Spacetime Odyssey", "meetingNumber": "842", "modified": "Jul 08, 2009 12:00:00 AM", "start": "2001-05-21", "phone": "(734) 763-9698", "contact": "Angie Yerks", "location": "University of Michigan, Ann Arbor", "address": "Michigan Center for Theoretical Physics,, Department of Physics, University of Michigan, 500 E. University, Ann Arbor, MI, 48109-1120", "keywords": "spacetime, cosmology, particles", "ingested": "Dec 29, 2000 12:00:00 AM", "email": "ayerks@umich.edu"}, {"web": "", "fax": "(818) 393-9471", "bibCode": " 2001AAS...198.5114L", "end": "2001-05-25", "title": "2001 Michelson Interferometry Summer School", "meetingNumber": "811", "modified": "Jul 08, 2009 12:00:00 AM", "start": "2001-05-21", "phone": "(818) 354-0747", "contact": "Peter Lawson", "location": "Lowell Observatory, Flagstaff, Arizona", "address": "Jet Propulsion Laboratory, MS 306-388, 4800 Oak Grove Drive, Pasadena, CA, 91109", "keywords": "Astronomy, optical, infrared, synthesis imaging, astronometry,data reduction", "ingested": "Nov 09, 2000 12:00:00 AM", "email": "lawson@huey.jpl.nasa.gov"}, {"web": "http://xray.sai.msu.ru/~mystery/html/cosmion-2001/", "fax": "+33 1 60 92 66 09", "bibCode": "", "end": "2001-05-30", "title": "V International Conference on Cosmoparticle Physics, COSMION 2001, Dedicated to the 80th. Anniversary of Andrei D. Sakharov", "meetingNumber": "896", "modified": "Apr 03, 2001 12:00:00 AM", "start": "2001-05-21", "GoogleMapsResponse": {"status": "OK", "results": [{"geometry": {"location_type": "APPROXIMATE", "bounds": {"northeast": {"lat": 55.7696616, "lng": 104.2955046}, "southwest": {"lat": 52.3057499, "lng": 37.554498}}, "viewport": {"northeast": {"lat": 52.30785858029149, "lng": 104.2955046}, "southwest": {"lat": 52.30516061970849, "lng": 104.2923262}}, "location": {"lat": 52.3065096, "lng": 104.2939154}}, "address_components": [{"long_name": "St. Petersburg Institute of International Trade", "types": ["establishment"], "short_name": "St. Petersburg Institute of International Trade"}, {"long_name": "Moscow", "types": ["locality", "political"], "short_name": "Moscow"}, {"long_name": "\u0433\u043e\u0440\u043e\u0434 \u041c\u043e\u0441\u043a\u0432\u0430", "types": ["administrative_area_level_2", "political"], "short_name": "\u0433. \u041c\u043e\u0441\u043a\u0432\u0430"}, {"long_name": "\u0433\u043e\u0440\u043e\u0434 \u041c\u043e\u0441\u043a\u0432\u0430", "types": ["administrative_area_level_1", "political"], "short_name": "\u0433. \u041c\u043e\u0441\u043a\u0432\u0430"}, {"long_name": "Russia", "types": ["country", "political"], "short_name": "RU"}], "partial_match": true, "formatted_address": "St. Petersburg Institute of International Trade, Moscow, Russia", "types": ["establishment"]}]}, "phone": "+33 1 60 92 66 46", "contact": "Maxim Yu. Khlopov", "location": "St. Petersburg, Moscow", "address": "Center for Cosmoparticle PHysics, Cosmion, Miusskaya Pl. 4, Moscow, Russia 125047", "keywords": "cosmology, astrophysics, dark matter, black holes", "ingested": "Mar 23, 2001 12:00:00 AM", "email": ""}, {"web": "", "fax": "+49 89 30000 3850", "bibCode": " 2002PASP..114..260D", "end": "2001-05-26", "title": "Astronomy with Radioactivities III", "meetingNumber": "879", "modified": "Jul 08, 2009 12:00:00 AM", "start": "2001-05-23", "GoogleMapsResponse": {"status": "OK", "results": [{"geometry": {"location": {"lat": 47.6792226, "lng": 11.7497287}, "viewport": {"northeast": {"lat": 47.68057158029149, "lng": 11.7510776802915}, "southwest": {"lat": 47.67787361970849, "lng": 11.7483797197085}}, "location_type": "APPROXIMATE"}, "address_components": [{"long_name": "Ringberg Castle", "types": ["point_of_interest", "establishment"], "short_name": "Ringberg Castle"}, {"long_name": "20", "types": ["street_number"], "short_name": "20"}, {"long_name": "Schlo\u00dfstra\u00dfe", "types": ["route"], "short_name": "Schlo\u00dfstra\u00dfe"}, {"long_name": "Rottach", "types": ["sublocality", "political"], "short_name": "Rottach"}, {"long_name": "Kreuth", "types": ["locality", "political"], "short_name": "Kreuth"}, {"long_name": "Miesbach", "types": ["administrative_area_level_3", "political"], "short_name": "MB"}, {"long_name": "Upper Bavaria", "types": ["administrative_area_level_2", "political"], "short_name": "Upper Bavaria"}, {"long_name": "Bavaria", "types": ["administrative_area_level_1", "political"], "short_name": "BY"}, {"long_name": "Germany", "types": ["country", "political"], "short_name": "DE"}, {"long_name": "83700", "types": ["postal_code"], "short_name": "83700"}], "formatted_address": "Ringberg Castle, Schlo\u00dfstra\u00dfe 20, 83700 Kreuth, Germany", "types": ["point_of_interest", "establishment"]}]}, "phone": "+49 89 30000 3850", "contact": "Roland Diehl", "location": "Ringberg Castle, Kreuth, Germany", "address": "Max Planck Institut fuer extraterrestrische Physik, Giessenbachstr 1, Garching, D-85741", "keywords": "nucleosynthesis, massive stars, supernovae, novae, interstellar grains, dust formation", "ingested": "Mar 02, 2001 12:00:00 AM", "email": "rod@mpe.mpg.de"}, {"web": "", "fax": "(905) 546-1252", "bibCode": "", "end": "2001-05-29", "title": "Canadian Astronomical Society, Annual Meeting", "meetingNumber": "742", "modified": "Jun 10, 2009 12:00:00 AM", "start": "2001-05-26", "GoogleMapsResponse": {"status": "OK", "results": [{"geometry": {"location_type": "APPROXIMATE", "bounds": {"northeast": {"lat": 43.4710569, "lng": -79.62208450000001}, "southwest": {"lat": 43.0505639, "lng": -80.24870709999999}}, "viewport": {"northeast": {"lat": 43.4710569, "lng": -79.62208450000001}, "southwest": {"lat": 43.0505639, "lng": -80.24870709999999}}, "location": {"lat": 43.25002080000001, "lng": -79.8660914}}, "address_components": [{"long_name": "Hamilton", "types": ["locality", "political"], "short_name": "Hamilton"}, {"long_name": "Hamilton Division", "types": ["administrative_area_level_2", "political"], "short_name": "Hamilton Division"}, {"long_name": "Ontario", "types": ["administrative_area_level_1", "political"], "short_name": "ON"}, {"long_name": "Canada", "types": ["country", "political"], "short_name": "CA"}], "formatted_address": "Hamilton, ON, Canada", "types": ["locality", "political"]}]}, "phone": "(905) 525-9140", "contact": "William Harris", "location": "Hamilton, Ontario, Canada", "address": "McMaster University, Hamilton, ON L8S 4M1", "keywords": "", "ingested": "Jun 01, 2000 12:00:00 AM", "email": "harris@physics.mcmaster.ca"}, {"web": "http://www.astro.yale.edu/workshop", "fax": "203-432-5048", "bibCode": "", "end": "2001-05-30", "title": "The shapes of galaxies and their dark matter halos", "meetingNumber": "857", "modified": "Jan 26, 2001 12:00:00 AM", "start": "2001-05-28", "GoogleMapsResponse": {"status": "OK", "results": [{"geometry": {"location_type": "APPROXIMATE", "bounds": {"northeast": {"lat": 41.3253851, "lng": -72.9188135}, "southwest": {"lat": 41.2513495, "lng": -72.999276}}, "viewport": {"northeast": {"lat": 41.3253851, "lng": -72.9188135}, "southwest": {"lat": 41.2982069, "lng": -72.9370871}}, "location": {"lat": 41.3163244, "lng": -72.92234309999999}}, "address_components": [{"long_name": "Yale University", "types": ["establishment"], "short_name": "Yale University"}, {"long_name": "New Haven", "types": ["locality", "political"], "short_name": "New Haven"}, {"long_name": "New Haven County", "types": ["administrative_area_level_2", "political"], "short_name": "New Haven County"}, {"long_name": "Connecticut", "types": ["administrative_area_level_1", "political"], "short_name": "CT"}, {"long_name": "United States", "types": ["country", "political"], "short_name": "US"}, {"long_name": "06520", "types": ["postal_code"], "short_name": "06520"}], "formatted_address": "Yale University, New Haven, CT 06520, USA", "types": ["university", "establishment"]}]}, "phone": "203-432-3000", "contact": "Priya Natarajan", "location": "Yale University, New Haven, CT 06511", "address": "Astronomy Department, Yale University, 260 Whitney Ave., New Haven, CT, 06511", "keywords": "galaxy shapes, ellipticity, galaxy halos", "ingested": "Jan 26, 2001 12:00:00 AM", "email": "workshop@astro.yale.edu"}, {"web": "", "fax": "", "bibCode": "", "end": "2001-06-02", "title": "Solar Physics Division (with AGU)", "meetingNumber": "801", "modified": "Oct 16, 2000 12:00:00 AM", "start": "2001-05-29", "GoogleMapsResponse": {"status": "OK", "results": [{"geometry": {"location_type": "APPROXIMATE", "bounds": {"northeast": {"lat": 42.3988669, "lng": -70.8681794}, "southwest": {"lat": 42.22788, "lng": -71.191113}}, "viewport": {"northeast": {"lat": 42.3988669, "lng": -70.8681794}, "southwest": {"lat": 42.22788, "lng": -71.191113}}, "location": {"lat": 42.3584308, "lng": -71.0597732}}, "address_components": [{"long_name": "Boston", "types": ["locality", "political"], "short_name": "Boston"}, {"long_name": "Suffolk County", "types": ["administrative_area_level_2", "political"], "short_name": "Suffolk County"}, {"long_name": "Massachusetts", "types": ["administrative_area_level_1", "political"], "short_name": "MA"}, {"long_name": "United States", "types": ["country", "political"], "short_name": "US"}], "formatted_address": "Boston, MA, USA", "types": ["locality", "political"]}]}, "phone": "", "contact": "John Leibacher", "location": "Boston, MA.", "address": "", "keywords": "", "ingested": "Oct 16, 2000 12:00:00 AM", "email": "leib@noao.edu"}, {"web": "http://www-laog.obs.ujf-grenoble.fr/~beuzit/CFHT2001/", "fax": "", "bibCode": "", "end": "2001-06-01", "title": "Canada-France-Hawaii Telescope Users' Meeting, 2001", "meetingNumber": "905", "modified": "Apr 09, 2001 12:00:00 AM", "start": "2001-05-31", "GoogleMapsResponse": {"status": "OK", "results": [{"geometry": {"location_type": "APPROXIMATE", "bounds": {"northeast": {"lat": 45.808425, "lng": 4.898393}, "southwest": {"lat": 45.707486, "lng": 4.7718489}}, "viewport": {"northeast": {"lat": 45.808425, "lng": 4.898393}, "southwest": {"lat": 45.707486, "lng": 4.7718489}}, "location": {"lat": 45.764043, "lng": 4.835659}}, "address_components": [{"long_name": "Lyon", "types": ["locality", "political"], "short_name": "Lyon"}, {"long_name": "Rh\u00f4ne", "types": ["administrative_area_level_2", "political"], "short_name": "69"}, {"long_name": "Rhone-Alpes", "types": ["administrative_area_level_1", "political"], "short_name": "RA"}, {"long_name": "France", "types": ["country", "political"], "short_name": "FR"}], "formatted_address": "Lyon, France", "types": ["locality", "political"]}]}, "phone": "", "contact": "Jean -Luc Beuzit", "location": "Lyon, France", "address": "", "keywords": "CFHT", "ingested": "Apr 05, 2001 12:00:00 AM", "email": "Jean-Luc.Beuzit@obs.ujf-grenoble.fr"}, {"web": "http://www.aas.org", "fax": " 292-234-2560", "bibCode": " 2001BAAS...33.1174.", "end": "2001-06-07", "title": "198th. Meeting of the American Astronomical Society", "meetingNumber": "783", "modified": "Jul 08, 2009 12:00:00 AM", "start": "2001-06-03", "GoogleMapsResponse": {"status": "OK", "results": [{"geometry": {"location": {"lat": 34.1438289, "lng": -118.144217}, "viewport": {"northeast": {"lat": 34.1451778802915, "lng": -118.1428680197085}, "southwest": {"lat": 34.1424799197085, "lng": -118.1455659802915}}, "location_type": "ROOFTOP"}, "address_components": [{"long_name": "300", "types": ["street_number"], "short_name": "300"}, {"long_name": "East Green Street", "types": ["route"], "short_name": "E Green St"}, {"long_name": "Pasadena", "types": ["locality", "political"], "short_name": "Pasadena"}, {"long_name": "Los Angeles County", "types": ["administrative_area_level_2", "political"], "short_name": "Los Angeles County"}, {"long_name": "California", "types": ["administrative_area_level_1", "political"], "short_name": "CA"}, {"long_name": "United States", "types": ["country", "political"], "short_name": "US"}, {"long_name": "91101", "types": ["postal_code"], "short_name": "91101"}], "partial_match": true, "formatted_address": "300 East Green Street, Pasadena, CA 91101, USA", "types": ["street_address"]}]}, "phone": " 202-328-2010", "contact": "AAS Executive Office", "location": "Pasadena Center, 300 East Green St., Pasadena, CA.", "address": " 2000 Florida Ave., NW, Suite 400, Washington, DC 20009-1231", "keywords": " AAS", "ingested": "Sep 21, 2000 12:00:00 AM", "email": "aas@aas.org"}, {"web": "http://www.naic.edu/meeting.html", "fax": "(787) 878-1861", "bibCode": " 2002ASPC..278.....S", "end": "2001-06-15", "title": "NAIC -- NRAO School on Single-Dish Radio Astronomy: Techniques & Applications", "meetingNumber": "827", "modified": "Jul 08, 2009 12:00:00 AM", "start": "2001-06-10", "GoogleMapsResponse": {"status": "OK", "results": [{"geometry": {"location_type": "APPROXIMATE", "bounds": {"northeast": {"lat": 18.4900809, "lng": -66.66630289999999}, "southwest": {"lat": 18.4095759, "lng": -66.770658}}, "viewport": {"northeast": {"lat": 18.4900809, "lng": -66.66630289999999}, "southwest": {"lat": 18.4095759, "lng": -66.770658}}, "location": {"lat": 18.472445, "lng": -66.7157306}}, "address_components": [{"long_name": "Arecibo", "types": ["locality", "political"], "short_name": "Arecibo"}, {"long_name": "Arecibo", "types": ["administrative_area_level_1", "political"], "short_name": "Arecibo"}, {"long_name": "Puerto Rico", "types": ["country", "political"], "short_name": "PR"}], "formatted_address": "Arecibo, Puerto Rico", "types": ["locality", "political"]}, {"geometry": {"location_type": "APPROXIMATE", "bounds": {"northeast": {"lat": 18.4944194, "lng": -66.5798679}, "southwest": {"lat": 18.3152049, "lng": -66.770658}}, "viewport": {"northeast": {"lat": 18.4944194, "lng": -66.5798679}, "southwest": {"lat": 18.3152049, "lng": -66.770658}}, "location": {"lat": 18.3880086, "lng": -66.6652785}}, "address_components": [{"long_name": "Arecibo", "types": ["administrative_area_level_1", "political"], "short_name": "Arecibo"}, {"long_name": "Puerto Rico", "types": ["country", "political"], "short_name": "PR"}], "formatted_address": "Arecibo, Puerto Rico", "types": ["administrative_area_level_1", "political"]}, {"geometry": {"location": {"lat": 18.3462618, "lng": -66.7524469}, "viewport": {"northeast": {"lat": 18.3476107802915, "lng": -66.75109791970849}, "southwest": {"lat": 18.3449128197085, "lng": -66.75379588029149}}, "location_type": "APPROXIMATE"}, "address_components": [{"long_name": "Arecibo Observatory", "types": ["point_of_interest", "establishment"], "short_name": "NAIC"}, {"long_name": "PR-625", "types": ["route"], "short_name": "PR-625"}, {"long_name": "Arecibo", "types": ["locality", "political"], "short_name": "Arecibo"}, {"long_name": "Esperanza", "types": ["administrative_area_level_2", "political"], "short_name": "Esperanza"}, {"long_name": "Arecibo", "types": ["administrative_area_level_1", "political"], "short_name": "Arecibo"}, {"long_name": "Puerto Rico", "types": ["country", "political"], "short_name": "PR"}, {"long_name": "00612", "types": ["postal_code"], "short_name": "00612"}], "formatted_address": "Arecibo Observatory, PR-625, Arecibo, 00612, Puerto Rico", "types": ["point_of_interest", "establishment"]}]}, "phone": "(787) 878-2612", "contact": "", "location": "Arecibo, Puerto Rico", "address": "Arecibo Observatory, HC 3 Box 53995, Arecibo, Puerto Rico, 00612", "keywords": "", "ingested": "Nov 30, 2000 12:00:00 AM", "email": "school@naic.edu"}, {"web": "", "fax": "", "bibCode": "", "end": "2001-07-01", "title": "Compact Objects in Dense Star Clusters", "meetingNumber": "892", "modified": "Jun 10, 2009 12:00:00 AM", "start": "2001-06-10", "phone": "617 253 5084", "contact": "Aspen Center for Physics", "location": "Aspen Center for Physics", "address": "MIT, 6-201 MIT, 77 Massachusetts Ave, Cambridge, MA, 02139", "keywords": "clusters, stellar dynamics, pulsars, neutron stars, white dwarfs, black holes, galactic nuclei, globular clusters", "ingested": "Mar 15, 2001 12:00:00 AM", "email": " rasio@mit.edu"}, {"web": "http://www.cesr.fr/~moly/DSTUF/colloque_uf/", "fax": "", "bibCode": " 2002EAS.....4.....G", "end": "2001-06-13", "title": "Infrared and Submillimeter Space Astronomy: An International Colloquium to Honor the Memory of Guy Serra", "meetingNumber": "927", "modified": "Jul 08, 2009 12:00:00 AM", "start": "2001-06-10", "phone": "33 5 61 55 66 48", "contact": "Dr. Martin GIARD", "location": "Toulouse, France", "address": "CESR-CNRS, BP 4346, Toulouse cedex 04, France, F 31028", "keywords": "Space Astronomy", "ingested": "May 15, 2001 12:00:00 AM", "email": "GS2001@cesr.fr"}, {"web": "", "fax": "(970) 920-1167", "bibCode": "", "end": "2001-07-01", "title": "Gamma-Ray Bursts in the Afterglow Era", "meetingNumber": "889", "modified": "Jun 10, 2009 12:00:00 AM", "start": "2001-06-10", "phone": "(970) 925-2585", "contact": "Jane Kelly, Administrative Vice President", "location": "Aspen Center for Physics", "address": "Jane Kelly, Administrative Vice President, Aspen Center for Physics, 700 West Gillespie St., Aspen, CO, 81611", "keywords": "Gamma rays, star formation, supernovae, cosmology", "ingested": "Mar 12, 2001 12:00:00 AM", "email": "jane@acp1.aspenphys.org"}, {"web": "", "fax": "+39095330592", "bibCode": " 2002Icar..159..269F", "end": "2001-06-16", "title": "Asteroids 2001: from Piazzi to the 3rd Millenium", "meetingNumber": "741", "modified": "Jul 08, 2009 12:00:00 AM", "start": "2001-06-11", "phone": "+390957332245", "contact": "Carlo Blanco", "location": "Palermo, Italy", "address": "Universita` di Catania, Dipartimento di Fisica e Astronomia, Via S. Sofia, 78, I-95125 Catania  Italy", "keywords": "asteroids", "ingested": "May 30, 2000 12:00:00 AM", "email": "cblanco@alpha4.ct.astro.it"}, {"web": "", "fax": "33-01-40-51-20-02", "bibCode": "", "end": "2001-06-16", "title": "NATO Advanced Study Institute: EUSO: Extreme universe spatial observatory, 7th. Paris Cosmology Colloquium", "meetingNumber": "812", "modified": "Jan 03, 2001 12:00:00 AM", "start": "2001-06-11", "phone": "33-01-40-51-22-21", "contact": "D. Chalonge", "location": "Observatoire de Paris, France", "address": "Observatoire de Paris-DEMIRM, 61, avenue de l'Observatoire, Paris, France 75014", "keywords": "cosmology", "ingested": "Nov 09, 2000 12:00:00 AM", "email": "chanlonge@mesiob.obspm.fr"}, {"web": "", "fax": "+31-71-565 4690", "bibCode": "", "end": "2001-06-15", "title": "1st Eddington Workshop-Stellar-structure and habitable planet finding", "meetingNumber": "807", "modified": "Jun 10, 2009 12:00:00 AM", "start": "2001-06-11", "phone": "+31-71-565 4665", "contact": "Fabio Favata", "location": "Cordoba, Spain", "address": "Space Science Department, European Space Agency, P.O. Box 299, Noordwijk, 2200 AG", "keywords": "stellar structure, asteroseismology,terrestrial planets, habitable planets,high-precision photometry", "ingested": "Oct 24, 2000 12:00:00 AM", "email": "fabio.favata@astro.esa.int"}, {"web": "", "fax": "886-2-2365-5473", "bibCode": "", "end": "2001-06-15", "title": "The 8th Taipei Astrophysics Workshop-AMiBA 2001: High-z Clusters, Missing Baryons, and CMB Polarization", "meetingNumber": "843", "modified": "Jun 10, 2009 12:00:00 AM", "start": "2001-06-11", "GoogleMapsResponse": {"status": "OK", "results": [{"geometry": {"location_type": "APPROXIMATE", "bounds": {"northeast": {"lat": 25.0222706, "lng": 121.5464049}, "southwest": {"lat": 25.0114032, "lng": 121.5327673}}, "viewport": {"northeast": {"lat": 25.0222706, "lng": 121.5464049}, "southwest": {"lat": 25.0114032, "lng": 121.5327673}}, "location": {"lat": 25.017918, "lng": 121.5377983}}, "address_components": [{"long_name": "National Taiwan University", "types": ["establishment"], "short_name": "National Taiwan University"}, {"long_name": "1", "types": ["street_number"], "short_name": "1"}, {"long_name": "\u7f85\u65af\u798f\u8def\u56db\u6bb5", "types": ["route"], "short_name": "\u7f85\u65af\u798f\u8def\u56db\u6bb5"}, {"long_name": "\u5b78\u5e9c\u91cc", "types": ["sublocality", "political"], "short_name": "\u5b78\u5e9c\u91cc"}, {"long_name": "\u5927\u5b89\u5340", "types": ["locality", "political"], "short_name": "\u5927\u5b89\u5340"}, {"long_name": "Taipei City", "types": ["administrative_area_level_2", "political"], "short_name": "\u5317\u5e02"}, {"long_name": "Taiwan", "types": ["country", "political"], "short_name": "TW"}, {"long_name": "10617", "types": ["postal_code"], "short_name": "10617"}], "partial_match": true, "formatted_address": "National Taiwan University, No. 1\u7f85\u65af\u798f\u8def\u56db\u6bb5\u5927\u5b89\u5340 Taipei City, Taiwan 10617", "types": ["university", "establishment"]}]}, "phone": "886-2-3366-5194", "contact": "Dr Lin-wen Chen", "location": "National Taiwan University, Taipei, Taiwan and Taroko National Park, Hua-lien, T", "address": "Physics Department, National Taiwan University, Taipei, Taiwan", "keywords": "High-z Clusters,Missing Baryons,CMB Polarization,SZ effect,AMiBA", "ingested": "Dec 29, 2000 12:00:00 AM", "email": "clw@asiaa.sinica.edu.tw"}, {"web": "", "fax": "+32-(0)4-367.56.13", "bibCode": "", "end": "2001-06-15", "title": "4th ESA International symposium on environmental testing for space programmes", "meetingNumber": "828", "modified": "Nov 30, 2000 12:00:00 AM", "start": "2001-06-12", "GoogleMapsResponse": {"status": "OK", "results": [{"geometry": {"location_type": "APPROXIMATE", "bounds": {"northeast": {"lat": 50.68819, "lng": 5.675110099999999}, "southwest": {"lat": 50.56109010000001, "lng": 5.5230701}}, "viewport": {"northeast": {"lat": 50.68819, "lng": 5.675110099999999}, "southwest": {"lat": 50.56109010000001, "lng": 5.5230701}}, "location": {"lat": 50.6325574, "lng": 5.5796662}}, "address_components": [{"long_name": "Li\u00e8ge", "types": ["locality", "political"], "short_name": "Li\u00e8ge"}, {"long_name": "Liege", "types": ["administrative_area_level_2", "political"], "short_name": "LG"}, {"long_name": "Walloon Region", "types": ["administrative_area_level_1", "political"], "short_name": "Walloon Region"}, {"long_name": "Belgium", "types": ["country", "political"], "short_name": "BE"}], "formatted_address": "Li\u00e8ge, Belgium", "types": ["locality", "political"]}]}, "phone": "+32-(0)4-367.66.68", "contact": "M.A. CUCHIARO, CSL", "location": "Liege", "address": "Univ.de Li\u010dge- Parc Scient. Sart-Tilman, Avenue du Pr\u00e9-Aily, Angleur-Li\u010dge, Belgium, B-4031", "keywords": "", "ingested": "Nov 30, 2000 12:00:00 AM", "email": "acucchiaro@ulg.ac.be"}, {"web": "", "fax": "33-01-40-51-20-02", "bibCode": "", "end": "2001-06-16", "title": "Culture scientifique : les observatoires de Paris et de Palerme", "meetingNumber": "813", "modified": "Nov 09, 2000 12:00:00 AM", "start": "2001-06-13", "GoogleMapsResponse": {"status": "OK", "results": [{"geometry": {"location_type": "APPROXIMATE", "bounds": {"northeast": {"lat": 48.9021449, "lng": 2.4699208}, "southwest": {"lat": 48.815573, "lng": 2.224199}}, "viewport": {"northeast": {"lat": 48.9021449, "lng": 2.4699208}, "southwest": {"lat": 48.815573, "lng": 2.224199}}, "location": {"lat": 48.856614, "lng": 2.3522219}}, "address_components": [{"long_name": "Paris", "types": ["locality", "political"], "short_name": "Paris"}, {"long_name": "Paris", "types": ["administrative_area_level_2", "political"], "short_name": "75"}, {"long_name": "\u00cele-de-France", "types": ["administrative_area_level_1", "political"], "short_name": "IDF"}, {"long_name": "France", "types": ["country", "political"], "short_name": "FR"}], "formatted_address": "Paris, France", "types": ["locality", "political"]}]}, "phone": "33-01-40-51-22-21", "contact": "D. Chalonge", "location": "Paris, France", "address": "Observatoire de Paris - DEMIRM, 61, avenue de l'Observatoire, PARIS, France, 75014", "keywords": "", "ingested": "Nov 09, 2000 12:00:00 AM", "email": "chalonge@mesiob.obspm"}, {"web": "", "fax": "301-286-1753", "bibCode": "", "end": "2001-06-16", "title": "Solar Variability, Climate and Space Weather", "meetingNumber": "781", "modified": "Sep 21, 2000 12:00:00 AM", "start": "2001-06-13", "GoogleMapsResponse": {"status": "OK", "results": [{"geometry": {"location_type": "APPROXIMATE", "bounds": {"northeast": {"lat": 40.209958, "lng": -105.0173219}, "southwest": {"lat": 40.12596, "lng": -105.178387}}, "viewport": {"northeast": {"lat": 40.209958, "lng": -105.0173219}, "southwest": {"lat": 40.12596, "lng": -105.178387}}, "location": {"lat": 40.1672068, "lng": -105.1019275}}, "address_components": [{"long_name": "Longmont", "types": ["locality", "political"], "short_name": "Longmont"}, {"long_name": "Boulder County", "types": ["administrative_area_level_2", "political"], "short_name": "Boulder County"}, {"long_name": "Colorado", "types": ["administrative_area_level_1", "political"], "short_name": "CO"}, {"long_name": "United States", "types": ["country", "political"], "short_name": "US"}], "formatted_address": "Longmont, CO, USA", "types": ["locality", "political"]}]}, "phone": "301-286-7511", "contact": "Longmont, CO", "location": "Longmont, CO", "address": "NASA Goddard Space Flight Center, Code 680.0, Greenbelt, Maryland,, 20771", "keywords": "solar electromagnetic spectrum, particles, magnetic fields, solar interior, solar atmosphere, climate, space weather", "ingested": "Sep 21, 2000 12:00:00 AM", "email": "pap@snoopy.gsfc.nasa.gov, jpap@solar.stanford.edu"}, {"web": "", "fax": "617-258-8100", "bibCode": "", "end": "2001-06-16", "title": "Image and Meaning -- Envisioning and Communicating Science and Technology", "meetingNumber": "893", "modified": "Jun 10, 2009 12:00:00 AM", "start": "2001-06-13", "GoogleMapsResponse": {"status": "OK", "results": [{"geometry": {"location_type": "APPROXIMATE", "bounds": {"northeast": {"lat": 42.3659977, "lng": -71.0800246}, "southwest": {"lat": 42.3534404, "lng": -71.1089008}}, "viewport": {"northeast": {"lat": 42.3659977, "lng": -71.0800246}, "southwest": {"lat": 42.3534404, "lng": -71.1089008}}, "location": {"lat": 42.360091, "lng": -71.09416}}, "address_components": [{"long_name": "Massachusetts Institute of Technology", "types": ["establishment"], "short_name": "Massachusetts Institute of Technology"}, {"long_name": "77", "types": ["street_number"], "short_name": "77"}, {"long_name": "Massachusetts Ave", "types": ["route"], "short_name": "Massachusetts Ave"}, {"long_name": "MIT", "types": ["neighborhood", "political"], "short_name": "MIT"}, {"long_name": "Cambridge", "types": ["locality", "political"], "short_name": "Cambridge"}, {"long_name": "Middlesex County", "types": ["administrative_area_level_2", "political"], "short_name": "Middlesex County"}, {"long_name": "MA", "types": ["administrative_area_level_1", "political"], "short_name": "MA"}, {"long_name": "United States", "types": ["country", "political"], "short_name": "US"}, {"long_name": "02139", "types": ["postal_code"], "short_name": "02139"}], "formatted_address": "Massachusetts Institute of Technology, 77 Massachusetts Ave, Cambridge, MA 02139", "types": ["university", "establishment"]}]}, "phone": "617-253-4565", "contact": "Richard Freierman", "location": "Massachusetts Institute of Technology, Cambridge, MA", "address": "MIT, 77 Massachusetts Ave., E32-335, Cambridge, MA, 02139", "keywords": "science, technology, visual, communication, image, imaging, photography, graphics, conference, public understanding, science writing", "ingested": "Mar 15, 2001 12:00:00 AM", "email": " richardf@mit.edu"}, {"web": "http://www.grc.uri.edu/", "fax": " +1(401)783-7644", "bibCode": "", "end": "2001-06-21", "title": "Gordon Research Conference on Origins of Solar Systems", "meetingNumber": "865", "modified": "Feb 09, 2001 12:00:00 AM", "start": "2001-06-16", "GoogleMapsResponse": {"status": "OK", "results": [{"geometry": {"location_type": "APPROXIMATE", "bounds": {"northeast": {"lat": 41.386998, "lng": -72.0828938}, "southwest": {"lat": 41.3046144, "lng": -72.12853009999999}}, "viewport": {"northeast": {"lat": 41.386998, "lng": -72.0828938}, "southwest": {"lat": 41.3046144, "lng": -72.12853009999999}}, "location": {"lat": 41.3556539, "lng": -72.0995209}}, "address_components": [{"long_name": "New London", "types": ["locality", "political"], "short_name": "New London"}, {"long_name": "New London County", "types": ["administrative_area_level_2", "political"], "short_name": "New London County"}, {"long_name": "Connecticut", "types": ["administrative_area_level_1", "political"], "short_name": "CT"}, {"long_name": "United States", "types": ["country", "political"], "short_name": "US"}], "formatted_address": "New London, CT, USA", "types": ["locality", "political"]}]}, "phone": "", "contact": "Gordon Research Center", "location": "New London, CT (USA)", "address": "c/o University of Rhode Island P.O. Box 984 West Kingston, RI 02892-0984", "keywords": "solar system", "ingested": "Feb 09, 2001 12:00:00 AM", "email": "grc@grcmail.grc.uri"}, {"web": "", "fax": "33 1 45077469", "bibCode": " 2002astro.ph..5101D", "end": "2001-06-23", "title": "Frontiers of the Universe\r\n\r\n", "meetingNumber": "851", "modified": "Jul 08, 2009 12:00:00 AM", "start": "2001-06-17", "GoogleMapsResponse": {"status": "OK", "results": [{"geometry": {"location_type": "APPROXIMATE", "bounds": {"northeast": {"lat": 47.5861959, "lng": 1.3316073}, "southwest": {"lat": 47.584971, "lng": 1.3299972}}, "viewport": {"northeast": {"lat": 47.5869324302915, "lng": 1.332151230291502}, "southwest": {"lat": 47.5842344697085, "lng": 1.329453269708498}}, "location": {"lat": 47.5853919, "lng": 1.3305829}}, "address_components": [{"long_name": "Ch\u00e2teau de Blois", "types": ["premise"], "short_name": "Ch\u00e2teau de Blois"}, {"long_name": "Blois", "types": ["locality", "political"], "short_name": "Blois"}, {"long_name": "Loir-et-Cher", "types": ["administrative_area_level_2", "political"], "short_name": "41"}, {"long_name": "Centre", "types": ["administrative_area_level_1", "political"], "short_name": "Centre"}, {"long_name": "France", "types": ["country", "political"], "short_name": "FR"}, {"long_name": "41000", "types": ["postal_code"], "short_name": "41000"}], "formatted_address": "Ch\u00e2teau de Blois, 41000 Blois, France", "types": ["premise"]}]}, "phone": "33 1 45077410", "contact": "L. M. Celnikier", "location": "Chateau de Blois, Blois, France", "address": "Observatoire de Meudon, Place Jules Janssen, Meudon, 92195 France", "keywords": "Cosmology, High Energies, Galaxies, Stars, Future Telescopes", "ingested": "Jan 17, 2001 12:00:00 AM", "email": "blois97@obspm.fr"}, {"web": "", "fax": "+39-06/944-7243", "bibCode": "", "end": "2001-06-20", "title": "Cosmology through Time: Ancient and Modern Cosmologies in the Mediterranean Area", "meetingNumber": "856", "modified": "Jun 10, 2009 12:00:00 AM", "start": "2001-06-17", "GoogleMapsResponse": {"status": "OK", "results": [{"geometry": {"location_type": "APPROXIMATE", "bounds": {"northeast": {"lat": 42.0505462, "lng": 12.7302888}, "southwest": {"lat": 41.769596, "lng": 12.341707}}, "viewport": {"northeast": {"lat": 42.0505462, "lng": 12.7302888}, "southwest": {"lat": 41.769596, "lng": 12.341707}}, "location": {"lat": 41.8929163, "lng": 12.4825199}}, "address_components": [{"long_name": "Rome", "types": ["locality", "political"], "short_name": "Rome"}, {"long_name": "Rome", "types": ["administrative_area_level_3", "political"], "short_name": "Rome"}, {"long_name": "Rome", "types": ["administrative_area_level_2", "political"], "short_name": "RM"}, {"long_name": "Lazio", "types": ["administrative_area_level_1", "political"], "short_name": "Lazio"},