[{"web": "", "fax": "970-920-1167", "bibCode": "", "end": "1997-01-12", "title": "Observational Tests of Cosmological Models", "meetingNumber": "73", "modified": "Jun 04, 2009 12:00:00 AM", "start": "1997-01-05", "phone": "970-925-2585", "contact": "Aspen Center for Physics", "location": "Aspen, Colorado", "address": "700 W. Gillespie St., Aspen, Colorado,81611, USA", "keywords": "", "ingested": "Sep 18, 1996 12:00:00 AM", "email": "jane@acpl.zgsw.com"}, {"web": "", "fax": "", "bibCode": " 1997ASSL..220.....B", "end": "1997-01-10", "title": "The Three Galileos: The Man, The Spacecraft, The Telescope", "meetingNumber": "44", "modified": "Jul 02, 2009 12:00:00 AM", "start": "1997-01-07", "phone": " 39 49 875 4343", "contact": "C. Bargieri", "location": "Padova, Italy.", "address": "Dept. of Astronomy, Univ. of Padova, Vicolodell'Osservatorio 5,I35122 Padova,ITALY", "keywords": "", "ingested": "Aug 27, 1996 12:00:00 AM", "email": "barbieri@astrpd.pd.astro.it"}, {"web": "", "fax": "", "bibCode": "", "end": "1997-01-13", "title": "Historical Astronomy Division of the AAS", "meetingNumber": "122", "modified": "Dec 11, 1996 12:00:00 AM", "start": "1997-01-12", "GoogleMapsResponse": {"status": "OK", "results": [{"geometry": {"location_type": "APPROXIMATE", "bounds": {"northeast": {"lat": 43.8554579, "lng": -79.1161932}, "southwest": {"lat": 43.5810846, "lng": -79.639219}}, "viewport": {"northeast": {"lat": 43.8554579, "lng": -79.1161932}, "southwest": {"lat": 43.5810846, "lng": -79.639219}}, "location": {"lat": 43.653226, "lng": -79.3831843}}, "address_components": [{"long_name": "Toronto", "types": ["locality", "political"], "short_name": "Toronto"}, {"long_name": "Toronto Division", "types": ["administrative_area_level_2", "political"], "short_name": "Toronto Division"}, {"long_name": "Ontario", "types": ["administrative_area_level_1", "political"], "short_name": "ON"}, {"long_name": "Canada", "types": ["country", "political"], "short_name": "CA"}], "formatted_address": "Toronto, ON, Canada", "types": ["locality", "political"]}]}, "phone": "", "contact": "Tom Hockey", "location": "Toronto, Canada", "address": "", "keywords": "", "ingested": "Dec 11, 1996 12:00:00 AM", "email": "hockey@uni.edu"}, {"web": "", "fax": "", "bibCode": " 1996AAS...189......", "end": "1997-01-16", "title": "189th. Meeting of the AAS", "meetingNumber": "110", "modified": "Jan 21, 1999 12:00:00 AM", "start": "1997-01-12", "GoogleMapsResponse": {"status": "OK", "results": [{"geometry": {"location_type": "APPROXIMATE", "bounds": {"northeast": {"lat": 43.8554579, "lng": -79.1161932}, "southwest": {"lat": 43.5810846, "lng": -79.639219}}, "viewport": {"northeast": {"lat": 43.8554579, "lng": -79.1161932}, "southwest": {"lat": 43.5810846, "lng": -79.639219}}, "location": {"lat": 43.653226, "lng": -79.3831843}}, "address_components": [{"long_name": "Toronto", "types": ["locality", "political"], "short_name": "Toronto"}, {"long_name": "Toronto Division", "types": ["administrative_area_level_2", "political"], "short_name": "Toronto Division"}, {"long_name": "Ontario", "types": ["administrative_area_level_1", "political"], "short_name": "ON"}, {"long_name": "Canada", "types": ["country", "political"], "short_name": "CA"}], "formatted_address": "Toronto, ON, Canada", "types": ["locality", "political"]}]}, "phone": "", "contact": "Bob Garrison, Univ. Toronto.", "location": "Toronto, Canada.", "address": "", "keywords": "AAS", "ingested": "Aug 27, 1996 12:00:00 AM", "email": "garrison@astro.utoronto.ca"}, {"web": "", "fax": "", "bibCode": "1998ocnr.conf.....B", "end": "1997-01-15", "title": "Observational Cosmology with the New Radio  Surveys", "meetingNumber": "45", "modified": "Jun 04, 2009 12:00:00 AM", "start": "1997-01-13", "GoogleMapsResponse": {"status": "OK", "results": [{"geometry": {"location_type": "APPROXIMATE", "bounds": {"northeast": {"lat": 28.5886133, "lng": -16.1194702}, "southwest": {"lat": 27.9978438, "lng": -16.9259659}}, "viewport": {"northeast": {"lat": 28.5886133, "lng": -16.1194702}, "southwest": {"lat": 27.9978438, "lng": -16.9259659}}, "location": {"lat": 28.2915637, "lng": -16.6291304}}, "address_components": [{"long_name": "Tenerife", "types": ["natural_feature", "establishment"], "short_name": "Tenerife"}, {"long_name": "Santa Cruz de Tenerife", "types": ["administrative_area_level_2", "political"], "short_name": "TF"}, {"long_name": "Canary Islands", "types": ["administrative_area_level_1", "political"], "short_name": "CN"}, {"long_name": "Spain", "types": ["country", "political"], "short_name": "ES"}], "formatted_address": "Tenerife, Santa Cruz de Tenerife, Spain", "types": ["natural_feature", "establishment"]}, {"geometry": {"location_type": "APPROXIMATE", "bounds": {"northeast": {"lat": 28.418884, "lng": -16.530391}, "southwest": {"lat": 28.402834, "lng": -16.56343}}, "viewport": {"northeast": {"lat": 28.418884, "lng": -16.530391}, "southwest": {"lat": 28.402834, "lng": -16.56343}}, "location": {"lat": 28.4121399, "lng": -16.5495683}}, "address_components": [{"long_name": "Tenerife", "types": ["sublocality", "political"], "short_name": "Tenerife"}, {"long_name": "Puerto de la Cruz", "types": ["locality", "political"], "short_name": "Puerto de la Cruz"}, {"long_name": "Santa Cruz de Tenerife", "types": ["administrative_area_level_2", "political"], "short_name": "TF"}, {"long_name": "Canary Islands", "types": ["administrative_area_level_1", "political"], "short_name": "CN"}, {"long_name": "Spain", "types": ["country", "political"], "short_name": "ES"}], "formatted_address": "Tenerife, Puerto de la Cruz, Santa Cruz de Tenerife, Spain", "types": ["sublocality", "political"]}, {"geometry": {"location_type": "APPROXIMATE", "bounds": {"northeast": {"lat": 28.374612, "lng": -16.761489}, "southwest": {"lat": 28.372229, "lng": -16.766992}}, "viewport": {"northeast": {"lat": 28.3747694802915, "lng": -16.761489}, "southwest": {"lat": 28.37207151970849, "lng": -16.766992}}, "location": {"lat": 28.3735547, "lng": -16.7643789}}, "address_components": [{"long_name": "Tenerife", "types": ["sublocality", "political"], "short_name": "Tenerife"}, {"long_name": "Garachico", "types": ["locality", "political"], "short_name": "Garachico"}, {"long_name": "Santa Cruz de Tenerife", "types": ["administrative_area_level_2", "political"], "short_name": "TF"}, {"long_name": "Canary Islands", "types": ["administrative_area_level_1", "political"], "short_name": "CN"}, {"long_name": "Spain", "types": ["country", "political"], "short_name": "ES"}], "formatted_address": "Tenerife, Garachico, Santa Cruz de Tenerife, Spain", "types": ["sublocality", "political"]}]}, "phone": "", "contact": "Ismael Perez-Fournon", "location": "Tenerife, Canary Islands, Spain.", "address": "Instituto deAstrofisica de Canarias, c/o Via Lactea, s/n,E- 38200 La Laguna, Tenerife, Spain", "keywords": "", "ingested": "Aug 27, 1996 12:00:00 AM", "email": "cosmowrk@iac.es"}, {"web": "", "fax": "", "bibCode": "1998IAUS..189.....B", "end": "1997-01-17", "title": "Fundamental Stellar Properties: The Interaction Between Observation and Theory. A Meeting to Markthe 80th Birthday of Emeritus Prof. R. Hanbury Brown, IAU Symposium No. 189", "meetingNumber": "46", "modified": "Mar 07, 2001 12:00:00 AM", "start": "1997-01-13", "GoogleMapsResponse": {"status": "OK", "results": [{"geometry": {"location_type": "APPROXIMATE", "bounds": {"northeast": {"lat": -33.883897, "lng": 151.1951592}, "southwest": {"lat": -33.8932957, "lng": 151.1791169}}, "viewport": {"northeast": {"lat": -33.883897, "lng": 151.1951592}, "southwest": {"lat": -33.8932957, "lng": 151.1791169}}, "location": {"lat": -33.8879272, "lng": 151.1878824}}, "address_components": [{"long_name": "The University of Sydney", "types": ["establishment"], "short_name": "The University of Sydney"}, {"long_name": "City Road", "types": ["route"], "short_name": "City Road"}, {"long_name": "Darlington", "types": ["locality", "political"], "short_name": "Darlington"}, {"long_name": "New South Wales", "types": ["administrative_area_level_1", "political"], "short_name": "New South Wales"}, {"long_name": "Australia", "types": ["country", "political"], "short_name": "AU"}, {"long_name": "2008", "types": ["postal_code"], "short_name": "2008"}], "formatted_address": "The University of Sydney, City Road, Darlington New South Wales 2008", "types": ["university", "establishment"]}]}, "phone": "61-2 9351 3849", "contact": "Dr. A.J. Booth", "location": "University of Sydney, Australia.", "address": "School of Physics, A28,University of Sydney,NSW 2006, Australia.", "keywords": "", "ingested": "Aug 27, 1996 12:00:00 AM", "email": ""}, {"web": "", "fax": "", "bibCode": "1997vhep.conf.....G", "end": "1997-01-25", "title": "High-Energy Phenomena in Astrophysics.  32nd.Rencontres de Morion.", "meetingNumber": "47", "modified": "Jul 07, 1999 12:00:00 AM", "start": "1997-01-18", "GoogleMapsResponse": {"status": "OK", "results": [{"geometry": {"location_type": "APPROXIMATE", "bounds": {"northeast": {"lat": 43.501788, "lng": 6.538443099999999}, "southwest": {"lat": 43.40484499999999, "lng": 6.4338681}}, "viewport": {"northeast": {"lat": 43.501788, "lng": 6.538443099999999}, "southwest": {"lat": 43.40484499999999, "lng": 6.4338681}}, "location": {"lat": 43.462876, "lng": 6.478446000000001}}, "address_components": [{"long_name": "Les Arcs", "types": ["locality", "political"], "short_name": "Les Arcs"}, {"long_name": "Var", "types": ["administrative_area_level_2", "political"], "short_name": "83"}, {"long_name": "Provence-Alpes-C\u00f4te d'Azur", "types": ["administrative_area_level_1", "political"], "short_name": "PACA"}, {"long_name": "France", "types": ["country", "political"], "short_name": "FR"}], "formatted_address": "Les Arcs, France", "types": ["locality", "political"]}]}, "phone": "", "contact": "Recontres de Moriond", "location": "Les Arcs, France.", "address": "Bat. 211, Univ. Paris-Sud,Orsay Cedex, France", "keywords": "", "ingested": "Aug 27, 1996 12:00:00 AM", "email": "trantv@frcpn11.in2p3.fr"}, {"web": "", "fax": "", "bibCode": "1997IAUS..182P....M", "end": "1997-01-26", "title": "Herbig-Haro Flows and the Birth of Low-Mass Stars,IAU Symposium No. 182", "meetingNumber": "48", "modified": "Apr 17, 2001 12:00:00 AM", "start": "1997-01-20", "GoogleMapsResponse": {"status": "OK", "results": [{"geometry": {"location_type": "APPROXIMATE", "bounds": {"northeast": {"lat": 46.0311, "lng": 7.0450649}, "southwest": {"lat": 45.82815900000001, "lng": 6.81372}}, "viewport": {"northeast": {"lat": 46.0311, "lng": 7.0450649}, "southwest": {"lat": 45.82815900000001, "lng": 6.81372}}, "location": {"lat": 45.923697, "lng": 6.869433}}, "address_components": [{"long_name": "Chamonix", "types": ["locality", "political"], "short_name": "Chamonix"}, {"long_name": "Haute-Savoie", "types": ["administrative_area_level_2", "political"], "short_name": "74"}, {"long_name": "Rhone-Alpes", "types": ["administrative_area_level_1", "political"], "short_name": "RA"}, {"long_name": "France", "types": ["country", "political"], "short_name": "FR"}], "formatted_address": "Chamonix, France", "types": ["locality", "political"]}]}, "phone": "33 76 51 47 88", "contact": "IAU Symposiom No. 182", "location": "Chamonix, France.", "address": "Observatoire de Grenoble, BP 53, F-38041, Grenoble Cedex 9, France", "keywords": "", "ingested": "Aug 27, 1996 12:00:00 AM", "email": "iau182@gag.observ-gr.fr"}, {"web": "", "fax": "", "bibCode": "", "end": "1997-02-18", "title": "AAAS Annual Meeting and Science Innovation Exposition", "meetingNumber": "49", "modified": "Sep 30, 1998 12:00:00 AM", "start": "1997-02-13", "GoogleMapsResponse": {"status": "OK", "results": [{"geometry": {"location_type": "APPROXIMATE", "bounds": {"northeast": {"lat": 47.734145, "lng": -122.235776}, "southwest": {"lat": 47.4955511, "lng": -122.4359085}}, "viewport": {"northeast": {"lat": 47.734145, "lng": -122.235776}, "southwest": {"lat": 47.4955511, "lng": -122.4359085}}, "location": {"lat": 47.6062095, "lng": -122.3320708}}, "address_components": [{"long_name": "Seattle", "types": ["locality", "political"], "short_name": "Seattle"}, {"long_name": "King County", "types": ["administrative_area_level_2", "political"], "short_name": "King County"}, {"long_name": "Washington", "types": ["administrative_area_level_1", "political"], "short_name": "WA"}, {"long_name": "United States", "types": ["country", "political"], "short_name": "US"}], "formatted_address": "Seattle, WA, USA", "types": ["locality", "political"]}]}, "phone": "", "contact": "", "location": "Seattle, WA", "address": "", "keywords": "AAAS, science", "ingested": "Aug 27, 1996 12:00:00 AM", "email": "iau164@nrao.edu"}, {"web": "", "fax": "+56 51 205212", "bibCode": " 1997astro.ph..7324S", "end": "1997-02-28", "title": "SN 1987A: Ten Years After (The Fifth CTIO/ESO Workshop and the First CTIO/ESO/LCO Workshop)", "meetingNumber": "111", "modified": "Jul 02, 2009 12:00:00 AM", "start": "1997-02-22", "GoogleMapsResponse": {"status": "OK", "results": [{"geometry": {"location_type": "GEOMETRIC_CENTER", "bounds": {"northeast": {"lat": 4.67854, "lng": -74.07663}, "southwest": {"lat": 4.67018, "lng": -74.0867}}, "viewport": {"northeast": {"lat": 4.67854, "lng": -74.07663}, "southwest": {"lat": 4.67018, "lng": -74.0867}}, "location": {"lat": 4.674189999999999, "lng": -74.08169}}, "address_components": [{"long_name": "Chile", "types": ["route"], "short_name": "C72"}, {"long_name": "Bogota", "types": ["locality", "political"], "short_name": "Bogota"}, {"long_name": "Cundinamarca", "types": ["administrative_area_level_1", "political"], "short_name": "Cundinamarca"}, {"long_name": "Colombia", "types": ["country", "political"], "short_name": "CO"}], "partial_match": true, "formatted_address": "Chile, Bogot\u00e1, Cundinamarca, Colombia", "types": ["route"]}]}, "phone": "56-51-225415", "contact": "", "location": "LaSerena, Chile", "address": "CerroTololo Inter-Amercian Observatory, Casilla 603, La Serena, Chile", "keywords": "SN 2987A", "ingested": "Aug 27, 1996 12:00:00 AM", "email": "sn872@ctio.noao.edu"}, {"web": "", "fax": "41-61-205-54-55", "bibCode": "1998cmaf.conf.....S", "end": "1997-03-08", "title": "Computational Methods for Astrophysical Fluid Flow, 27th Saas-Fee Advanced Course", "meetingNumber": "72", "modified": "Apr 17, 2001 12:00:00 AM", "start": "1997-03-03", "GoogleMapsResponse": {"status": "OK", "results": [{"geometry": {"location": {"lat": 46.3513941, "lng": 7.158179499999999}, "viewport": {"northeast": {"lat": 46.3590952, "lng": 7.1741869}, "southwest": {"lat": 46.3436919, "lng": 7.1421721}}, "location_type": "APPROXIMATE"}, "address_components": [{"long_name": "Les Diablerets", "types": ["sublocality", "political"], "short_name": "Les Diablerets"}, {"long_name": "Ormont-Dessus", "types": ["locality", "political"], "short_name": "Ormont-Dessus"}, {"long_name": "Aigle District", "types": ["administrative_area_level_2", "political"], "short_name": "Aigle District"}, {"long_name": "Vaud", "types": ["administrative_area_level_1", "political"], "short_name": "VD"}, {"long_name": "Switzerland", "types": ["country", "political"], "short_name": "CH"}, {"long_name": "1865", "types": ["postal_code"], "short_name": "1865"}], "formatted_address": "Les Diablerets, 1865 Ormont-Dessus, Switzerland", "types": ["sublocality", "political"]}]}, "phone": "", "contact": "Saas-Fee", "location": "Les Diablerets, Switzerland", "address": "Astronomisches Institut des Universitaet Basel,Venusstrasse 7, Benningen, Switzerland,4102", "keywords": "", "ingested": "Sep 16, 1996 12:00:00 AM", "email": "sf97@deimos.astro.unibas.ch"}, {"web": "http://www.riken.go.jp/lab-www/cosmic/workshop.html", "fax": "+81 48 462 4640", "bibCode": "1997asxo.proc.....M", "end": "1997-03-05", "title": "All-Sky X-Ray Observations in the Next Decade", "meetingNumber": "139", "modified": "Jan 21, 1999 12:00:00 AM", "start": "1997-03-03", "GoogleMapsResponse": {"status": "OK", "results": [{"geometry": {"location_type": "APPROXIMATE", "bounds": {"northeast": {"lat": 35.8131062, "lng": 139.6473734}, "southwest": {"lat": 35.7665834, "lng": 139.5967878}}, "viewport": {"northeast": {"lat": 35.8131062, "lng": 139.6473734}, "southwest": {"lat": 35.7665834, "lng": 139.5967878}}, "location": {"lat": 35.7812079, "lng": 139.6057934}}, "address_components": [{"long_name": "Wako", "types": ["locality", "political"], "short_name": "Wako"}, {"long_name": "Saitama", "types": ["administrative_area_level_1", "political"], "short_name": "Saitama"}, {"long_name": "Japan", "types": ["country", "political"], "short_name": "JP"}], "formatted_address": "Wako, Saitama, Japan", "types": ["locality", "political"]}]}, "phone": "+81 48 467 9333", "contact": "", "location": "Wako, Saitama, Japan", "address": "Cosmic Radiation Laboratory, Institute of Physical and Chemical Research, 2-1, Hirosawa, Wako-shi, Saitama 351-01, Japan", "keywords": "", "ingested": "Jan 18, 1997 12:00:00 AM", "email": "workshop@crab.riken.go.jp"}, {"web": "", "fax": "+219 631 5952", "bibCode": "", "end": "1997-03-08", "title": "3rd International Workshop on Gravitational Microlensing Surveys", "meetingNumber": "93", "modified": "Oct 21, 1996 12:00:00 AM", "start": "1997-03-06", "phone": "", "contact": "David Bennett", "location": "University of Notre-Dame, Notre Dame, Indiana, USA", "address": "University of Notre Dame, Physics Department, Notre Dame, IN 46556", "keywords": "", "ingested": "Oct 21, 1996 12:00:00 AM", "email": "macho@bustard.phys.nd.edu"}, {"web": "", "fax": "+203 432 5048", "bibCode": "", "end": "1997-03-08", "title": "A Meeting in Honor of Dorrit Hoffleit's 90th Birthday", "meetingNumber": "138", "modified": "Jan 18, 1997 12:00:00 AM", "start": "1997-03-07", "phone": "+203 432 3020", "contact": "William F. van Altena", "location": "Yale University, New Haven", "address": "Yale University Department, P.O.BOX 208101, New Haven, CT, 06520-8101", "keywords": "", "ingested": "Jan 18, 1997 12:00:00 AM", "email": "vanalten@astro.yale.edu"}, {"web": "", "fax": "", "bibCode": "1999fess.conf.....G", "end": "1997-03-20", "title": "Formation and Evolution of Solids in Space", "meetingNumber": "78", "modified": "Mar 06, 2001 12:00:00 AM", "start": "1997-03-10", "phone": "", "contact": "J. Mayo Greenberg", "location": "Erice, Sicily", "address": "", "keywords": "", "ingested": "Oct 04, 1996 12:00:00 AM", "email": "mayo@rulhl1.leidenuniv.nl"}, {"web": "", "fax": "+33 1 44 32 80 01", "bibCode": " 1997eai..proc.....M", "end": "1997-03-22", "title": "Extragalactic Astronomy in the Infrared (32nd.  Recontres de Moriond)", "meetingNumber": "92", "modified": "Jul 07, 1999 12:00:00 AM", "start": "1997-03-15", "phone": "+33 1 44 32 81 15", "contact": "Gary Mamon", "location": "Les Arcs, France", "address": "Institut d'Astrophysique, 98 bis, Bd Arago, Paris, France, F-75014", "keywords": "extragalactic, infrared", "ingested": "Aug 27, 1996 12:00:00 AM", "email": "ir97@iap.fr"}, {"web": "", "fax": "", "bibCode": "1997LPI....28......", "end": "1997-03-21", "title": "28th. Annual Lunar and Planetary Science Conference", "meetingNumber": "50", "modified": "May 13, 1999 12:00:00 AM", "start": "1997-03-17", "phone": "713 486 2166", "contact": "", "location": "Houston, Texas", "address": "Publications and Program Services Department, LPI, 3600 Bay Area Boulevard, Houston, TX 77058-1113", "keywords": "", "ingested": "Aug 27, 1996 12:00:00 AM", "email": ""}, {"web": "", "fax": "+34 22 605210", "bibCode": "1998bdep.conf.....R", "end": "1997-03-21", "title": "Brown Dwarfs and Extrasolar Planets", "meetingNumber": "119", "modified": "Jun 04, 2009 12:00:00 AM", "start": "1997-03-17", "phone": "+34 22 605200", "contact": "Rafael Rebolo", "location": "Puerto de la Cruz, Tenerife, Spain", "address": "Instituto de Astrofisica de Canarias,C/. Via Lactea S/N, La Laguna, Tenerife, 38200, Spain", "keywords": "", "ingested": "Dec 12, 1996 12:00:00 AM", "email": "bdexp@iac.es"}, {"web": "", "fax": "", "bibCode": "", "end": "1997-03-21", "title": "Sensors for Space", "meetingNumber": "51", "modified": "Aug 27, 1996 12:00:00 AM", "start": "1997-03-20", "phone": "+33 76 63 57 41", "contact": "", "location": "Grenoble, France", "address": "PROCAP, UJFG-LIME-BP 53, 38041 Grenoble, Cedex 9, France", "keywords": "", "ingested": "Aug 27, 1996 12:00:00 AM", "email": "benech@lime.grenet.fr"}, {"web": "", "fax": "44-161-200-3669", "bibCode": "", "end": "1997-03-27", "title": "Dust and Molecules in Evolved Stars", "meetingNumber": "65", "modified": "Sep 03, 1996 12:00:00 AM", "start": "1997-03-24", "GoogleMapsResponse": {"status": "OK", "results": [{"geometry": {"location": {"lat": 53.4759119, "lng": -2.2340188}, "viewport": {"northeast": {"lat": 53.4772608802915, "lng": -2.232669819708498}, "southwest": {"lat": 53.4745629197085, "lng": -2.235367780291502}}, "location_type": "APPROXIMATE"}, "address_components": [{"long_name": "Ex-UMIST Masjid, Basement", "types": ["point_of_interest", "establishment"], "short_name": "Ex-UMIST Masjid, Basement"}, {"long_name": "The University of Manchester", "types": ["establishment"], "short_name": "The University of Manchester"}, {"long_name": "Manchester", "types": ["locality", "political"], "short_name": "Manchester"}, {"long_name": "Manchester", "types": ["administrative_area_level_3", "political"], "short_name": "Manchester"}, {"long_name": "Greater Manchester", "types": ["administrative_area_level_2", "political"], "short_name": "Gt Man"}, {"long_name": "England", "types": ["administrative_area_level_1", "political"], "short_name": "England"}, {"long_name": "United Kingdom", "types": ["country", "political"], "short_name": "GB"}, {"long_name": "M13", "types": ["postal_code_prefix", "postal_code"], "short_name": "M13"}, {"long_name": "Manchester", "types": ["postal_town"], "short_name": "Manchester"}], "partial_match": true, "formatted_address": "Ex-UMIST Masjid, Basement, The University of Manchester, Manchester M13, UK", "types": ["church", "place_of_worship", "point_of_interest", "establishment"]}]}, "phone": "44-161-200-3671", "contact": "I. Cherchneff", "location": "UMIST, Manchester, UK", "address": "Physics Department, UMIST, PO Box 88, Manchester, M6O 1QD, UK", "keywords": "", "ingested": "Sep 03, 1996 12:00:00 AM", "email": "imc@ast.ma.umist.ac.uk"}, {"web": "", "fax": "", "bibCode": "1997stt..conf.....B", "end": "1997-03-27", "title": "Eighth International Symposium on Space Terahertz Technology", "meetingNumber": "107", "modified": "Jul 02, 2009 12:00:00 AM", "start": "1997-03-25", "GoogleMapsResponse": {"status": "OK", "results": [{"geometry": {"location_type": "APPROXIMATE", "bounds": {"northeast": {"lat": 42.4043839, "lng": -71.06548719999999}, "southwest": {"lat": 42.3523968, "lng": -71.16033209999999}}, "viewport": {"northeast": {"lat": 42.4043839, "lng": -71.06548719999999}, "southwest": {"lat": 42.3523968, "lng": -71.16033209999999}}, "location": {"lat": 42.3736158, "lng": -71.10973349999999}}, "address_components": [{"long_name": "Cambridge", "types": ["locality", "political"], "short_name": "Cambridge"}, {"long_name": "Middlesex County", "types": ["administrative_area_level_2", "political"], "short_name": "Middlesex County"}, {"long_name": "Massachusetts", "types": ["administrative_area_level_1", "political"], "short_name": "MA"}, {"long_name": "United States", "types": ["country", "political"], "short_name": "US"}], "formatted_address": "Cambridge, MA, USA", "types": ["locality", "political"]}]}, "phone": "", "contact": "Dr. Raymond Blundell", "location": "Cambridge, MA.", "address": "Center for Astrophysics, Harvard", "keywords": "", "ingested": "Nov 11, 1996 12:00:00 AM", "email": "rblundell@cfa.harvard.edu"}, {"web": "http://aa.usno.navy.mil/waa/", "fax": "202 762 1612", "bibCode": "", "end": "1997-03-27", "title": "Washington Area Astronomers Meeting", "meetingNumber": "131", "modified": "Sep 30, 1998 12:00:00 AM", "start": "1997-03-27", "GoogleMapsResponse": {"status": "OK", "results": [{"geometry": {"location_type": "APPROXIMATE", "bounds": {"northeast": {"lat": 39.0071678, "lng": -76.920996}, "southwest": {"lat": 38.9674974, "lng": -76.9617191}}, "viewport": {"northeast": {"lat": 39.0071678, "lng": -76.920996}, "southwest": {"lat": 38.9674974, "lng": -76.9617191}}, "location": {"lat": 38.9869367, "lng": -76.9428679}}, "address_components": [{"long_name": "University of Maryland", "types": ["establishment"], "short_name": "University of Maryland"}, {"long_name": "College Park", "types": ["locality", "political"], "short_name": "College Park"}, {"long_name": "Prince George's County", "types": ["administrative_area_level_2", "political"], "short_name": "Prince George's County"}, {"long_name": "MD", "types": ["administrative_area_level_1", "political"], "short_name": "MD"}, {"long_name": "United States", "types": ["country", "political"], "short_name": "US"}, {"long_name": "20742", "types": ["postal_code"], "short_name": "20742"}], "formatted_address": "University of Maryland, College Park, MD 20742", "types": ["university", "establishment"]}]}, "phone": "202 762 1562", "contact": "George Kaplan", "location": "University of Maryland, College Park, Maryland", "address": "U.S. Naval Observatory, 3450 Massachusetts Ave NW, Washington, DC, 20392-5420", "keywords": "washington", "ingested": "Dec 20, 1996 12:00:00 AM", "email": "ghk@newcomb.usno.navy.mil"}, {"web": "http://cfa-www.harvard.edu/~aas/tenmeter/tenmeter.html", "fax": "", "bibCode": "", "end": "1997-03-28", "title": "Science Workshop for a Ten-meter Submillimeter Telescope at South Pole", "meetingNumber": "106", "modified": "Nov 11, 1996 12:00:00 AM", "start": "1997-03-28", "GoogleMapsResponse": {"status": "OK", "results": [{"geometry": {"location_type": "APPROXIMATE", "bounds": {"northeast": {"lat": 42.4043839, "lng": -71.06548719999999}, "southwest": {"lat": 42.3523968, "lng": -71.16033209999999}}, "viewport": {"northeast": {"lat": 42.4043839, "lng": -71.06548719999999}, "southwest": {"lat": 42.3523968, "lng": -71.16033209999999}}, "location": {"lat": 42.3736158, "lng": -71.10973349999999}}, "address_components": [{"long_name": "Cambridge", "types": ["locality", "political"], "short_name": "Cambridge"}, {"long_name": "Middlesex County", "types": ["administrative_area_level_2", "political"], "short_name": "Middlesex County"}, {"long_name": "Massachusetts", "types": ["administrative_area_level_1", "political"], "short_name": "MA"}, {"long_name": "United States", "types": ["country", "political"], "short_name": "US"}], "formatted_address": "Cambridge, MA, USA", "types": ["locality", "political"]}]}, "phone": "", "contact": "Tony Stark", "location": "Cambridge, MA", "address": "Center for Astrophysics, Harvard", "keywords": "", "ingested": "Nov 11, 1996 12:00:00 AM", "email": "aas@cfa.harvard.edu"}, {"web": "", "fax": "+33 0 491 107 471", "bibCode": " 1997astro.ph..6156C", "end": "1997-04-03", "title": "Science with Liquid Mirror Telescopes", "meetingNumber": "128", "modified": "Jul 02, 2009 12:00:00 AM", "start": "1997-04-01", "GoogleMapsResponse": {"status": "OK", "results": [{"geometry": {"location_type": "APPROXIMATE", "bounds": {"northeast": {"lat": 43.3911601, "lng": 5.5323519}, "southwest": {"lat": 43.169621, "lng": 5.228641}}, "viewport": {"northeast": {"lat": 43.3911601, "lng": 5.5323519}, "southwest": {"lat": 43.169621, "lng": 5.277926100000001}}, "location": {"lat": 43.296482, "lng": 5.36978}}, "address_components": [{"long_name": "Marseille", "types": ["locality", "political"], "short_name": "Marseille"}, {"long_name": "Bouches-du-Rhone", "types": ["administrative_area_level_2", "political"], "short_name": "13"}, {"long_name": "Provence-Alpes-C\u00f4te d'Azur", "types": ["administrative_area_level_1", "political"], "short_name": "PACA"}, {"long_name": "France", "types": ["country", "political"], "short_name": "FR"}], "partial_match": true, "formatted_address": "Marseille, France", "types": ["locality", "political"]}]}, "phone": "+33 0 491 107 451", "contact": "Dr Georges Comte", "location": "Marseilles Observatory, Marseilles, France", "address": "Observatoire de Marseille, 2 Place Le Verrier, Marseille, France, 13248 cedex 4", "keywords": "", "ingested": "Dec 11, 1996 12:00:00 AM", "email": "comte@observatoire.cnrs-mrs.fr"}, {"web": "", "fax": "301 286 1684", "bibCode": "", "end": "1997-04-04", "title": "ASCA Cherry Blossom Workshop", "meetingNumber": "144", "modified": "Jun 04, 2009 12:00:00 AM", "start": "1997-04-02", "GoogleMapsResponse": {"status": "OK", "results": [{"geometry": {"location_type": "APPROXIMATE", "bounds": {"northeast": {"lat": 38.995548, "lng": -76.909393}, "southwest": {"lat": 38.7916449, "lng": -77.119759}}, "viewport": {"northeast": {"lat": 38.995548, "lng": -76.909393}, "southwest": {"lat": 38.7916449, "lng": -77.119759}}, "location": {"lat": 38.90723089999999, "lng": -77.0364641}}, "address_components": [{"long_name": "Washington", "types": ["locality", "political"], "short_name": "Washington"}, {"long_name": "District of Columbia", "types": ["administrative_area_level_2", "political"], "short_name": "District of Columbia"}, {"long_name": "District of Columbia", "types": ["administrative_area_level_1", "political"], "short_name": "DC"}, {"long_name": "United States", "types": ["country", "political"], "short_name": "US"}], "formatted_address": "Washington, DC, USA", "types": ["locality", "political"]}]}, "phone": "301 286 8443", "contact": "Nicholas White", "location": "Washington DC", "address": "NASA-GSFC, Code 662, Greenbelt, MD, 20771", "keywords": "", "ingested": "Feb 05, 1997 12:00:00 AM", "email": "white@adhoc.gsfc.nasa.gov"}, {"web": "", "fax": "", "bibCode": "", "end": "1997-04-12", "title": "International World Wide Web Conference", "meetingNumber": "52", "modified": "Aug 27, 1996 12:00:00 AM", "start": "1997-04-07", "GoogleMapsResponse": {"status": "OK", "results": [{"geometry": {"location_type": "APPROXIMATE", "bounds": {"northeast": {"lat": 37.418939, "lng": -121.9297351}, "southwest": {"lat": 37.3228419, "lng": -122.00537}}, "viewport": {"northeast": {"lat": 37.418939, "lng": -121.9297351}, "southwest": {"lat": 37.3228419, "lng": -122.00537}}, "location": {"lat": 37.3541079, "lng": -121.9552356}}, "address_components": [{"long_name": "Santa Clara", "types": ["locality", "political"], "short_name": "Santa Clara"}, {"long_name": "Santa Clara County", "types": ["administrative_area_level_2", "political"], "short_name": "Santa Clara County"}, {"long_name": "California", "types": ["administrative_area_level_1", "political"], "short_name": "CA"}, {"long_name": "United States", "types": ["country", "political"], "short_name": "US"}], "formatted_address": "Santa Clara, CA, USA", "types": ["locality", "political"]}]}, "phone": "", "contact": "", "location": "Santa Clara, CA", "address": "", "keywords": "", "ingested": "Aug 27, 1996 12:00:00 AM", "email": "cquinn@leland.stanford.edu"}, {"web": "", "fax": "301-220-1704", "bibCode": " 1998swng.conf.....S", "end": "1997-04-09", "title": "Science With The Next Generation Space Telescope", "meetingNumber": "145", "modified": "Jul 07, 1999 12:00:00 AM", "start": "1997-04-07", "GoogleMapsResponse": {"status": "OK", "results": [{"geometry": {"location_type": "APPROXIMATE", "bounds": {"northeast": {"lat": 39.0045471, "lng": -76.8340375}, "southwest": {"lat": 38.9908891, "lng": -76.8613317}}, "viewport": {"northeast": {"lat": 39.0045471, "lng": -76.8340375}, "southwest": {"lat": 38.9908891, "lng": -76.8613317}}, "location": {"lat": 38.9911983, "lng": -76.8525724}}, "address_components": [{"long_name": "Goddard Space Flight Center", "types": ["establishment"], "short_name": "Goddard Space Flight Center"}, {"long_name": "8800", "types": ["street_number"], "short_name": "8800"}, {"long_name": "Greenbelt Road", "types": ["route"], "short_name": "Greenbelt Rd"}, {"long_name": "Goddard", "types": ["neighborhood", "political"], "short_name": "Goddard"}, {"long_name": "Greenbelt", "types": ["locality", "political"], "short_name": "Greenbelt"}, {"long_name": "Berwyn", "types": ["administrative_area_level_3", "political"], "short_name": "21, Berwyn"}, {"long_name": "Prince George's County", "types": ["administrative_area_level_2", "political"], "short_name": "Prince George's County"}, {"long_name": "Maryland", "types": ["administrative_area_level_1", "political"], "short_name": "MD"}, {"long_name": "United States", "types": ["country", "political"], "short_name": "US"}, {"long_name": "20771", "types": ["postal_code"], "short_name": "20771"}], "formatted_address": "Goddard Space Flight Center, 8800 Greenbelt Road, Greenbelt, MD 20771, USA", "types": ["museum", "establishment"]}]}, "phone": "301-220-1701", "contact": "Mary Hurlbut", "location": "Goddard Space Flight Center, Greenbelt, MD", "address": "Jorge Scientific, 7500 Greenway Center Suite 1130, Greenbelt, MD, 20770", "keywords": "", "ingested": "Feb 05, 1997 12:00:00 AM", "email": "mhurlbut@pop200.gsfc.nasa.gov"}, {"web": "", "fax": "", "bibCode": "", "end": "1997-04-11", "title": "National Astronomy Meeting 1997 (NAM97)", "meetingNumber": "129", "modified": "Jun 04, 2009 12:00:00 AM", "start": "1997-04-07", "GoogleMapsResponse": {"status": "OK", "results": [{"geometry": {"location": {"lat": 50.9378159, "lng": -1.398216}, "viewport": {"northeast": {"lat": 50.9391648802915, "lng": -1.396867019708498}, "southwest": {"lat": 50.9364669197085, "lng": -1.399564980291502}}, "location_type": "ROOFTOP"}, "address_components": [{"long_name": "Southampton University", "types": ["premise"], "short_name": "Southampton University"}, {"long_name": "University of Southampton Highfield Campus", "types": ["establishment"], "short_name": "University of Southampton Highfield Campus"}, {"long_name": "104", "types": ["street_number"], "short_name": "104"}, {"long_name": "Burgess Road", "types": ["route"], "short_name": "Burgess Rd"}, {"long_name": "Southampton", "types": ["locality", "political"], "short_name": "Southampton"}, {"long_name": "Southampton", "types": ["administrative_area_level_2", "political"], "short_name": "Southampton"}, {"long_name": "United Kingdom", "types": ["country", "political"], "short_name": "GB"}, {"long_name": "SO17 1TW", "types": ["postal_code"], "short_name": "SO17 1TW"}, {"long_name": "Southampton", "types": ["postal_town"], "short_name": "Southampton"}], "formatted_address": "Southampton University, 104 Burgess Road, University of Southampton Highfield Campus, Southampton SO17 1TW, UK", "types": ["street_address"]}]}, "phone": "", "contact": "The NAM97 Secretary", "location": "Southampton University, UK", "address": "Dept. of Physics, Southhampton University, Highfield, Southampton, England, SO17 1BJ", "keywords": "", "ingested": "Dec 18, 1996 12:00:00 AM", "email": ""}, {"web": "", "fax": "", "bibCode": "", "end": "1997-04-10", "title": "Conference on Particle Physics and Astronomy", "meetingNumber": "71", "modified": "Sep 16, 1996 12:00:00 AM", "start": "1997-04-08", "phone": "", "contact": "J. R. Batley", "location": "", "address": "Cavendish Lab., Madingley Road, Cambridge, England, CB3 OHE", "keywords": "", "ingested": "Sep 16, 1996 12:00:00 AM", "email": ""}, {"web": "", "fax": "", "bibCode": "1997BAAS...29.1095.", "end": "1997-04-16", "title": "Dynamical Astronomy Division of the AAS", "meetingNumber": "123", "modified": "Jul 02, 2009 12:00:00 AM", "start": "1997-04-13", "phone": "", "contact": "Otto Franz", "location": "Flagstaff, AZ", "address": "", "keywords": "", "ingested": "Dec 11, 1996 12:00:00 AM", "email": "ogf@lowell.edu"}, {"web": "", "fax": "+33 1 53697236", "bibCode": "1997fisu.conf.....W", "end": "1997-04-17", "title": "The Far Infrared and Submillimetre Universe", "meetingNumber": "104", "modified": "Jul 07, 1999 12:00:00 AM", "start": "1997-04-15", "phone": "+33 1 53697104", "contact": "Dr. Serge Volonte", "location": "Grenoble, France", "address": "Scientific Programme Dictatorate/ESA, 8-10, rue Mario Nikis, F-75738 Paris, Cedex 15, France", "keywords": "", "ingested": "Oct 22, 1996 12:00:00 AM", "email": "svolonte@hq.esa.fr"}, {"web": "", "fax": "", "bibCode": "", "end": "1997-04-26", "title": "National Science and Technology Week 1997", "meetingNumber": "136", "modified": "Jun 04, 2009 12:00:00 AM", "start": "1997-04-20", "phone": "703 306 1070", "contact": "", "location": "", "address": "NSTW, c/o National Science Fundation, Room 1245, 4201 Wilson Blvd, Arlington, Va 22230", "keywords": "", "ingested": "Aug 27, 1996 12:00:00 AM", "email": "nstw@nsf.gov"}, {"web": "", "fax": "+39 862 433 180", "bibCode": " 1998P&SS...46.1423C", "end": "1997-04-24", "title": "Second Italian Meeting on Celestial Mechanics", "meetingNumber": "84", "modified": "Jul 06, 2009 12:00:00 AM", "start": "1997-04-21", "phone": "+39 862 433 152", "contact": "Alsessandra Celleti", "location": "L'Aquila, Italy", "address": "University of L'Aquila, Dip. Matematica, via Vetoio, L'Aquila, Italy, 67100", "keywords": "celestial mechanics", "ingested": "Oct 02, 1996 12:00:00 AM", "email": "celmec@axscaq.aquila.infn.it"}, {"web": "", "fax": "+49 89 3299 3569", "bibCode": " 1998LNP...506.....B", "end": "1997-04-25", "title": "The Local Bubble and Beyond, IAU Colloquium No.166", "meetingNumber": "74", "modified": "Jun 04, 2009 12:00:00 AM", "start": "1997-04-21", "phone": "+49 89 3299 3321", "contact": "D. Breitschwerdt", "location": "Garching, Germany", "address": "Max-Planck-Institut fur Extraterrestrische Physik, Postfach 1603, D. 85740 Garching bei Munchen, Germany", "keywords": "", "ingested": "Aug 27, 1996 12:00:00 AM", "email": "breitsch@rosat.mpe-garching.mpg.de"}, {"web": "", "fax": "", "bibCode": "1998rege.conf.....Z", "end": "1997-04-26", "title": "Radio Emission from Galactic and Extragalactic Compact Sources, IAU Colloquium 164", "meetingNumber": "53", "modified": "Jun 04, 2009 12:00:00 AM", "start": "1997-04-21", "phone": "", "contact": "", "location": "Socorro, NM", "address": "", "keywords": "", "ingested": "Aug 27, 1996 12:00:00 AM", "email": "iau164@nrao.edu"}, {"web": "", "fax": "", "bibCode": " 1997LPICo.916.....C", "end": "1997-04-27", "title": "Workshop on Early Mars: Geologic and Hydrologic Evolution, Physical and Chemical Environments and the Implication for Life", "meetingNumber": "114", "modified": "Jul 02, 2009 12:00:00 AM", "start": "1997-04-25", "GoogleMapsResponse": {"status": "OK", "results": [{"geometry": {"location_type": "APPROXIMATE", "bounds": {"northeast": {"lat": 30.1107319, "lng": -95.014496}, "southwest": {"lat": 29.523624, "lng": -95.78808690000001}}, "viewport": {"northeast": {"lat": 30.1107319, "lng": -95.014496}, "southwest": {"lat": 29.523624, "lng": -95.78808690000001}}, "location": {"lat": 29.7601927, "lng": -95.36938959999999}}, "address_components": [{"long_name": "Houston", "types": ["locality", "political"], "short_name": "Houston"}, {"long_name": "Harris County", "types": ["administrative_area_level_2", "political"], "short_name": "Harris County"}, {"long_name": "Texas", "types": ["administrative_area_level_1", "political"], "short_name": "TX"}, {"long_name": "United States", "types": ["country", "political"], "short_name": "US"}], "formatted_address": "Houston, TX, USA", "types": ["locality", "political"]}]}, "phone": "", "contact": "Stephen Clifford", "location": "Houston, TX", "address": "", "keywords": "", "ingested": "Dec 01, 1996 12:00:00 AM", "email": "clifford@lpi.jsc.nasa.gov"}, {"web": "", "fax": "", "bibCode": "1997comp.symp.....D", "end": "1997-04-30", "title": "Gamma Ray Astronomy and Astrophysics (4th Compton Symposium)", "meetingNumber": "69", "modified": "Jun 04, 2009 12:00:00 AM", "start": "1997-04-27", "GoogleMapsResponse": {"status": "OK", "results": [{"geometry": {"location_type": "APPROXIMATE", "bounds": {"northeast": {"lat": 39.466012, "lng": -75.2421572}, "southwest": {"lat": 36.5407589, "lng": -83.675415}}, "viewport": {"northeast": {"lat": 39.466012, "lng": -75.8676468}, "southwest": {"lat": 36.5407589, "lng": -83.675415}}, "location": {"lat": 37.4315734, "lng": -78.6568942}}, "address_components": [{"long_name": "Virginia", "types": ["administrative_area_level_1", "political"], "short_name": "VA"}, {"long_name": "United States", "types": ["country", "political"], "short_name": "US"}], "partial_match": true, "formatted_address": "Virginia, USA", "types": ["administrative_area_level_1", "political"]}, {"geometry": {"location_type": "APPROXIMATE", "bounds": {"northeast": {"lat": 47.54687089999999, "lng": -92.4305349}, "southwest": {"lat": 47.4724018, "lng": -92.57128300000001}}, "viewport": {"northeast": {"lat": 47.54687089999999, "lng": -92.4305349}, "southwest": {"lat": 47.4724018, "lng": -92.57128300000001}}, "location": {"lat": 47.5232596, "lng": -92.53657129999999}}, "address_components": [{"long_name": "Virginia", "types": ["locality", "political"], "short_name": "Virginia"}, {"long_name": "St. Louis County", "types": ["administrative_area_level_2", "political"], "short_name": "St Louis County"}, {"long_name": "Minnesota", "types": ["administrative_area_level_1", "political"], "short_name": "MN"}, {"long_name": "United States", "types": ["country", "political"], "short_name": "US"}], "partial_match": true, "formatted_address": "Virginia, MN, USA", "types": ["locality", "political"]}, {"geometry": {"location_type": "APPROXIMATE", "bounds": {"northeast": {"lat": 39.961676, "lng": -90.1994749}, "southwest": {"lat": 39.9392159, "lng": -90.231416}}, "viewport": {"northeast": {"lat": 39.961676, "lng": -90.1994749}, "southwest": {"lat": 39.9392159, "lng": -90.231416}}, "location": {"lat": 39.9511595, "lng": -90.2123426}}, "address_components": [{"long_name": "Virginia", "types": ["locality", "political"], "short_name": "Virginia"}, {"long_name": "Virginia", "types": ["administrative_area_level_3", "political"], "short_name": "Virginia"}, {"long_name": "Cass County", "types": ["administrative_area_level_2", "political"], "short_name": "Cass County"}, {"long_name": "Illinois", "types": ["administrative_area_level_1", "political"], "short_name": "IL"}, {"long_name": "United States", "types": ["country", "political"], "short_name": "US"}, {"long_name": "62691", "types": ["postal_code"], "short_name": "62691"}], "partial_match": true, "formatted_address": "Virginia, IL 62691, USA", "types": ["locality", "political"]}, {"geometry": {"location_type": "APPROXIMATE", "bounds": {"northeast": {"lat": 40.2488508, "lng": -96.495875}, "southwest": {"lat": 40.2428139, "lng": -96.501679}}, "viewport": {"northeast": {"lat": 40.2488508, "lng": -96.495875}, "southwest": {"lat": 40.2428139, "lng": -96.501679}}, "location": {"lat": 40.2458333, "lng": -96.4969629}}, "address_components": [{"long_name": "Virginia", "types": ["locality", "political"], "short_name": "Virginia"}, {"long_name": "Sherman", "types": ["administrative_area_level_3", "political"], "short_name": "Sherman"}, {"long_name": "Gage County", "types": ["administrative_area_level_2", "political"], "short_name": "Gage County"}, {"long_name": "Nebraska", "types": ["administrative_area_level_1", "political"], "short_name": "NE"}, {"long_name": "United States", "types": ["country", "political"], "short_name": "US"}, {"long_name": "68458", "types": ["postal_code"], "short_name": "68458"}], "partial_match": true, "formatted_address": "Virginia, NE 68458, USA", "types": ["locality", "political"]}]}, "phone": "", "contact": "Ms. Tina Obrebski", "location": "Williamsburg, Marriot Hotel, Virginia, USA", "address": "Code 7650, Naval Research Laboratory, 4555 Overlook Ave SW, Washington DC, 20375, USA", "keywords": "", "ingested": "Aug 27, 1996 12:00:00 AM", "email": "compton4@osse.nrl.navy.mil"}, {"web": "", "fax": "", "bibCode": " 1998npsp.conf.....W", "end": "1997-05-04", "title": "New Perspectives on Solar Prominences, a Memorial Colloquium to Lucien D. Azambuja,IAU Colloquium No. 167", "meetingNumber": "68", "modified": "Dec 23, 1998 12:00:00 AM", "start": "1997-04-28", "GoogleMapsResponse": {"status": "OK", "results": [{"geometry": {"location_type": "APPROXIMATE", "bounds": {"northeast": {"lat": 45.297921, "lng": 6.772899000000001}, "southwest": {"lat": 45.198466, "lng": 6.6803499}}, "viewport": {"northeast": {"lat": 45.297921, "lng": 6.772899000000001}, "southwest": {"lat": 45.198466, "lng": 6.6803499}}, "location": {"lat": 45.227947, "lng": 6.741517}}, "address_components": [{"long_name": "Aussois", "types": ["locality", "political"], "short_name": "Aussois"}, {"long_name": "Savoie", "types": ["administrative_area_level_2", "political"], "short_name": "73"}, {"long_name": "Rhone-Alpes", "types": ["administrative_area_level_1", "political"], "short_name": "RA"}, {"long_name": "France", "types": ["country", "political"], "short_name": "FR"}], "formatted_address": "Aussois, France", "types": ["locality", "political"]}]}, "phone": "1 301 953 5414", "contact": "D.M. Rust", "location": "Aussois, France", "address": "The Johns Hopkins Univeristy, Applied Physics Laboratory,Johns Hopkins Road, Laurel, MD.  20723", "keywords": "solar", "ingested": "Aug 27, 1996 12:00:00 AM", "email": "david.rust@jhuapl.edu"}, {"web": "", "fax": "", "bibCode": " 1997uulh.conf.....W", "end": "1997-05-04", "title": "The Ultraviolet Universe at Low and High Redshift: Probing the Progress of Galaxy Evolution", "meetingNumber": "121", "modified": "Jun 04, 2009 12:00:00 AM", "start": "1997-05-02", "GoogleMapsResponse": {"status": "OK", "results": [{"geometry": {"location_type": "APPROXIMATE", "bounds": {"northeast": {"lat": 39.025559, "lng": -76.9091469}, "southwest": {"lat": 38.971109, "lng": -76.965351}}, "viewport": {"northeast": {"lat": 39.025559, "lng": -76.9091469}, "southwest": {"lat": 38.971109, "lng": -76.965351}}, "location": {"lat": 38.9896967, "lng": -76.93776}}, "address_components": [{"long_name": "College Park", "types": ["locality", "political"], "short_name": "College Park"}, {"long_name": "Berwyn", "types": ["administrative_area_level_3", "political"], "short_name": "21, Berwyn"}, {"long_name": "Prince George's County", "types": ["administrative_area_level_2", "political"], "short_name": "Prince George's County"}, {"long_name": "Maryland", "types": ["administrative_area_level_1", "political"], "short_name": "MD"}, {"long_name": "United States", "types": ["country", "political"], "short_name": "US"}], "formatted_address": "College Park, MD, USA", "types": ["locality", "political"]}]}, "phone": "", "contact": "Bill Waller", "location": "", "address": "College Park, Maryland", "keywords": "universe", "ingested": "Oct 04, 1996 12:00:00 AM", "email": "waller@stars.gsfc.nasa.gov"}, {"web": "", "fax": "+410 338 5080", "bibCode": "1998hdf..symp.....L", "end": "1997-05-09", "title": "STScI May Symposium: The Hubble Deep Field", "meetingNumber": "117", "modified": "Jun 04, 2009 12:00:00 AM", "start": "1997-05-06", "GoogleMapsResponse": {"status": "OK", "results": [{"geometry": {"location_type": "APPROXIMATE", "bounds": {"northeast": {"lat": 39.3331337, "lng": -76.6227219}, "southwest": {"lat": 39.3323192, "lng": -76.6238451}}, "viewport": {"northeast": {"lat": 39.3340754302915, "lng": -76.6219345197085}, "southwest": {"lat": 39.33137746970851, "lng": -76.62463248029151}}, "location": {"lat": 39.3327755, "lng": -76.6233337}}, "address_components": [{"long_name": "Steven Muller Building Space Telescope Science Institute", "types": ["premise"], "short_name": "Steven Muller Bldg Space Telescope Science Institute"}, {"long_name": "Johns-Hopkins - Homewood", "types": ["neighborhood", "political"], "short_name": "Johns-Hopkins - Homewood"}, {"long_name": "Baltimore", "types": ["locality", "political"], "short_name": "Baltimore"}, {"long_name": "Maryland", "types": ["administrative_area_level_1", "political"], "short_name": "MD"}, {"long_name": "United States", "types": ["country", "political"], "short_name": "US"}, {"long_name": "21210", "types": ["postal_code"], "short_name": "21210"}], "partial_match": true, "formatted_address": "Steven Muller Building Space Telescope Science Institute, Baltimore, MD 21210, USA", "types": ["premise"]}]}, "phone": "+410 338 4404", "contact": "Cheryl Schmidt", "location": "Space Telescope Institute, Baltimore, MD, USA", "address": "STScI, 3700 San Martin Drive, Baltimore, MD, 21218", "keywords": "", "ingested": "Dec 05, 1996 12:00:00 AM", "email": "schmidt@stsci.edu"}, {"web": "", "fax": "+913 864 5827", "bibCode": "", "end": "1997-05-12", "title": "Dynamics and Statistics of Large Scale Structure in the Universe", "meetingNumber": "105", "modified": "Sep 30, 1998 12:00:00 AM", "start": "1997-05-11", "GoogleMapsResponse": {"status": "OK", "results": [{"geometry": {"location_type": "APPROXIMATE", "bounds": {"northeast": {"lat": 39.03360110000001, "lng": -95.16655999999999}, "southwest": {"lat": 38.913376, "lng": -95.3352939}}, "viewport": {"northeast": {"lat": 39.03360110000001, "lng": -95.16655999999999}, "southwest": {"lat": 38.913376, "lng": -95.3352939}}, "location": {"lat": 38.9716689, "lng": -95.2352501}}, "address_components": [{"long_name": "Lawrence", "types": ["locality", "political"], "short_name": "Lawrence"}, {"long_name": "Douglas County", "types": ["administrative_area_level_2", "political"], "short_name": "Douglas County"}, {"long_name": "Kansas", "types": ["administrative_area_level_1", "political"], "short_name": "KS"}, {"long_name": "United States", "types": ["country", "political"], "short_name": "US"}], "formatted_address": "Lawrence, KS, USA", "types": ["locality", "political"]}]}, "phone": "+913 864 3968", "contact": "University of Kansas, Attn: CEET", "location": "Lawrence KS (USA)", "address": "University of Kansas, Attn: CEET, Continuing Education Bldg., Lawrence, KS 66045-2608, USA", "keywords": " universe", "ingested": "Nov 11, 1996 12:00:00 AM", "email": "ceet@falcon.cc.ukans.edu"}, {"web": "", "fax": "", "bibCode": " 1997ESASP.402......", "end": "1997-05-16", "title": "Hipparcos Venice 1997 Symposium", "meetingNumber": "66", "modified": "Jun 04, 2009 12:00:00 AM", "start": "1997-05-13", "GoogleMapsResponse": {"status": "OK", "results": [{"geometry": {"location_type": "APPROXIMATE", "bounds": {"northeast": {"lat": 45.5779746, "lng": 12.5966574}, "southwest": {"lat": 45.233455, "lng": 12.1668278}}, "viewport": {"northeast": {"lat": 45.5779746, "lng": 12.5966574}, "southwest": {"lat": 45.233455, "lng": 12.1668278}}, "location": {"lat": 45.4408474, "lng": 12.3155151}}, "address_components": [{"long_name": "Venice", "types": ["locality", "political"], "short_name": "Venice"}, {"long_name": "Venice", "types": ["administrative_area_level_3", "political"], "short_name": "Venice"}, {"long_name": "Venice", "types": ["administrative_area_level_2", "political"], "short_name": "VE"}, {"long_name": "Veneto", "types": ["administrative_area_level_1", "political"], "short_name": "Veneto"}, {"long_name": "Italy", "types": ["country", "political"], "short_name": "IT"}], "formatted_address": "Venice, Italy", "types": ["locality", "political"]}]}, "phone": "", "contact": "", "location": "Venice, Italy", "address": "Astrophysics Division, ESA-ESTEC, Noordwijk 220AG, The Netherlands", "keywords": "", "ingested": "Sep 03, 1996 12:00:00 AM", "email": "venice97@astro.estec.esa.nl"}, {"web": "", "fax": "307 766 2652", "bibCode": "1998orig.conf.....W", "end": "1997-05-23", "title": "International Origins Conference", "meetingNumber": "130", "modified": "Jun 04, 2009 12:00:00 AM", "start": "1997-05-19", "phone": "307 766 6150", "contact": "Chick Woodward", "location": "University of Colorado and Wyoming / NASA HQ", "address": "University of Wyomming, Dept of Physics and Astronomy, Laramie, Wyomming, USA, 82071 3905", "keywords": "", "ingested": "Dec 18, 1996 12:00:00 AM", "email": "origins@kaya.uwyo.edu"}, {"web": "", "fax": "+39-91-233444", "bibCode": " 1997MmSAI..68..783M", "end": "1997-05-23", "title": "Cool Stars in Clusters and Associations: Magnetic Activity and Age Indicators", "meetingNumber": "150", "modified": "Jul 02, 2009 12:00:00 AM", "start": "1997-05-20", "GoogleMapsResponse": {"status": "OK", "results": [{"geometry": {"location": {"lat": 38.1115261, "lng": 13.3533009}, "viewport": {"northeast": {"lat": 38.1128750802915, "lng": 13.3546498802915}, "southwest": {"lat": 38.1101771197085, "lng": 13.3519519197085}}, "location_type": "APPROXIMATE"}, "address_components": [{"long_name": "Osservatorio Astronomico Di Palermo Giuseppe S. Vaiana", "types": ["point_of_interest", "establishment"], "short_name": "Osservatorio Astronomico Di Palermo Giuseppe S. Vaiana"}, {"long_name": "Piazza del Parlamento", "types": ["route"], "short_name": "Piazza del Parlamento"}, {"long_name": "Palermo", "types": ["locality", "political"], "short_name": "Palermo"}, {"long_name": "Palermo", "types": ["administrative_area_level_3", "political"], "short_name": "Palermo"}, {"long_name": "Palermo", "types": ["administrative_area_level_2", "political"], "short_name": "PA"}, {"long_name": "Sicilia", "types": ["administrative_area_level_1", "political"], "short_name": "Sicilia"}, {"long_name": "Italy", "types": ["country", "political"], "short_name": "IT"}, {"long_name": "90134", "types": ["postal_code"], "short_name": "90134"}], "formatted_address": "Osservatorio Astronomico Di Palermo Giuseppe S. Vaiana, Piazza del Parlamento, 90134 Palermo, Italy", "types": ["point_of_interest", "establishment"]}, {"geometry": {"location": {"lat": 38.1095238, "lng": 13.3718865}, "viewport": {"northeast": {"lat": 38.1108727802915, "lng": 13.3732354802915}, "southwest": {"lat": 38.1081748197085, "lng": 13.3705375197085}}, "location_type": "APPROXIMATE"}, "address_components": [{"long_name": "Osservatorio Astronomico Di Palermo Giuseppe S. Vaiana", "types": ["point_of_interest", "establishment"], "short_name": "Osservatorio Astronomico Di Palermo Giuseppe S. Vaiana"}, {"long_name": "31", "types": ["street_number"], "short_name": "31"}, {"long_name": "Via Gian Filippo Ingrassia", "types": ["route"], "short_name": "Via Gian Filippo Ingrassia"}, {"long_name": "Palermo", "types": ["locality", "political"], "short_name": "Palermo"}, {"long_name": "Palermo", "types": ["administrative_area_level_3", "political"], "short_name": "Palermo"}, {"long_name": "Palermo", "types": ["administrative_area_level_2", "political"], "short_name": "PA"}, {"long_name": "Sicilia", "types": ["administrative_area_level_1", "political"], "short_name": "Sicilia"}, {"long_name": "Italy", "types": ["country", "political"], "short_name": "IT"}, {"long_name": "90123", "types": ["postal_code"], "short_name": "90123"}], "formatted_address": "Osservatorio Astronomico Di Palermo Giuseppe S. Vaiana, Via Gian Filippo Ingrassia, 31, 90123 Palermo, Italy", "types": ["point_of_interest", "establishment"]}]}, "phone": "+39-91-233231", "contact": "Italy", "location": "Osservatorio Astronomico di Palermo ,Giuseppe S. Vaiana, Palermo, Italy.", "address": "Osservatorio Astronomico di Palermo,Palazzo dei Normanni, Piazza del Parlamento 1,I-90134 Palermo,Italy", "keywords": "", "ingested": "Feb 19, 1997 12:00:00 AM", "email": "workshop@oapa.astropa.unipa.it"}, {"web": "", "fax": "+7 8312-369902", "bibCode": "", "end": "1997-06-03", "title": "Third VOLGA International Summer School on Space Plasma Physics", "meetingNumber": "120", "modified": "Sep 30, 1998 12:00:00 AM", "start": "1997-05-22", "GoogleMapsResponse": {"status": "OK", "results": [{"geometry": {"location_type": "APPROXIMATE", "bounds": {"northeast": {"lat": 56.3418961, "lng": 45.4867139}, "southwest": {"lat": 56.03136929999999, "lng": 44.0333378}}, "viewport": {"northeast": {"lat": 56.3418961, "lng": 45.4867139}, "southwest": {"lat": 56.03136929999999, "lng": 44.0333378}}, "location": {"lat": 56.1431744, "lng": 45.2601064}}, "address_components": [{"long_name": "Volga", "types": ["natural_feature", "establishment"], "short_name": "Volga"}, {"long_name": "Nizhegorodskaya oblast", "types": ["administrative_area_level_1", "political"], "short_name": "Nizhegorodskaya oblast"}, {"long_name": "Russia", "types": ["country", "political"], "short_name": "RU"}], "formatted_address": "Volga, Nizhny Novgorod Oblast, Russia", "types": ["natural_feature", "establishment"]}]}, "phone": "+7 8312-360188", "contact": "Prof Lev M. Erukhimov", "location": "Nizhniy Novgorod/Volga River, Russia", "address": "ISS97 Organising Committee, Radiophysical Research Institute, ul. B. Pecherskaya 25/14, Nizhniy Novgorod, Russia,603024", "keywords": "space physics", "ingested": "Dec 11, 1996 12:00:00 AM", "email": "iss97@nirfi.sci-nnov.ru"}, {"web": "", "fax": "", "bibCode": "", "end": "1997-06-06", "title": "Aspen Workshop on Formation of Extrasolar Planets and Brown Dwarfs", "meetingNumber": "97", "modified": "Oct 22, 1996 12:00:00 AM", "start": "1997-05-26", "GoogleMapsResponse": {"status": "OK", "results": [{"geometry": {"location_type": "APPROXIMATE", "bounds": {"northeast": {"lat": 39.21978500000001, "lng": -106.8013911}, "southwest": {"lat": 39.1771779, "lng": -106.8720581}}, "viewport": {"northeast": {"lat": 39.21978500000001, "lng": -106.8013911}, "southwest": {"lat": 39.1771779, "lng": -106.8720581}}, "location": {"lat": 39.1910983, "lng": -106.8175387}}, "address_components": [{"long_name": "Aspen", "types": ["locality", "political"], "short_name": "Aspen"}, {"long_name": "Pitkin County", "types": ["administrative_area_level_2", "political"], "short_name": "Pitkin County"}, {"long_name": "Colorado", "types": ["administrative_area_level_1", "political"], "short_name": "CO"}, {"long_name": "United States", "types": ["country", "political"], "short_name": "US"}], "formatted_address": "Aspen, CO, USA", "types": ["locality", "political"]}]}, "phone": "", "contact": "Aspen Center for Physics", "location": "Aspen, CO", "address": "700 W. Gillespie, Aspen, CO 81611", "keywords": "", "ingested": "Oct 22, 1996 12:00:00 AM", "email": "jane@acp1.zgsw.com"}, {"web": "", "fax": "", "bibCode": "", "end": "1997-06-13", "title": "Aspen Workshop on Microlensing, Dark Matter, and Galactic Structure", "meetingNumber": "98", "modified": "Oct 22, 1996 12:00:00 AM", "start": "1997-05-26", "phone": "", "contact": "Aspen Center for Physics", "location": "Aspen, CO", "address": "700 W. Gillespie, Aspen, CO 81611", "keywords": "", "ingested": "Oct 22, 1996 12:00:00 AM", "email": "jane@acp1.zgsw.com"}, {"web": "", "fax": "", "bibCode": " 1997AIPC..412.....D", "end": "1997-06-02", "title": "Sixth Conference on the Intersections of Particle &amp; Nuclear Physics", "meetingNumber": "54", "modified": "Jul 02, 2009 12:00:00 AM", "start": "1997-05-27", "phone": "505-665-1819", "contact": "Susan Ramsay", "location": "Big Sky, MT", "address": "Los Alamos National Laboratory, MS H844, Los Alamos, NM.  87544", "keywords": "", "ingested": "Aug 27, 1996 12:00:00 AM", "email": "cipanp@lanl.gov"}, {"web": "", "fax": "", "bibCode": "", "end": "1997-06-04", "title": "Clusters of Galaxies at Different Redshifts", "meetingNumber": "94", "modified": "Sep 30, 1998 12:00:00 AM", "start": "1997-05-28", "phone": "", "contact": "Anatoly Klypin", "location": " Ruidoso, NM", "address": "", "keywords": "galaxies", "ingested": "Aug 27, 1996 12:00:00 AM", "email": "aklypin@apollon.nmsu.edu"}, {"web": "", "fax": "", "bibCode": "", "end": "1997-06-13", "title": "Aspen Workshop on Nonlinear Dynamics in Astrophysics and Geophysics", "meetingNumber": "99", "modified": "Oct 22, 1996 12:00:00 AM", "start": "1997-06-02", "phone": "", "contact": "Aspen Center for Physics", "location": "Aspen, CO", "address": "700 W. Gillespie, Aspen, CO 81611", "keywords": "", "ingested": "Oct 22, 1996 12:00:00 AM", "email": "jane@acp1.zgsw.com"}, {"web": "", "fax": "33 (0)4 91 82 72 99", "bibCode": "1997hecn.conf......", "end": "1997-06-03", "title": "High Energy Cosmic Neutrinos: Origin, Production and Detection", "meetingNumber": "142", "modified": "Sep 30, 1998 12:00:00 AM", "start": "1997-06-02", "phone": "33 (0)4 91 82 72 00", "contact": "S. BASA", "location": "Marseille - Luminy , France", "address": "CPPM, 163 Avenue de Luminy, Case 907, Marseille Cedex 09 France,13288", "keywords": " neutrinos", "ingested": "Feb 05, 1997 12:00:00 AM", "email": "gonzalez@cppm.in2p3.fr"}, {"web": "", "fax": "", "bibCode": "", "end": "1997-07-05", "title": "Observational Astronomy and Astrophysics, 6th Summer School of the Vatican Observatory", "meetingNumber": "86", "modified": "Jun 04, 2009 12:00:00 AM", "start": "1997-06-08", "GoogleMapsResponse": {"status": "OK", "results": [{"geometry": {"location_type": "APPROXIMATE", "bounds": {"northeast": {"lat": 41.764207, "lng": 12.6760371}, "southwest": {"lat": 41.7332949, "lng": 12.6296329}}, "viewport": {"northeast": {"lat": 41.764207, "lng": 12.6760371}, "southwest": {"lat": 41.7332949, "lng": 12.6296329}}, "location": {"lat": 41.7497932, "lng": 12.6485192}}, "address_components": [{"long_name": "Castel Gandolfo", "types": ["locality", "political"], "short_name": "Castel Gandolfo"}, {"long_name": "Castel Gandolfo", "types": ["administrative_area_level_3", "political"], "short_name": "Castel Gandolfo"}, {"long_name": "Rome", "types": ["administrative_area_level_2", "political"], "short_name": "RM"}, {"long_name": "Lazio", "types": ["administrative_area_level_1", "political"], "short_name": "Lazio"}, {"long_name": "Italy", "types": ["country", "political"], "short_name": "IT"}], "formatted_address": "Castel Gandolfo Rome, Italy", "types": ["locality", "political"]}]}, "phone": "", "contact": "Dr. George Coyne, S.J.", "location": "Castel Gandolfo, Rome, Italy", "address": "VORG/Steward Observatory, University of Arizona, Tucson, AZ, USA,85721", "keywords": "", "ingested": "Sep 03, 1996 12:00:00 AM", "email": "gcoyne@as.arizona.edu"}, {"web": "", "fax": "", "bibCode": "1997AAS...190......", "end": "1997-06-12", "title": "190th. Meeting of the AAS", "meetingNumber": "124", "modified": "Apr 28, 1999 12:00:00 AM", "start": "1997-06-08", "GoogleMapsResponse": {"status": "OK", "results": [{"geometry": {"location_type": "APPROXIMATE", "bounds": {"northeast": {"lat": 36.212599, "lng": -80.1009689}, "southwest": {"lat": 35.996545, "lng": -80.3859469}}, "viewport": {"northeast": {"lat": 36.212599, "lng": -80.1009689}, "southwest": {"lat": 35.996545, "lng": -80.3859469}}, "location": {"lat": 36.09985959999999, "lng": -80.244216}}, "address_components": [{"long_name": "Winston-Salem", "types": ["locality", "political"], "short_name": "Winston-Salem"}, {"long_name": "Winston", "types": ["administrative_area_level_3", "political"], "short_name": "Winston"}, {"long_name": "Forsyth County", "types": ["administrative_area_level_2", "political"], "short_name": "Forsyth County"}, {"long_name": "North Carolina", "types": ["administrative_area_level_1", "political"], "short_name": "NC"}, {"long_name": "United States", "types": ["country", "political"], "short_name": "US"}], "formatted_address": "Winston-Salem, NC, USA", "types": ["locality", "political"]}]}, "phone": "", "contact": "John Blondin", "location": "Winston-Salem, NC", "address": "", "keywords": "", "ingested": "Dec 11, 1996 12:00:00 AM", "email": "blondin@ncsu.edu"}, {"web": "", "fax": "(33) 01 45 07 78 72", "bibCode": " 1998best.work.....H", "end": "1997-06-12", "title": "B[e] Stars, Workshop", "meetingNumber": "166", "modified": "Jul 07, 1999 12:00:00 AM", "start": "1997-06-09", "GoogleMapsResponse": {"status": "OK", "results": [{"geometry": {"location_type": "APPROXIMATE", "bounds": {"northeast": {"lat": 48.9021449, "lng": 2.4699208}, "southwest": {"lat": 48.815573, "lng": 2.224199}}, "viewport": {"northeast": {"lat": 48.9021449, "lng": 2.4699208}, "southwest": {"lat": 48.815573, "lng": 2.224199}}, "location": {"lat": 48.856614, "lng": 2.3522219}}, "address_components": [{"long_name": "Paris", "types": ["locality", "political"], "short_name": "Paris"}, {"long_name": "Paris", "types": ["administrative_area_level_2", "political"], "short_name": "75"}, {"long_name": "\u00cele-de-France", "types": ["administrative_area_level_1", "political"], "short_name": "IDF"}, {"long_name": "France", "types": ["country", "political"], "short_name": "FR"}], "partial_match": true, "formatted_address": "Paris, France", "types": ["locality", "political"]}, {"geometry": {"location_type": "APPROXIMATE", "bounds": {"northeast": {"lat": 33.7383781, "lng": -95.435455}, "southwest": {"lat": 33.6118529, "lng": -95.62792789999999}}, "viewport": {"northeast": {"lat": 33.7383781, "lng": -95.435455}, "southwest": {"lat": 33.6118529, "lng": -95.62792789999999}}, "location": {"lat": 33.6609389, "lng": -95.55551299999999}}, "address_components": [{"long_name": "Paris", "types": ["locality", "political"], "short_name": "Paris"}, {"long_name": "Lamar County", "types": ["administrative_area_level_2", "political"], "short_name": "Lamar County"}, {"long_name": "Texas", "types": ["administrative_area_level_1", "political"], "short_name": "TX"}, {"long_name": "United States", "types": ["country", "political"], "short_name": "US"}], "partial_match": true, "formatted_address": "Paris, TX, USA", "types": ["locality", "political"]}, {"geometry": {"location_type": "APPROXIMATE", "bounds": {"northeast": {"lat": 36.3291321, "lng": -88.2650759}, "southwest": {"lat": 36.266, "lng": -88.36711489999999}}, "viewport": {"northeast": {"lat": 36.3291321, "lng": -88.2650759}, "southwest": {"lat": 36.266, "lng": -88.36711489999999}}, "location": {"lat": 36.3020023, "lng": -88.32671069999999}}, "address_components": [{"long_name": "Paris", "types": ["locality", "political"], "short_name": "Paris"}, {"long_name": "Henry County", "types": ["administrative_area_level_2", "political"], "short_name": "Henry County"}, {"long_name": "Tennessee", "types": ["administrative_area_level_1", "political"], "short_name": "TN"}, {"long_name": "United States", "types": ["country", "political"], "short_name": "US"}, {"long_name": "38242", "types": ["postal_code"], "short_name": "38242"}], "partial_match": true, "formatted_address": "Paris, TN 38242, USA", "types": ["locality", "political"]}, {"geometry": {"location_type": "APPROXIMATE", "bounds": {"northeast": {"lat": 39.6485756, "lng": -87.6505408}, "southwest": {"lat": 39.581415, "lng": -87.721046}}, "viewport": {"northeast": {"lat": 39.6485756, "lng": -87.6505408}, "southwest": {"lat": 39.581415, "lng": -87.721046}}, "location": {"lat": 39.611146, "lng": -87.6961374}}, "address_components": [{"long_name": "Paris", "types": ["locality", "political"], "short_name": "Paris"}, {"long_name": "Paris", "types": ["administrative_area_level_3", "political"], "short_name": "Paris"}, {"long_name": "Edgar County", "types": ["administrative_area_level_2", "political"], "short_name": "Edgar County"}, {"long_name": "Illinois", "types": ["administrative_area_level_1", "political"], "short_name": "IL"}, {"long_name": "United States", "types": ["country", "political"], "short_name": "US"}, {"long_name": "61944", "types": ["postal_code"], "short_name": "61944"}], "partial_match": true, "formatted_address": "Paris, IL 61944, USA", "types": ["locality", "political"]}, {"geometry": {"location_type": "APPROXIMATE", "bounds": {"northeast": {"lat": 38.238271, "lng": -84.232089}, "southwest": {"lat": 38.164922, "lng": -84.3073259}}, "viewport": {"northeast": {"lat": 38.238271, "lng": -84.232089}, "southwest": {"lat": 38.164922, "lng": -84.3073259}}, "location": {"lat": 38.2097987, "lng": -84.2529869}}, "address_components": [{"long_name": "Paris", "types": ["locality", "political"], "short_name": "Paris"}, {"long_name": "Bourbon County", "types": ["administrative_area_level_2", "political"], "short_name": "Bourbon County"}, {"long_name": "Kentucky", "types": ["administrative_area_level_1", "political"], "short_name": "KY"}, {"long_name": "United States", "types": ["country", "political"], "short_name": "US"}, {"long_name": "40361", "types": ["postal_code"], "short_name": "40361"}], "partial_match": true, "formatted_address": "Paris, KY 40361, USA", "types": ["locality", "political"]}, {"geometry": {"location_type": "APPROXIMATE", "bounds": {"northeast": {"lat": 44.31228309999999, "lng": -70.4148551}, "southwest": {"lat": 44.1753699, "lng": -70.566172}}, "viewport": {"northeast": {"lat": 44.31228309999999, "lng": -70.4148551}, "southwest": {"lat": 44.1753699, "lng": -70.566172}}, "location": {"lat": 44.2597917, "lng": -70.5006152}}, "address_components": [{"long_name": "Paris", "types": ["locality", "political"], "short_name": "Paris"}, {"long_name": "Oxford County", "types": ["administrative_area_level_2", "political"], "short_name": "Oxford County"}, {"long_name": "Maine", "types": ["administrative_area_level_1", "political"], "short_name": "ME"}, {"long_name": "United States", "types": ["country", "political"], "short_name": "US"}], "partial_match": true, "formatted_address": "Paris, ME, USA", "types": ["locality", "political"]}]}, "phone": "(33) 01 45 07 78 56", "contact": "Anne Marie HUBERT", "location": "Paris - Institut d'Astrophysique/Observatoire de Paris", "address": "Observatoire de Paris-Meudon,Place Janssen,Meudon,France,92195 Meudon Cedex", "keywords": "Be stars", "ingested": "May 06, 1997 12:00:00 AM", "email": "anne-marie.hubert@obspm.fr"}, {"web": "", "fax": "", "bibCode": " 1998ASPC..137.....H", "end": "1997-06-18", "title": "13TH North American Workshop on Cataclysmic Variables", "meetingNumber": "79", "modified": "Jul 06, 2009 12:00:00 AM", "start": "1997-06-13", "GoogleMapsResponse": {"status": "OK", "results": [{"geometry": {"location_type": "APPROXIMATE", "bounds": {"northeast": {"lat": 41.3209075, "lng": -105.5447174}, "southwest": {"lat": 41.308071, "lng": -105.586809}}, "viewport": {"northeast": {"lat": 41.3209075, "lng": -105.5447174}, "southwest": {"lat": 41.308071, "lng": -105.586809}}, "location": {"lat": 41.3130972, "lng": -105.5796706}}, "address_components": [{"long_name": "University of Wyoming", "types": ["establishment"], "short_name": "University of Wyoming"}, {"long_name": "1000", "types": ["street_number"], "short_name": "1000"}, {"long_name": "E University Ave", "types": ["route"], "short_name": "E University Ave"}, {"long_name": "Laramie", "types": ["locality", "political"], "short_name": "Laramie"}, {"long_name": "Albany County", "types": ["administrative_area_level_2", "political"], "short_name": "Albany County"}, {"long_name": "WY", "types": ["administrative_area_level_1", "political"], "short_name": "WY"}, {"long_name": "United States", "types": ["country", "political"], "short_name": "US"}, {"long_name": "82071", "types": ["postal_code"], "short_name": "82071"}], "formatted_address": "University of Wyoming, 1000 E University Ave, Laramie, WY 82071", "types": ["university", "establishment"]}]}, "phone": "", "contact": "Dr. Steve B. Howell", "location": "University of Wyoming", "address": "Dept. Of Physics and Astronomy, University of Wyoming,P.O. Box 3905, Laramie, WY, 82071", "keywords": "", "ingested": "Oct 03, 1996 12:00:00 AM", "email": ""}, {"web": "", "fax": "", "bibCode": "", "end": "1997-06-18", "title": "Annual Meeting of the Canadian Astronomical Society", "meetingNumber": "7", "modified": "Apr 17, 2001 12:00:00 AM", "start": "1997-06-14", "GoogleMapsResponse": {"status": "OK", "results": [{"geometry": {"location_type": "APPROXIMATE", "bounds": {"northeast": {"lat": 53.7160999, "lng": -113.2731591}, "southwest": {"lat": 53.395655, "lng": -113.7147381}}, "viewport": {"northeast": {"lat": 53.7160999, "lng": -113.2731591}, "southwest": {"lat": 53.395655, "lng": -113.7147381}}, "location": {"lat": 53.544389, "lng": -113.4909267}}, "address_components": [{"long_name": "Edmonton", "types": ["locality", "political"], "short_name": "Edmonton"}, {"long_name": "Division No. 11", "types": ["administrative_area_level_2", "political"], "short_name": "Division No. 11"}, {"long_name": "Alberta", "types": ["administrative_area_level_1", "political"], "short_name": "AB"}, {"long_name": "Canada", "types": ["country", "political"], "short_name": "CA"}], "formatted_address": "Edmonton, AB, Canada", "types": ["locality", "political"]}]}, "phone": "401.492.5410", "contact": "Douglas P. Hube, Professor and Associate chairman", "location": "Edmonton, Canada", "address": "Department of physics, University of Alberta, Edmonton, Alberta, Canada, T6G 2J1", "keywords": "", "ingested": "Aug 27, 1996 12:00:00 AM", "email": "hube@phys.ualberta.ca"}, {"web": "", "fax": "", "bibCode": "", "end": "1997-06-20", "title": "Gordon Research Conference on Origins of Solar Systems", "meetingNumber": "80", "modified": "Oct 04, 1996 12:00:00 AM", "start": "1997-06-15", "GoogleMapsResponse": {"status": "OK", "results": [{"geometry": {"location_type": "APPROXIMATE", "bounds": {"northeast": {"lat": 43.231922, "lng": -71.733116}, "southwest": {"lat": 43.115383, "lng": -71.9132549}}, "viewport": {"northeast": {"lat": 43.231922, "lng": -71.733116}, "southwest": {"lat": 43.115383, "lng": -71.9132549}}, "location": {"lat": 43.1798323, "lng": -71.82228719999999}}, "address_components": [{"long_name": "Henniker", "types": ["locality", "political"], "short_name": "Henniker"}, {"long_name": "Merrimack County", "types": ["administrative_area_level_2", "political"], "short_name": "Merrimack County"}, {"long_name": "New Hampshire", "types": ["administrative_area_level_1", "political"], "short_name": "NH"}, {"long_name": "United States", "types": ["country", "political"], "short_name": "US"}], "formatted_address": "Henniker, NH, USA", "types": ["locality", "political"]}, {"geometry": {"location_type": "APPROXIMATE", "bounds": {"northeast": {"lat": 43.1906139, "lng": -71.792765}, "southwest": {"lat": 43.1732978, "lng": -71.838331}}, "viewport": {"northeast": {"lat": 43.1906139, "lng": -71.792765}, "southwest": {"lat": 43.1732978, "lng": -71.838331}}, "location": {"lat": 43.1798012, "lng": -71.822301}}, "address_components": [{"long_name": "Henniker", "types": ["sublocality", "political"], "short_name": "Henniker"}, {"long_name": "Henniker", "types": ["locality", "political"], "short_name": "Henniker"}, {"long_name": "Merrimack County", "types": ["administrative_area_level_2", "political"], "short_name": "Merrimack County"}, {"long_name": "New Hampshire", "types": ["administrative_area_level_1", "political"], "short_name": "NH"}, {"long_name": "United States", "types": ["country", "political"], "short_name": "US"}, {"long_name": "03242", "types": ["postal_code"], "short_name": "03242"}], "formatted_address": "Henniker, NH 03242, USA", "types": ["sublocality", "political"]}]}, "phone": "", "contact": "John Kerridge", "location": "Henniker, New Hampshire", "address": "Dept. of Chemistry 0317, UCSD, La Jolla, CA, 92093", "keywords": "", "ingested": "Oct 04, 1996 12:00:00 AM", "email": "jkerridg@ucsd.edu"}, {"web": "", "fax": "", "bibCode": "", "end": "1997-07-03", "title": "Aspen Workshop on Precision of Large Scale Structure", "meetingNumber": "100", "modified": "Oct 22, 1996 12:00:00 AM", "start": "1997-06-16", "GoogleMapsResponse": {"status": "OK", "results": [{"geometry": {"location_type": "APPROXIMATE", "bounds": {"northeast": {"lat": 39.21978500000001, "lng": -106.8013911}, "southwest": {"lat": 39.1771779, "lng": -106.8720581}}, "viewport": {"northeast": {"lat": 39.21978500000001, "lng": -106.8013911}, "southwest": {"lat": 39.1771779, "lng": -106.8720581}}, "location": {"lat": 39.1910983, "lng": -106.8175387}}, "address_components": [{"long_name": "Aspen", "types": ["locality", "political"], "short_name": "Aspen"}, {"long_name": "Pitkin County", "types": ["administrative_area_level_2", "political"], "short_name": "Pitkin County"}, {"long_name": "Colorado", "types": ["administrative_area_level_1", "political"], "short_name": "CO"}, {"long_name": "United States", "types": ["country", "political"], "short_name": "US"}], "formatted_address": "Aspen, CO, USA", "types": ["locality", "political"]}]}, "phone": "", "contact": "Aspen Center for Physics", "location": "Aspen, CO", "address": "700 W. Gillespie, Aspen, CO 81611", "keywords": "", "ingested": "Oct 22, 1996 12:00:00 AM", "email": "jane@acp1.zgsw.com"}, {"web": "http://www-xdiv.lanl.gov/XTA/pulsation", "fax": "", "bibCode": "1998hcsp.proc.....B", "end": "1997-06-20", "title": "A Half Century of Stellar Pulsation Interpretations-A Tribute to Arthur N. Cox", "meetingNumber": "118", "modified": "Jul 07, 1999 12:00:00 AM", "start": "1997-06-16", "GoogleMapsResponse": {"status": "OK", "results": [{"geometry": {"location_type": "APPROXIMATE", "bounds": {"northeast": {"lat": 35.913289, "lng": -106.2453951}, "southwest": {"lat": 35.8705559, "lng": -106.334687}}, "viewport": {"northeast": {"lat": 35.913289, "lng": -106.2453951}, "southwest": {"lat": 35.8705559, "lng": -106.334687}}, "location": {"lat": 35.8880796, "lng": -106.3069722}}, "address_components": [{"long_name": "Los Alamos", "types": ["locality", "political"], "short_name": "Los Alamos"}, {"long_name": "Los Alamos County", "types": ["administrative_area_level_2", "political"], "short_name": "Los Alamos County"}, {"long_name": "New Mexico", "types": ["administrative_area_level_1", "political"], "short_name": "NM"}, {"long_name": "United States", "types": ["country", "political"], "short_name": "US"}, {"long_name": "87544", "types": ["postal_code"], "short_name": "87544"}], "formatted_address": "Los Alamos, NM 87544, USA", "types": ["locality", "political"]}]}, "phone": "", "contact": "Joyce A. Guzik", "location": "Los Alamos, NM", "address": "Los Alamos National Laboratory", "keywords": "", "ingested": "Aug 27, 1996 12:00:00 AM", "email": "joy@lanl.gov"}, {"web": "", "fax": "43-1-21345-5830", "bibCode": " 1998JAHH....1..105H", "end": "1997-06-20", "title": "Small Astronomical Telescopes and Satellites in Education and Research,7th UN/ESA Workshop on Basic Space Science", "meetingNumber": "146", "modified": "Jul 06, 2009 12:00:00 AM", "start": "1997-06-16", "GoogleMapsResponse": {"status": "OK", "results": [{"geometry": {"location_type": "APPROXIMATE", "bounds": {"northeast": {"lat": 14.0916835, "lng": -87.1586608}, "southwest": {"lat": 14.0821982, "lng": -87.17144429999999}}, "viewport": {"northeast": {"lat": 14.0916835, "lng": -87.1586608}, "southwest": {"lat": 14.0821982, "lng": -87.17144429999999}}, "location": {"lat": 14.0850246, "lng": -87.1659731}}, "address_components": [{"long_name": "Universidad Nacional Aut\u00f3noma de Honduras", "types": ["establishment"], "short_name": "Universidad Nacional Aut\u00f3noma de Honduras"}, {"long_name": "Blvd. Suyapa Ciudad Universitaria", "types": ["route"], "short_name": "Blvd. Suyapa Ciudad Universitaria"}, {"long_name": "Villa Olimpica", "types": ["sublocality", "political"], "short_name": "Villa Olimpica"}, {"long_name": "Tegucigalpa", "types": ["locality", "political"], "short_name": "Tegucigalpa"}, {"long_name": "Francisco Moraz\u00e1n", "types": ["administrative_area_level_1", "political"], "short_name": "Francisco Moraz\u00e1n"}, {"long_name": "Honduras", "types": ["country", "political"], "short_name": "HN"}], "partial_match": true, "formatted_address": "Universidad Nacional Aut\u00f3noma de Honduras, Blvd. Suyapa Ciudad Universitaria, Tegucigalpa", "types": ["university", "establishment"]}]}, "phone": "43-1-21-345-4949", "contact": "Prof. Hans J. HAUBOLD", "location": "Universidad Nacional Autonoma de Honduras,Tegucigalpa M.D.C., HONDURAS", "address": "UNITED NATIONS. Vienna International Centre,Room F-0839. P.O. Box 500,Vienna, Austria, A-1400", "keywords": "small telescopes, satellites", "ingested": "Feb 07, 1997 12:00:00 AM", "email": "haubold@eunet.co.at"}, {"web": "", "fax": "+33 (0)4 91 66 18 55", "bibCode": "1998ucb..proc.....M", "end": "1997-06-20", "title": "A New Vision of an Old Cluster: Untangling Coma Berenices", "meetingNumber": "134", "modified": "Jun 04, 2009 12:00:00 AM", "start": "1997-06-17", "GoogleMapsResponse": {"status": "OK", "results": [{"geometry": {"location_type": "APPROXIMATE", "bounds": {"northeast": {"lat": 43.3911601, "lng": 5.5323519}, "southwest": {"lat": 43.169621, "lng": 5.228641}}, "viewport": {"northeast": {"lat": 43.3911601, "lng": 5.5323519}, "southwest": {"lat": 43.169621, "lng": 5.277926100000001}}, "location": {"lat": 43.296482, "lng": 5.36978}}, "address_components": [{"long_name": "Marseille", "types": ["locality", "political"], "short_name": "Marseille"}, {"long_name": "Bouches-du-Rhone", "types": ["administrative_area_level_2", "political"], "short_name": "13"}, {"long_name": "Provence-Alpes-C\u00f4te d'Azur", "types": ["administrative_area_level_1", "political"], "short_name": "PACA"}, {"long_name": "France", "types": ["country", "political"], "short_name": "FR"}], "formatted_address": "Marseille, France", "types": ["locality", "political"]}]}, "phone": "+33 (0)4 91 05 59 02", "contact": "A. Mazure", "location": "Marseille, France", "address": "Laboratoire d'Astronomie Spatiale, BP 8, Marseille, France, 13376", "keywords": "", "ingested": "Jan 06, 1997 12:00:00 AM", "email": "mazure@astrsp-mrs.fr"}, {"web": "", "fax": "301 286 1684", "bibCode": "", "end": "1997-06-20", "title": "X-ray Surveys Workshop", "meetingNumber": "143", "modified": "Jun 04, 2009 12:00:00 AM", "start": "1997-06-18", "phone": "301 286 8443", "contact": "Nicholas White", "location": "Astrophysikalisches Institut Potsdam, Germany", "address": "NASA-GSFC, Code 662, Greenbelt, MD, 20771", "keywords": "", "ingested": "Feb 05, 1997 12:00:00 AM", "email": "white@adhoc.gsfc.nasa.gov"}, {"web": "", "fax": "", "bibCode": "", "end": "1997-07-04", "title": "International Workshop on Synthesis of Light Elements in the Early Universe", "meetingNumber": "103", "modified": "Oct 23, 1996 12:00:00 AM", "start": "1997-06-23", "phone": "", "contact": "Hannu Kurki-Suonio", "location": "Trento, Italy", "address": "Dept. Of Physics, Theory Division, P.O. Box 9, FIN-00014, Univ. of Helsinki,Finland", "keywords": "", "ingested": "Oct 23, 1996 12:00:00 AM", "email": "hkurkisu@pcu.helsinki.fi"}, {"web": "", "fax": "", "bibCode": "", "end": "1997-06-28", "title": "Planetary Systems: the Long View (9th Recontres de Blois)", "meetingNumber": "115", "modified": "Dec 01, 1996 12:00:00 AM", "start": "1997-06-23", "phone": "", "contact": "Recontres de Moriond", "location": "Blois, France", "address": "Bat. 211, Univ. Paris-Sud, F-91405, Orsay Cedex, France", "keywords": "", "ingested": "Aug 27, 1996 12:00:00 AM", "email": "trantv@frcpn11.in2p3.fr"}, {"web": "", "fax": "+351 1 757 3619", "bibCode": "1998sfis.conf.....Y", "end": "1997-06-26", "title": "Star Formation with the Infrared Space Observatory", "meetingNumber": "135", "modified": "Apr 17, 2001 12:00:00 AM", "start": "1997-06-24", "phone": "", "contact": "Joao L. Yun", "location": "Lisbon, Portugal", "address": "University of Lisbon, Campo Grande, Edif. C1, Lisbon, Portugal, 1700 Lisboa", "keywords": "", "ingested": "Jan 07, 1997 12:00:00 AM", "email": "yun@astro.cc.fc.ul.pt"}, {"web": "", "fax": "", "bibCode": "1998sfis.conf.....Y", "end": "1997-06-26", "title": "Star Formation with the Infrared Space Observatory", "meetingNumber": "55", "modified": "May 04, 1999 12:00:00 AM", "start": "1997-06-24", "phone": "", "contact": "", "location": "Lisbon, Portugal", "address": "", "keywords": "", "ingested": "Aug 27, 1996 12:00:00 AM", "email": "yun@delphi.cc.fc.ul.pt"}, {"web": "http://astro.u-strasbg.fr/howfar97.html", "fax": "+33-(0)3 88 15 07 60", "bibCode": "", "end": "1997-06-27", "title": "How far can you go ? A critical review  of the distance scale of the Universe", "meetingNumber": "164", "modified": "May 01, 1997 12:00:00 AM", "start": "1997-06-25", "GoogleMapsResponse": {"status": "OK", "results": [{"geometry": {"location_type": "GEOMETRIC_CENTER", "bounds": {"northeast": {"lat": 48.5906165, "lng": 7.746731199999998}, "southwest": {"lat": 48.5865672, "lng": 7.744531200000001}}, "viewport": {"northeast": {"lat": 48.5906165, "lng": 7.746980180291501}, "southwest": {"lat": 48.5865672, "lng": 7.744282219708497}}, "location": {"lat": 48.5888308, "lng": 7.745520699999999}}, "address_components": [{"long_name": "Rue du Faubourg de Pierre", "types": ["route"], "short_name": "Rue du Faub. de Pierre"}, {"long_name": "Strasbourg", "types": ["locality", "political"], "short_name": "Strasbourg"}, {"long_name": "Bas-Rhin", "types": ["administrative_area_level_2", "political"], "short_name": "67"}, {"long_name": "Alsace", "types": ["administrative_area_level_1", "political"], "short_name": "Alsace"}, {"long_name": "France", "types": ["country", "political"], "short_name": "FR"}, {"long_name": "67000", "types": ["postal_code"], "short_name": "67000"}], "partial_match": true, "formatted_address": "Rue du Faubourg de Pierre, 67000 Strasbourg, France", "types": ["route"]}, {"geometry": {"location_type": "GEOMETRIC_CENTER", "bounds": {"northeast": {"lat": 48.583367, "lng": 7.7402824}, "southwest": {"lat": 48.5826945, "lng": 7.7392001}}, "viewport": {"northeast": {"lat": 48.5843797302915, "lng": 7.741090230291502}, "southwest": {"lat": 48.5816817697085, "lng": 7.738392269708497}}, "location": {"lat": 48.5830667, "lng": 7.739761}}, "address_components": [{"long_name": "Place Saint-Pierre le Vieux", "types": ["route"], "short_name": "Pl. Saint-Pierre le Vieux"}, {"long_name": "Petite-France", "types": ["neighborhood", "political"], "short_name": "Petite-France"}, {"long_name": "Strasbourg", "types": ["locality", "political"], "short_name": "Strasbourg"}, {"long_name": "Bas-Rhin", "types": ["administrative_area_level_2", "political"], "short_name": "67"}, {"long_name": "Alsace", "types": ["administrative_area_level_1", "political"], "short_name": "Alsace"}, {"long_name": "France", "types": ["country", "political"], "short_name": "FR"}, {"long_name": "67000", "types": ["postal_code"], "short_name": "67000"}], "partial_match": true, "formatted_address": "Place Saint-Pierre le Vieux, 67000 Strasbourg, France", "types": ["route"]}, {"geometry": {"location_type": "GEOMETRIC_CENTER", "bounds": {"northeast": {"lat": 48.5751701, "lng": 7.759201500000001}, "southwest": {"lat": 48.5715438, "lng": 7.7539665}}, "viewport": {"northeast": {"lat": 48.5751701, "lng": 7.759201500000001}, "southwest": {"lat": 48.5715438, "lng": 7.7539665}}, "location": {"lat": 48.5732921, "lng": 7.756609799999999}}, "address_components": [{"long_name": "Rond-point Pierre Mend\u00e8s France", "types": ["route"], "short_name": "Rond-point Pierre Mend\u00e8s France"}, {"long_name": "Strasbourg", "types": ["locality", "political"], "short_name": "Strasbourg"}, {"long_name": "Bas-Rhin", "types": ["administrative_area_level_2", "political"], "short_name": "67"}, {"long_name": "Alsace", "types": ["administrative_area_level_1", "political"], "short_name": "Alsace"}, {"long_name": "France", "types": ["country", "political"], "short_name": "FR"}], "partial_match": true, "formatted_address": "Rond-point Pierre Mend\u00e8s France, Strasbourg, France", "types": ["route"]}, {"geometry": {"location_type": "GEOMETRIC_CENTER", "bounds": {"northeast": {"lat": 48.5856368, "lng": 7.7474789}, "southwest": {"lat": 48.58498710000001, "lng": 7.7462956}}, "viewport": {"northeast": {"lat": 48.58666093029151, "lng": 7.748236230291502}, "southwest": {"lat": 48.58396296970851, "lng": 7.745538269708497}}, "location": {"lat": 48.5854066, "lng": 7.746813700000001}}, "address_components": [{"long_name": "Place Saint-Pierre le Jeune", "types": ["route"], "short_name": "Pl. Saint-Pierre le Jeune"}, {"long_name": "Strasbourg", "types": ["locality", "political"], "short_name": "Strasbourg"}, {"long_name": "Bas-Rhin", "types": ["administrative_area_level_2", "political"], "short_name": "67"}, {"long_name": "Alsace", "types": ["administrative_area_level_1", "political"], "short_name": "Alsace"}, {"long_name": "France", "types": ["country", "political"], "short_name": "FR"}, {"long_name": "67000", "types": ["postal_code"], "short_name": "67000"}], "partial_match": true, "formatted_address": "Place Saint-Pierre le Jeune, 67000 Strasbourg, France", "types": ["route"]}, {"geometry": {"location_type": "GEOMETRIC_CENTER", "bounds": {"northeast": {"lat": 48.590411, "lng": 7.744633400000001}, "southwest": {"lat": 48.58979370000001, "lng": 7.744323}}, "viewport": {"northeast": {"lat": 48.59145133029151, "lng": 7.745827180291503}, "southwest": {"lat": 48.58875336970851, "lng": 7.743129219708498}}, "location": {"lat": 48.59011779999999, "lng": 7.744496700000001}}, "address_components": [{"long_name": "Place du Faubourg de Pierre", "types": ["route"], "short_name": "Pl. du Faub. de Pierre"}, {"long_name": "Strasbourg", "types": ["locality", "political"], "short_name": "Strasbourg"}, {"long_name": "Bas-Rhin", "types": ["administrative_area_level_2", "political"], "short_name": "67"}, {"long_name": "Alsace", "types": ["administrative_area_level_1", "political"], "short_name": "Alsace"}, {"long_name": "France", "types": ["country", "political"], "short_name": "FR"}, {"long_name": "67000", "types": ["postal_code"], "short_name": "67000"}], "partial_match": true, "formatted_address": "Place du Faubourg de Pierre, 67000 Strasbourg, France", "types": ["route"]}, {"geometry": {"location": {"lat": 48.5907239, "lng": 7.744452099999998}, "viewport": {"northeast": {"lat": 48.5920728802915, "lng": 7.745801080291501}, "southwest": {"lat": 48.5893749197085, "lng": 7.743103119708496}}, "location_type": "APPROXIMATE"}, "address_components": [{"long_name": "Place de Pierre", "types": ["bus_station", "transit_station", "establishment"], "short_name": "Place de Pierre"}, {"long_name": "Strasbourg", "types": ["locality", "political"], "short_name": "Strasbourg"}, {"long_name": "Bas-Rhin", "types": ["administrative_area_level_2", "political"], "short_name": "67"}, {"long_name": "Alsace", "types": ["administrative_area_level_1", "political"], "short_name": "Alsace"}, {"long_name": "France", "types": ["country", "political"], "short_name": "FR"}, {"long_name": "67000", "types": ["postal_code"], "short_name": "67000"}], "partial_match": true, "formatted_address": "Place de Pierre, 67000 Strasbourg, France", "types": ["bus_station", "transit_station", "establishment"]}, {"geometry": {"location": {"lat": 48.5864215, "lng": 7.746275999999999}, "viewport": {"northeast": {"lat": 48.5877704802915, "lng": 7.747624980291501}, "southwest": {"lat": 48.5850725197085, "lng": 7.744927019708498}}, "location_type": "APPROXIMATE"}, "address_components": [{"long_name": "Pont de Pierre", "types": ["bus_station", "transit_station", "establishment"], "short_name": "Pont de Pierre"}, {"long_name": "Strasbourg", "types": ["locality", "political"], "short_name": "Strasbourg"}, {"long_name": "Bas-Rhin", "types": ["administrative_area_level_2", "political"], "short_name": "67"}, {"long_name": "Alsace", "types": ["administrative_area_level_1", "political"], "short_name": "Alsace"}, {"long_name": "France", "types": ["country", "political"], "short_name": "FR"}, {"long_name": "67000", "types": ["postal_code"], "short_name": "67000"}], "partial_match": true, "formatted_address": "Pont de Pierre, 67000 Strasbourg, France", "types": ["bus_station", "transit_station", "establishment"]}, {"geometry": {"location_type": "GEOMETRIC_CENTER", "bounds": {"northeast": {"lat": 48.5862588, "lng": 7.7463786}, "southwest": {"lat": 48.5852936, "lng": 7.745633700000001}}, "viewport": {"northeast": {"lat": 48.58712518029149, "lng": 7.747355130291503}, "southwest": {"lat": 48.5844272197085, "lng": 7.744657169708498}}, "location": {"lat": 48.585473, "lng": 7.746055500000001}}, "address_components": [{"long_name": "Rue Saint-Pierre le Jeune", "types": ["route"], "short_name": "Rue Saint-Pierre le Jeune"}, {"long_name": "Strasbourg", "types": ["locality", "political"], "short_name": "Strasbourg"}, {"long_name": "Bas-Rhin", "types": ["administrative_area_level_2", "political"], "short_name": "67"}, {"long_name": "Alsace", "types": ["administrative_area_level_1", "political"], "short_name": "Alsace"}, {"long_name": "France", "types": ["country", "political"], "short_name": "FR"}, {"long_name": "67000", "types": ["postal_code"], "short_name": "67000"}], "partial_match": true, "formatted_address": "Rue Saint-Pierre le Jeune, 67000 Strasbourg, France", "types": ["route"]}, {"geometry": {"location": {"lat": 48.587494, "lng": 7.7462116}, "viewport": {"northeast": {"lat": 48.5888429802915, "lng": 7.747560580291502}, "southwest": {"lat": 48.5861450197085, "lng": 7.744862619708497}}, "location_type": "APPROXIMATE"}, "address_components": [{"long_name": "Faubourg de Pierre", "types": ["bus_station", "transit_station", "establishment"], "short_name": "Faubourg de Pierre"}, {"long_name": "Strasbourg", "types": ["locality", "political"], "short_name": "Strasbourg"}, {"long_name": "Bas-Rhin", "types": ["administrative_area_level_2", "political"], "short_name": "67"}, {"long_name": "Alsace", "types": ["administrative_area_level_1", "political"], "short_name": "Alsace"}, {"long_name": "France", "types": ["country", "political"], "short_name": "FR"}, {"long_name": "67000", "types": ["postal_code"], "short_name": "67000"}], "partial_match": true, "formatted_address": "Faubourg de Pierre, 67000 Strasbourg, France", "types": ["bus_station", "transit_station", "establishment"]}, {"geometry": {"location": {"lat": 48.597401, "lng": 7.768825}, "viewport": {"northeast": {"lat": 48.59874998029151, "lng": 7.770173980291502}, "southwest": {"lat": 48.59605201970851, "lng": 7.767476019708497}}, "location_type": "APPROXIMATE"}, "address_components": [{"long_name": "Seat of the European Parliament in Strasbourg", "types": ["premise"], "short_name": "Seat of the European Parliament in Strasbourg"}, {"long_name": "Strasbourg", "types": ["locality", "political"], "short_name": "Strasbourg"}, {"long_name": "Bas-Rhin", "types": ["administrative_area_level_2", "political"], "short_name": "67"}, {"long_name": "Alsace", "types": ["administrative_area_level_1", "political"], "short_name": "Alsace"}, {"long_name": "France", "types": ["country", "political"], "short_name": "FR"}, {"long_name": "67000", "types": ["postal_code"], "short_name": "67000"}], "partial_match": true, "formatted_address": "Seat of the European Parliament in Strasbourg, 67000 Strasbourg, France", "types": ["premise"]}, {"geometry": {"location_type": "GEOMETRIC_CENTER", "bounds": {"northeast": {"lat": 48.58063199999999, "lng": 7.750825999999999}, "southwest": {"lat": 48.5804285, "lng": 7.750388300000001}}, "viewport": {"northeast": {"lat": 48.5818792302915, "lng": 7.751956130291503}, "southwest": {"lat": 48.5791812697085, "lng": 7.749258169708498}}, "location": {"lat": 48.5804374, "lng": 7.750407200000001}}, "address_components": [{"long_name": "Rue des Tailleurs de Pierre", "types": ["route"], "short_name": "Rue des Tailleurs de Pierre"}, {"long_name": "Strasbourg", "types": ["locality", "political"], "short_name": "Strasbourg"}, {"long_name": "Bas-Rhin", "types": ["administrative_area_level_2", "political"], "short_name": "67"}, {"long_name": "Alsace", "types": ["administrative_area_level_1", "political"], "short_name": "Alsace"}, {"long_name": "France", "types": ["country", "political"], "short_name": "FR"}, {"long_name": "67000", "types": ["postal_code"], "short_name": "67000"}], "partial_match": true, "formatted_address": "Rue des Tailleurs de Pierre, 67000 Strasbourg, France", "types": ["route"]}]}, "phone": "+33-(0)3 88 15 07 10", "contact": "Daniel Egret", "location": "La Petite Pierre (Strasbourg), France", "address": "Observatoire de Strasbourg,11 rue de l'Universite,Strasbourg,France,67000", "keywords": "", "ingested": "May 01, 1997 12:00:00 AM", "email": "egret@astro.u-strasbg.fr"}, {"web": "", "fax": "", "bibCode": "", "end": "1997-07-01", "title": "Solar Physics Division of the AAS", "meetingNumber": "125", "modified": "Dec 11, 1996 12:00:00 AM", "start": "1997-06-26", "GoogleMapsResponse": {"status": "OK", "results": [{"geometry": {"location_type": "APPROXIMATE", "bounds": {"northeast": {"lat": 45.72422400000001, "lng": -110.983769}, "southwest": {"lat": 45.634789, "lng": -111.1180349}}, "viewport": {"northeast": {"lat": 45.72422400000001, "lng": -110.983769}, "southwest": {"lat": 45.634789, "lng": -111.1180349}}, "location": {"lat": 45.6834599, "lng": -111.050499}}, "address_components": [{"long_name": "Bozeman", "types": ["locality", "political"], "short_name": "Bozeman"}, {"long_name": "Gallatin County", "types": ["administrative_area_level_2", "political"], "short_name": "Gallatin County"}, {"long_name": "Montana", "types": ["administrative_area_level_1", "political"], "short_name": "MT"}, {"long_name": "United States", "types": ["country", "political"], "short_name": "US"}], "formatted_address": "Bozeman, MT, USA", "types": ["locality", "political"]}]}, "phone": "", "contact": "Loren Acton", "location": "Bozeman, MT.", "address": "", "keywords": "", "ingested": "Dec 11, 1996 12:00:00 AM", "email": "acton@physics.montana.edu"}, {"web": "", "fax": "", "bibCode": "1998AAS...192.2101D", "end": "1997-06-27", "title": "Astronomers as Partners for K-12 Education", "meetingNumber": "90", "modified": "Jul 06, 2009 12:00:00 AM", "start": "1997-06-27", "GoogleMapsResponse": {"status": "OK", "results": [{"geometry": {"location_type": "APPROXIMATE", "bounds": {"northeast": {"lat": 42.023131, "lng": -87.52404399999999}, "southwest": {"lat": 41.6443349, "lng": -87.9402669}}, "viewport": {"northeast": {"lat": 42.023131, "lng": -87.52404399999999}, "southwest": {"lat": 41.6443349, "lng": -87.9402669}}, "location": {"lat": 41.8781136, "lng": -87.6297982}}, "address_components": [{"long_name": "Chicago", "types": ["locality", "political"], "short_name": "Chicago"}, {"long_name": "Cook County", "types": ["administrative_area_level_2", "political"], "short_name": "Cook County"}, {"long_name": "Illinois", "types": ["administrative_area_level_1", "political"], "short_name": "IL"}, {"long_name": "United States", "types": ["country", "political"], "short_name": "US"}], "formatted_address": "Chicago, IL, USA", "types": ["locality", "political"]}]}, "phone": "", "contact": "Mike Bennett", "location": "Chicago, IL", "address": "", "keywords": "", "ingested": "Oct 18, 1996 12:00:00 AM", "email": "mbennett@stars.sfsu.edu"}, {"web": "", "fax": "", "bibCode": "", "end": "1997-06-29", "title": "Universe 97", "meetingNumber": "89", "modified": "Oct 18, 1996 12:00:00 AM", "start": "1997-06-28", "GoogleMapsResponse": {"status": "OK", "results": [{"geometry": {"location_type": "APPROXIMATE", "bounds": {"northeast": {"lat": 42.023131, "lng": -87.52404399999999}, "southwest": {"lat": 41.6443349, "lng": -87.9402669}}, "viewport": {"northeast": {"lat": 42.023131, "lng": -87.52404399999999}, "southwest": {"lat": 41.6443349, "lng": -87.9402669}}, "location": {"lat": 41.8781136, "lng": -87.6297982}}, "address_components": [{"long_name": "Chicago", "types": ["locality", "political"], "short_name": "Chicago"}, {"long_name": "Cook County", "types": ["administrative_area_level_2", "political"], "short_name": "Cook County"}, {"long_name": "Illinois", "types": ["administrative_area_level_1", "political"], "short_name": "IL"}, {"long_name": "United States", "types": ["country", "political"], "short_name": "US"}], "formatted_address": "Chicago, IL, USA", "types": ["locality", "political"]}]}, "phone": "", "contact": "", "location": "Chicago, IL", "address": "", "keywords": "", "ingested": "Oct 18, 1996 12:00:00 AM", "email": "asp@stars.sfsu.edu"}, {"web": "", "fax": "+44-(0)1861-527174", "bibCode": "", "end": "1997-07-01", "title": "The Birr Telescope and its Importance to Astronomy: From Nebulae to Galaxies and Beyond - Reaching Out", "meetingNumber": "165", "modified": "Jul 11, 2001 12:00:00 AM", "start": "1997-06-30", "GoogleMapsResponse": {"status": "OK", "results": [{"geometry": {"location_type": "APPROXIMATE", "bounds": {"northeast": {"lat": 52.6813922, "lng": -8.556066399999999}, "southwest": {"lat": 52.6670147, "lng": -8.5850666}}, "viewport": {"northeast": {"lat": 52.6813922, "lng": -8.556066399999999}, "southwest": {"lat": 52.6670147, "lng": -8.5850666}},